~Version ---------------------------------------------------
VERS.   2.0 : CWLS log ASCII Standard -VERSION 2.0
WRAP.    NO : One line per depth step
DLM . SPACE : Column Data Section Delimiter
~Well ------------------------------------------------------
STRT.F    90.0 : START DEPTH
STOP.F   334.0 : STOP DEPTH
STEP.F     0.5 : STEP
NULL. -9999.25 : NULL VALUE
COMP.          : COMPANY
WELL.          : WELL
FLD .          : FIELD
LOC .          : LOCATION
PROV.          : PROVINCE
CNTY.          : COUNTY
STAT.          : STATE
CTRY.          : COUNTRY
SRVC.          : SERVICE COMPANY
DATE.          : DATE
UWI .          : UNIQUE WELL ID
API .          : API NUMBER
~Curve Information -----------------------------------------
DEPT.F     : 
RILD.      : 
RILM.      : 
GR  .      : 
SP  .      : 
FRES.OHMM  : 
TMP .DEGF  : 
~Params ----------------------------------------------------
~Other -----------------------------------------------------
~ASCII -----------------------------------------------------
   90.00000    2.98480    0.35319   54.79200  -97.36800    0.36300   64.67800
   90.50000    3.00110    0.38363   55.27100  -96.87200    0.36200   64.65800
   91.00000    3.05230    0.37695   55.88100  -94.87800    0.36100   64.63100
   91.50000    3.16380    0.35317   56.02600  -90.31100    0.36000   64.60400
   92.00000    3.19140    0.35314   54.08500  -83.87400    0.36000   64.57700
   92.50000    3.04800    0.35314   51.73700  -76.32700    0.35900   64.55000
   93.00000    2.85930    0.33997   50.63900  -65.35800    0.35800   64.52300
   93.50000    2.79700    0.32484   51.10300  -56.32400    0.35800   64.49600
   94.00000    2.81850    0.31989   51.87100  -47.85600    0.35700   64.46900
   94.50000    2.87490    0.31509   50.50300  -40.75200    0.35600   64.44100
   95.00000    2.91110    0.31298   46.53600  -36.42300    0.35600   64.41400
   95.50000    2.85290    0.31824   42.72000  -34.21700    0.35500   64.38700
   96.00000    2.56970    0.32336   41.53200  -33.45000    0.35400   64.36000
   96.50000    2.48080    0.31601   44.98300  -35.02900    0.35400   64.33300
   97.00000    2.48880    0.30045   49.20100  -36.74700    0.35300   64.30600
   97.50000    1.14380    0.28497   53.03800  -37.92100    0.35200   64.27900
   98.00000    0.38002    0.27024   54.23400  -36.83900    0.35200   64.25200
   98.50000    0.19886    0.26998   56.67900  -32.51900    0.35100   64.22500
   99.00000    0.17438    0.26862   62.04800  -27.39500    0.35100   64.19800
   99.50000    0.19146    0.35937   70.46800  -24.80100    0.35000   64.17100
  100.00000    0.38842    0.79478   78.42700  -22.16900    0.34900   64.14400
  100.50000    0.82033    1.11950   81.69800  -19.79800    0.34900   64.11700
  101.00000    1.12070    1.20980   79.49900  -18.86000    0.34800   64.09000
  101.50000    1.12020    1.21110   71.64800  -18.39200    0.34700   64.06500
  102.00000    1.14250    1.20200   65.19500  -18.95200    0.34700   64.04000
  102.50000    1.14270    1.18140   61.29100  -19.52400    0.34600   64.01400
  103.00000    1.14270    1.17930   61.34900  -19.87200    0.34500   63.98900
  103.50000    1.14550    1.19770   64.62300  -19.84200    0.34500   63.97700
  104.00000    1.14970    1.20230   67.69600  -20.28400    0.34400   63.97200
  104.50000    1.15400    1.18490   70.08900  -20.50800    0.34300   63.96800
  105.00000    1.15820    1.19750   72.44500  -20.69300    0.34300   63.96400
  105.50000    1.16240    1.20940   75.35600  -20.87700    0.34200   63.96000
  106.00000    1.16670    1.22120   80.40000  -21.06200    0.34100   63.95600
  106.50000    1.17080    1.23300   89.08300  -21.24700    0.34100   63.95100
  107.00000    1.17390    1.24490   96.65900  -21.43600    0.34000   63.94700
  107.50000    1.17710    1.25240   95.51800  -21.46800    0.33900   63.94300
  108.00000    1.18020    1.24800   87.99100  -21.46800    0.33900   63.93900
  108.50000    1.18340    1.24370   82.28800  -21.46800    0.33800   63.93500
  109.00000    1.18420    1.24130   77.19100  -21.46800    0.33800   63.93100
  109.50000    1.18420    1.28940   75.35400  -21.46800    0.33700   63.92700
  110.00000    1.21170    1.29500   73.95200  -21.46800    0.33600   63.92200
  110.50000    1.26020    1.29500   75.18400  -21.44800    0.33600   63.91800
  111.00000    1.28480    1.29500   73.35100  -21.28000    0.33500   63.91400
  111.50000    1.30950    1.34410   71.11500  -21.11400    0.33500   63.91000
  112.00000    1.32780    1.39500   68.87100  -20.94600    0.33400   63.89300
  112.50000    1.33870    1.41430   67.36000  -20.65200    0.33300   63.87400
  113.00000    1.35000    1.36630   67.25500  -20.32300    0.33300   63.85500
  113.50000    1.34780    1.36510   68.38800  -20.04300    0.33200   63.83500
  114.00000    1.34510    1.38860   68.90500  -19.89400    0.33200   63.81600
  114.50000    1.34240    1.34610   67.71600  -19.84000    0.33100   63.79600
  115.00000    1.33970    1.32820   66.91200  -19.92200    0.33100   63.77700
  115.50000    1.33740    1.33610   64.54100  -20.00600    0.33000   63.75800
  116.00000    1.30550    1.31320   58.81300  -20.09800    0.32900   63.73800
  116.50000    1.26970    1.26910   53.69100  -20.39200    0.32900   63.71900
  117.00000    1.23390    1.26810   54.41800  -20.47600    0.32800   63.71200
  117.50000    1.19890    1.21400   65.40200  -20.55900    0.32800   63.70900
  118.00000    1.20330    1.24310   71.32900  -20.63300    0.32700   63.70600
  118.50000    1.20840    1.24370   69.16000  -20.50600    0.32600   63.70300
  119.00000    1.21370    1.22820   65.41500  -20.38100    0.32600   63.69900
  119.50000    1.21900    1.24020   63.56600  -20.36000    0.32500   63.69600
  120.00000    1.22430    1.25820   62.06600  -20.36000    0.32500   63.69300
  120.50000    1.22970    1.27630   59.76900  -20.36200    0.32400   63.69000
  121.00000    1.23500    1.30960   56.22500  -19.83600    0.32300   63.68700
  121.50000    1.24030    1.34860   55.69000  -19.97600    0.32300   63.68300
  122.00000    1.24560    1.36440   58.93100  -20.15500    0.32200   63.68000
  122.50000    1.25100    1.35840   60.30800  -20.33400    0.32200   63.67700
  123.00000    1.25630    1.33590   59.01100  -20.62700    0.32100   63.67400
  123.50000    1.26160    1.33800   55.40800  -20.93500    0.32000   63.67000
  124.00000    1.26730    1.37670   54.26500  -21.24400    0.32000   63.66700
  124.50000    1.27550    1.34280   56.03100  -21.42700    0.31900   63.66400
  125.00000    1.31110    1.32280   59.10800  -21.26800    0.31900   63.66100
  125.50000    1.35230    1.32630   62.19300  -21.31600    0.31800   63.66100
  126.00000    1.42280    1.33080   65.28700  -21.55200    0.31700   63.66400
  126.50000    1.45120    1.33520   67.47600  -21.78700    0.31700   63.66700
  127.00000    1.43400    1.37450   66.95500  -22.02200    0.31600   63.67100
  127.50000    1.44560    1.42660   65.15400  -22.25700    0.31600   63.67400
  128.00000    1.47110    1.47160   63.23500  -22.49300    0.31500   63.67700
  128.50000    1.49850    1.51210   60.30000  -22.72800    0.31400   63.68100
  129.00000    1.51290    1.54360   56.53200  -22.92400    0.31400   63.68400
  129.50000    1.50180    1.53650   55.99500  -23.07400    0.31300   63.68700
  130.00000    1.49060    1.52850   58.46600  -23.22500    0.31300   63.69100
  130.50000    1.47950    1.47050   62.80900  -23.37500    0.31200   63.69400
  131.00000    1.46590    1.44140   66.58900  -23.52600    0.31100   63.69700
  131.50000    1.45040    1.41180   69.32800  -23.67600    0.31100   63.70100
  132.00000    1.43500    1.38210   66.74400  -23.82700    0.31000   63.70400
  132.50000    1.41950    1.35240   60.78800  -23.97700    0.31000   63.70700
  133.00000    1.39520    1.33250   57.36900  -24.12800    0.30900   63.71100
  133.50000    1.37060    1.32360   55.17600  -24.29900    0.30900   63.71400
  134.00000    1.38070    1.33190   53.10400  -24.53100    0.30900   63.71500
  134.50000    1.40340    1.37230   53.26400  -24.76100    0.30900   63.71400
  135.00000    1.42600    1.43880   55.00400  -24.99200    0.30800   63.71300
  135.50000    1.44060    1.43860   53.51600  -25.42500    0.30800   63.71300
  136.00000    1.44460    1.41980   51.81300  -25.96000    0.30800   63.71200
  136.50000    1.43650    1.41970   53.89000  -26.49400    0.30700   63.71100
  137.00000    1.42820    1.41970   55.68900  -27.02900    0.30700   63.71100
  137.50000    1.42000    1.41970   55.82900  -27.57400    0.30700   63.71000
  138.00000    1.41180    1.41940   53.22800  -28.71700    0.30700   63.70900
  138.50000    1.41720    1.42660   49.93400  -29.87100    0.30600   63.70900
  139.00000    1.41400    1.41210   47.36200  -31.03000    0.30600   63.70800
  139.50000    1.36170    1.38180   49.38400  -32.00800    0.30600   63.70800
  140.00000    1.34730    1.37130   51.73200  -28.89900    0.30600   63.70700
  140.50000    1.33740    1.35170   51.96500  -23.75100    0.30600   63.70600
  141.00000    1.34070    1.30300   48.60600  -23.69700    0.30600   63.70600
