~Version ---------------------------------------------------
VERS.   2.0 : CWLS log ASCII Standard -VERSION 2.0
WRAP.    NO : One line per depth step
DLM . SPACE : Column Data Section Delimiter
~Well ------------------------------------------------------
STRT.F    90.0 : START DEPTH
STOP.F   334.0 : STOP DEPTH
STEP.F     0.5 : STEP
NULL. -9999.25 : NULL VALUE
COMP.          : COMPANY
WELL.          : WELL
FLD .          : FIELD
LOC .          : LOCATION
PROV.          : PROVINCE
CNTY.          : COUNTY
STAT.          : STATE
CTRY.          : COUNTRY
SRVC.          : SERVICE COMPANY
DATE.          : DATE
UWI .          : UNIQUE WELL ID
API .          : API NUMBER
~Curve Information -----------------------------------------
DEPT.F     : 
RILD.      : 
RILM.      : 
GR  .      : 
SP  .      : 
FRES.OHMM  : 
TMP .DEGF  : 
~Params ----------------------------------------------------
~Other -----------------------------------------------------
~ASCII -----------------------------------------------------
# ...
  244.50000    2.01710    1.97900   68.12000  -35.87300    0.27100   63.77300
  245.00000    2.00820    1.95110   67.62000  -35.87300    0.27100   63.77400
  245.50000    1.97960    1.92320   65.44800  -35.88900    0.27100   63.77400
  246.00000    1.89230    1.87630   62.45900  -36.02300    0.27100   63.77500
  246.50000    1.65250    1.83270   59.31600  -36.15500    0.27100   63.77500
  247.00000    1.59540    1.67690   56.13800  -36.28800    0.27000   63.77600
  247.50000    1.68250    1.64590   53.18800  -36.42100    0.27000   63.77600
  248.00000    1.75800    1.77560   53.14500  -36.55400    0.27000   63.77700
  248.50000    1.80060    1.86760   55.70300  -36.68900    0.27000   63.77800
  249.00000    1.84310    1.99100   59.30700  -36.62800    0.27000   63.77800
  249.50000    1.91360    2.14460   62.19300  -36.54200    0.26900   63.77900
  250.00000    2.00740    2.29880   63.62900  -36.45500    0.26900   63.77900
  250.50000    2.19590    2.43910   63.00600  -36.65800    0.26900   63.78000
  251.00000    2.37430    2.48560   58.00400  -37.03700    0.26900   63.78000
  251.50000    2.47300    2.55500   53.86900  -37.65800    0.26900   63.78100
  252.00000    2.53250    2.63430   52.97000  -38.28500    0.26900   63.78100
  252.50000    2.59580    2.73720   56.42300  -39.09800    0.26800   63.78200
  253.00000    2.66980    2.93200   62.55500  -39.91000    0.26800   63.78300
  253.50000    2.79000    3.12070   71.45600  -40.36200    0.26800   63.78300
  254.00000    2.85960    3.16440   82.70300  -40.58200    0.26800   63.78400
  254.50000    2.86010    3.15560   91.25400  -40.73700    0.26800   63.78400
  255.00000    2.86050    3.20690   91.57300  -41.06900    0.26700   63.78500
  255.50000    2.89260    3.21960   87.69600  -41.40400    0.26700   63.78500
  256.00000    2.96920    3.16670   79.45600  -41.69400    0.26700   63.78600
  256.50000    3.02380    3.20480   71.24900  -41.69000    0.26700   63.78700
  257.00000    3.03270    3.13440   67.22400  -41.61100    0.26700   63.78700
  257.50000    3.01320    3.14980   70.12400  -41.42700    0.26600   63.78800
  258.00000    3.03890    3.11340   77.08200  -41.24200    0.26600   63.78800
  258.50000    3.08900    3.03790   84.61000  -41.05700    0.26600   63.78900
  259.00000    3.14460    3.18800   92.03300  -40.86500    0.26600   63.78900
  259.50000    3.17850    3.26850   97.89800  -41.26000    0.26600   63.79000
  260.00000    3.20580    3.22640  101.76000  -41.69300    0.26600   63.79100
  260.50000    3.29090    3.26380  102.20000  -42.12700    0.26500   63.79100
  261.00000    3.43320    3.52800  100.34000  -42.91900    0.26500   63.79200
  261.50000    3.52930    3.68190   93.29600  -43.84500    0.26500   63.79200
  262.00000    3.57130    3.87320   84.78700  -44.57200    0.26500   63.79300
  262.50000    3.63960    4.13150   77.28800  -44.49400    0.26500   63.79300
  263.00000    3.79290    4.46900   72.37900  -43.93200    0.26400   63.79400
  263.50000    3.95340    4.81490   67.86800  -43.18600    0.26400   63.79500
  264.00000    4.05410    4.89590   65.75100  -42.43700    0.26400   63.79500
  264.50000    4.06210    4.69900   64.50300  -41.67500    0.26400   63.79600
  265.00000    4.01220    4.47370   65.48900  -40.23700    0.26400   63.79600
  265.50000    3.93190    4.13390   66.12900  -39.11500    0.26300   63.79700
  266.00000    3.61460    3.76530   65.23400  -38.37800    0.26300   63.79700
  266.50000    3.28490    3.39700   62.64900  -38.51100    0.26300   63.79800
  267.00000    3.00320    3.05120   61.73200  -38.64000    0.26300   63.79900
  267.50000    2.79770    2.89920   61.92900  -39.03000    0.26300   63.79900
  268.00000    2.57450    2.71780   60.75200  -39.46100    0.26300   63.80000
  268.50000    2.40940    2.43630   58.73900  -39.92100    0.26200   63.80000
  269.00000    2.26290    2.24730   59.43700  -40.46200    0.26200   63.80100
  269.50000    2.17620    2.10490   62.36200  -41.36200    0.26200   63.80100
  270.00000    2.06250    1.98550   66.16600  -42.24600    0.26200   63.80200
  270.50000    1.94850    1.91130   69.94300  -43.12900    0.26200   63.80300
  271.00000    1.84750    1.81400   70.21500  -44.01100    0.26100   63.80300
  271.50000    1.75060    1.74570   67.27300  -44.89400    0.26100   63.80400
  272.00000    1.70360    1.67440   65.59900  -45.78000    0.26100   63.80400
  272.50000    1.66250    1.62940   66.75000  -46.71400    0.26100   63.80500
  273.00000    1.61450    1.58480   67.68600  -47.69100    0.26100   63.80500
  273.50000    1.58200    1.55480   63.50300  -48.66900    0.26100   63.80600
  274.00000    1.57170    1.54500   59.03800  -49.74300    0.26000   63.80700
  274.50000    1.55970    1.56560   57.57300  -50.85300    0.26000   63.80700
  275.00000    1.54820    1.53160   58.95000  -51.96200    0.26000   63.80800
  275.50000    1.53670    1.52380   59.69900  -53.06800    0.26000   63.80800
  276.00000    1.52000    1.51660   58.59500  -54.17700    0.26000   63.80900
  276.50000    1.49780    1.50950   55.63700  -55.72400    0.25900   63.80900
  277.00000    1.48410    1.50270   52.72700  -57.41200    0.25900   63.81000
  277.50000    1.47610    1.49940   51.29800  -59.09600    0.25900   63.81100
  278.00000    1.46810    1.49630   51.63100  -60.79600    0.25900   63.81100
  278.50000    1.46020    1.49310   53.06300  -62.66000    0.25900   63.81200
  279.00000    1.45270    1.49000   54.55400  -64.54100    0.25800   63.81300
  279.50000    1.45570    1.51540   54.82000  -66.47500    0.25800   63.81500
  280.00000    1.48760    1.55670   54.66300  -68.14400    0.25800   63.81600
  280.50000    1.49840    1.54520   52.83400  -68.83900    0.25800   63.81800
  281.00000    1.49000    1.53140   50.37400  -69.54400    0.25800   63.82000
  281.50000    1.48170    1.51760   49.69100  -70.02000    0.25800   63.82100
  282.00000    1.47700    1.50330   53.42000  -70.46100    0.25900   63.82300
  282.50000    1.48880    1.51420   56.87600  -70.90200    0.25900   63.82500
  283.00000    1.49790    1.52640   57.86200  -71.34200    0.25900   63.82700
  283.50000    1.50700    1.52430   56.03200  -71.78300    0.25900   63.83200
  284.00000    1.51620    1.51470   54.82200  -72.22400    0.25900   63.83700
  284.50000    1.50350    1.50520   55.37600  -72.66400    0.25900   63.84200
  285.00000    1.51310    1.52670   55.99700  -73.10500    0.26000   63.84700
  285.50000    1.53750    1.55960   56.40600  -73.54000    0.26000   63.85200
  286.00000    1.55770    1.59240   54.25200  -73.68900    0.26000   63.85700
  286.50000    1.60340    1.62510   52.85400  -73.83200    0.26000   63.86200
  287.00000    1.65350    1.65850   53.57400  -73.97500    0.26000   63.86600
  287.50000    1.67930    1.73900   56.53100  -74.10200    0.26000   63.87100
  288.00000    1.70010    1.78080   61.43400  -74.10000    0.26100   63.87600
  288.50000    1.71030    1.82030   63.35100  -74.10000    0.26100   63.88100
  289.00000    1.71050    1.80640   62.89800  -74.10000    0.26100   63.88600
  289.50000    1.71020    1.78430   59.20900  -74.12500    0.26100   63.89100
  290.00000    1.68080    1.70840   57.23200  -74.34100    0.26100   63.89600
  290.50000    1.63100    1.63300   58.95500  -74.37700    0.26100   63.90100
  291.00000    1.58120    1.56550   61.95800  -74.43800    0.26100   63.90600
  291.50000    1.53130    1.54090   62.74000  -74.56700    0.26200   63.91100
  292.00000    1.50850    1.53140   60.04500  -74.69700    0.26200   63.91600
  292.50000    1.48600    1.52200   57.34200  -74.82700    0.26200   63.92000
  293.00000    1.46320    1.51260   59.30000  -74.93200    0.26200   63.92500
  293.50000    1.47670    1.50290   63.56600  -74.93100    0.26200   63.93000
  294.00000    1.48900    1.49020   64.43900  -74.90600    0.26200   63.93500
  294.50000    1.48890    1.49720   60.51900  -74.83200    0.26100   63.94000
  295.00000    1.48890    1.50650   56.30900  -74.75800    0.26100   63.94500
  295.50000    1.48890    1.51600   54.71700  -74.68300    0.26100   63.95000
