~Version ---------------------------------------------------
VERS.   2.0 : CWLS log ASCII Standard -VERSION 2.0
WRAP.    NO : One line per depth step
DLM . SPACE : Column Data Section Delimiter
~Well ------------------------------------------------------
STRT.F    90.0 : START DEPTH
STOP.F   334.0 : STOP DEPTH
STEP.F     0.5 : STEP
NULL. -9999.25 : NULL VALUE
COMP.          : COMPANY
WELL.          : WELL
FLD .          : FIELD
LOC .          : LOCATION
PROV.          : PROVINCE
CNTY.          : COUNTY
STAT.          : STATE
CTRY.          : COUNTRY
SRVC.          : SERVICE COMPANY
DATE.          : DATE
UWI .          : UNIQUE WELL ID
API .          : API NUMBER
~Curve Information -----------------------------------------
DEPT.F     : 
RILD.      : 
RILM.      : 
GR  .      : 
SP  .      : 
FRES.OHMM  : 
TMP .DEGF  : 
~Params ----------------------------------------------------
~Other -----------------------------------------------------
~ASCII -----------------------------------------------------
# ...
  141.50000    1.34390    1.31240   48.41300  -23.84500    0.30600   63.70500
  142.00000    1.34710    1.33410   50.45300  -23.99500    0.30600   63.70400
  142.50000    1.34990    1.35590   54.34600  -24.14400    0.30600   63.70400
  143.00000    1.37860    1.37760   56.64400  -24.29400    0.30500   63.70300
  143.50000    1.41100    1.39940   54.51600  -24.44300    0.30500   63.70200
  144.00000    1.44350    1.42060   52.61700  -24.59200    0.30500   63.70200
  144.50000    1.47620    1.44990   52.50100  -24.74200    0.30500   63.70100
  145.00000    1.52900    1.47820   50.59800  -24.89900    0.30500   63.70300
  145.50000    1.59610    1.50410   50.96500  -25.06000    0.30500   63.70600
  146.00000    1.59760    1.51160   54.34200  -25.22100    0.30500   63.70900
  146.50000    1.59830    1.56470   55.80900  -25.38100    0.30500   63.71200
  147.00000    1.66900    1.68360   55.17000  -25.54100    0.30500   63.71400
  147.50000    1.78140    1.80290   56.43400  -25.40700    0.30400   63.71700
  148.00000    1.84730    1.92410   60.87700  -25.34600    0.30400   63.72000
  148.50000    1.92310    2.05820   64.83100  -25.27300    0.30300   63.72300
  149.00000    1.98980    2.19840   68.19300  -24.57300    0.30300   63.72500
  149.50000    2.08670    2.32030   72.63300  -23.61300    0.30300   63.72800
  150.00000    2.14450    2.39460   77.01000  -22.42400    0.30200   63.73100
  150.50000    2.18840    2.45750   79.36100  -20.74700    0.30200   63.73400
  151.00000    2.23260    2.47130   74.12400  -18.82500    0.30100   63.73600
  151.50000    2.25230    2.41080   65.88600  -17.68300    0.30100   63.73900
  152.00000    2.20440    2.17750   59.79100  -16.74400    0.30000   63.74200
  152.50000    2.12430    2.09860   57.07500  -15.78900    0.30000   63.74500
  153.00000    2.03220    2.05650   61.10200  -15.72600    0.30000   63.74700
  153.50000    2.03670    1.99370   60.99100  -15.81500    0.29900   63.75000
  154.00000    2.03640    1.96380   59.40100  -15.90500    0.29900   63.75300
  154.50000    1.99730    1.94070   58.40300  -16.09200    0.29900   63.75600
  155.00000    1.96100    1.89800   60.09500  -16.31400    0.29900   63.75900
  155.50000    1.98910    1.89700   61.58900  -16.53500    0.29800   63.76100
  156.00000    2.09170    1.93460   57.86600  -16.75300    0.29800   63.76400
  156.50000    2.19710    2.01260   56.84600  -16.71400    0.29800   63.76700
  157.00000    2.17230    2.04950   61.34700  -16.67000    0.29800   63.77000
  157.50000    2.12990    2.04430   63.01300  -16.62500    0.29800   63.77000
  158.00000    2.08580    1.99580   58.89500  -16.58000    0.29700   63.77000
  158.50000    2.04090    1.97660   54.40300  -16.53500    0.29700   63.77000
  159.00000    1.99390    1.93940   51.18100  -16.48500    0.29700   63.77000
  159.50000    1.95980    1.88930   54.01100  -16.74800    0.29700   63.77000
  160.00000    1.92830    1.84220   58.65700  -16.55500    0.29500   63.73800
  160.50000    1.86230    1.78750   61.42000  -16.35300    0.29500   63.73600
  161.00000    1.79590    1.71130   58.23000  -16.15000    0.29400   63.73400
  161.50000    1.73330    1.65230   55.05800  -15.94800    0.29400   63.73300
  162.00000    1.70170    1.62470   54.51500  -15.74700    0.29400   63.73100
  162.50000    1.66960    1.61040   56.39700  -15.65100    0.29300   63.72900
  163.00000    1.63750    1.59630   55.52200  -15.65100    0.29300   63.72800
  163.50000    1.60530    1.57420   53.68400  -15.65100    0.29200   63.72600
  164.00000    1.57320    1.53010   52.03300  -15.65100    0.29200   63.72400
  164.50000    1.53110    1.48600   51.61300  -15.65000    0.29200   63.72300
  165.00000    1.48040    1.44180   52.71900  -15.59200    0.29100   63.72100
  165.50000    1.42970    1.39640   54.79800  -15.49300    0.29100   63.71900
  166.00000    1.37890    1.39010   55.34900  -15.39400    0.29000   63.71700
  166.50000    1.32820    1.33410   55.31400  -15.29500    0.29000   63.71600
  167.00000    1.27670    1.27770   57.95800  -15.19600    0.29000   63.71600
  167.50000    1.21540    1.17910   63.43200  -15.09700    0.29000   63.71700
  168.00000    1.15060    1.13580   67.01400  -14.99800    0.29000   63.71800
  168.50000    1.14140    1.23740   63.42200  -14.89900    0.29000   63.71900
  169.00000    1.16110    1.26700   55.46700  -14.80000    0.29000   63.72100
  169.50000    1.17320    1.26810   49.78700  -14.70100    0.29000   63.72200
  170.00000    1.17820    1.27470   49.37800  -14.60200    0.29000   63.72300
  170.50000    1.18260    1.28100   51.83600  -14.48700    0.28900   63.72400
  171.00000    1.23780    1.28130   54.23200  -14.34700    0.28900   63.72600
  171.50000    1.25350    1.30570   56.62100  -14.24200    0.28900   63.72700
  172.00000    1.22750    1.31180   57.31700  -14.18400    0.28900   63.72800
  172.50000    1.20150    1.27940   58.85400  -14.12600    0.28900   63.72900
  173.00000    1.17490    1.25210   58.42700  -14.06700    0.28900   63.73100
  173.50000    1.17040    1.24630   57.87100  -14.01000    0.28900   63.73200
  174.00000    1.17040    1.24040   54.23700  -14.01200    0.28900   63.73300
  174.50000    1.17040    1.23450   49.20000  -14.04900    0.28900   63.73400
  175.00000    1.17090    1.22860   45.39800  -14.08600    0.28900   63.73600
  175.50000    1.18330    1.23150   44.53500  -14.12300    0.28900   63.73700
  176.00000    1.20010    1.24220   48.04300  -14.15900    0.28900   63.73800
  176.50000    1.21830    1.25300   51.54100  -14.19600    0.28900   63.73900
  177.00000    1.22170    1.26370   52.51400  -14.23300    0.28900   63.74100
  177.50000    1.21480    1.26580   49.28500  -14.25000    0.28900   63.74200
  178.00000    1.21750    1.26330   46.25300  -14.07600    0.28800   63.74300
  178.50000    1.22700    1.26090   46.93400  -14.09500    0.28800   63.74400
  179.00000    1.23640    1.25850   48.82600  -14.30400    0.28800   63.74600
  179.50000    1.24540    1.25600   50.38900  -14.51300    0.28800   63.74700
  180.00000    1.25250    1.25350   51.52200  -14.72100    0.28800   63.74800
  180.50000    1.22600    1.23410   52.98500  -14.93000    0.28800   63.74900
  181.00000    1.20210    1.22530   54.38800  -15.06100    0.28800   63.75000
  181.50000    1.22090    1.25900   54.42600  -14.84400    0.28800   63.75200
  182.00000    1.23200    1.30170   50.97500  -15.36600    0.28800   63.75300
  182.50000    1.24300    1.30200   44.56600  -15.55400    0.28700   63.75400
  183.00000    1.25270    1.29330   40.70300  -15.89500    0.28700   63.75500
  183.50000    1.23270    1.28470   40.29700  -16.23500    0.28700   63.75700
  184.00000    1.21260    1.28860   44.06800  -16.57500    0.28700   63.75800
  184.50000    1.22270    1.30110   47.33100  -16.91500    0.28600   63.75900
  185.00000    1.23420    1.31400   46.48500  -17.25500    0.28600   63.76000
  185.50000    1.24570    1.30970   43.19200  -17.59500    0.28600   63.76200
  186.00000    1.26370    1.32650   40.68800  -17.86800    0.28600   63.76300
  186.50000    1.29410    1.34210   40.98500  -18.09600    0.28500   63.76400
  187.00000    1.32230    1.35040   42.62400  -18.38300    0.28500   63.76500
  187.50000    1.31210    1.35040   44.23400  -18.66900    0.28500   63.76700
  188.00000    1.30220    1.35030   43.44900  -18.96500    0.28500   63.76800
  188.50000    1.30040    1.34800   42.87400  -18.97400    0.28400   63.76900
  189.00000    1.32200    1.37240   42.92800  -18.97300    0.28400   63.77000
  189.50000    1.32270    1.39250   44.35900  -19.18200    0.28400   63.77200
  190.00000    1.32270    1.37520   45.73500  -19.50300    0.28400   63.77300
  190.50000    1.32490    1.33310   45.56900  -19.84600    0.28300   63.77400
  191.00000    1.32810    1.37750   42.38000  -20.18100    0.28300   63.77500
  191.50000    1.33140    1.37070   40.86000  -20.49600    0.28300   63.77700
  192.00000    1.33460    1.36440   43.48700  -20.81200    0.28300   63.77800
  192.50000    1.33510    1.35820   46.25500  -21.13200    0.28200   63.77900
