~Version ---------------------------------------------------
VERS.   2.0 : CWLS log ASCII Standard -VERSION 2.0
WRAP.    NO : One line per depth step
DLM . SPACE : Column Data Section Delimiter
~Well ------------------------------------------------------
STRT.F    90.0 : START DEPTH
STOP.F   334.0 : STOP DEPTH
STEP.F     0.5 : STEP
NULL. -9999.25 : NULL VALUE
COMP.          : COMPANY
WELL.          : WELL
FLD .          : FIELD
LOC .          : LOCATION
PROV.          : PROVINCE
CNTY.          : COUNTY
STAT.          : STATE
CTRY.          : COUNTRY
SRVC.          : SERVICE COMPANY
DATE.          : DATE
UWI .          : UNIQUE WELL ID
API .          : API NUMBER
~Curve Information -----------------------------------------
DEPT.F     : 
RILD.      : 
RILM.      : 
GR  .      : 
SP  .      : 
FRES.OHMM  : 
TMP .DEGF  : 
~Params ----------------------------------------------------
~Other -----------------------------------------------------
~ASCII -----------------------------------------------------
# ...
  193.00000    1.33160    1.35190   47.70100  -21.64100    0.28200   63.78000
  193.50000    1.32800    1.34570   48.16500  -21.79400    0.28200   63.78200
  194.00000    1.32440    1.33950   50.11300  -22.06600    0.28200   63.78300
  194.50000    1.32820    1.34030   51.74500  -22.22700    0.28100   63.78400
  195.00000    1.34170    1.34660   51.51700  -22.36400    0.28100   63.78500
  195.50000    1.35530    1.37710   50.23700  -22.50000    0.28100   63.78700
  196.00000    1.35950    1.34520   51.10200  -22.63700    0.28100   63.78800
  196.50000    1.34540    1.31240   53.88800  -22.77400    0.28000   63.78900
  197.00000    1.33100    1.29450   57.53400  -22.91000    0.28000   63.79000
  197.50000    1.34110    1.34500   56.86200  -23.04800    0.28000   63.79200
  198.00000    1.41020    1.40960   55.48900  -23.12900    0.28000   63.79300
  198.50000    1.40740    1.35580   57.50200  -23.13000    0.27900   63.79400
  199.00000    1.36550    1.28010   60.00900  -23.13000    0.27900   63.79500
  199.50000    1.31630    1.23670   59.80300  -23.13000    0.27900   63.79700
  200.00000    1.30900    1.20960   57.77800  -23.46400    0.27900   63.79800
  200.50000    1.30900    1.28160   57.56200  -24.02600    0.27800   63.79900
  201.00000    1.30010    1.32110   59.23300  -24.25700    0.27800   63.80100
  201.50000    1.27410    1.25610   57.77200  -24.48700    0.27800   63.80200
  202.00000    1.28990    1.32350   57.01100  -24.73800    0.27800   63.80300
  202.50000    1.33260    1.34230   53.73700  -24.98900    0.27700   63.80500
  203.00000    1.39160    1.42000   49.64600  -25.23900    0.27700   63.80600
  203.50000    1.42380    1.43720   47.17400  -25.34700    0.27700   63.80800
  204.00000    1.43150    1.45520   48.15700  -25.34600    0.27700   63.80900
  204.50000    1.43910    1.50010   53.22600  -25.34600    0.27600   63.81100
  205.00000    1.44740    1.55820   58.55000  -25.34600    0.27600   63.81200
  205.50000    1.51800    1.58600   61.21300  -25.30900    0.27600   63.81400
  206.00000    1.51930    1.55010   61.66800  -25.09500    0.27600   63.81500
  206.50000    1.43850    1.47460   59.85700  -24.88500    0.27500   63.81600
  207.00000    1.39020    1.37880   57.84600  -24.67500    0.27500   63.81800
  207.50000    1.32970    1.30520   55.96400  -24.55600    0.27500   63.81900
  208.00000    1.25180    1.29230   53.43800  -24.74200    0.27500   63.82100
  208.50000    1.18720    1.27940   51.84100  -24.92700    0.27500   63.82200
  209.00000    1.22200    1.26750   48.66700  -25.11200    0.27500   63.82400
  209.50000    1.25570    1.28880   45.89900  -25.29700    0.27500   63.82500
  210.00000    1.28910    1.32160   43.64500  -25.48200    0.27500   63.82600
  210.50000    1.32040    1.31600   43.32100  -25.66600    0.27500   63.82500
  211.00000    1.22880    1.29630   46.89900  -25.85100    0.27500   63.82400
  211.50000    1.21840    1.29510   50.48600  -26.03600    0.27500   63.82300
  212.00000    1.21460    1.29500   51.86700  -26.22000    0.27500   63.82200
  212.50000    1.23100    1.29500   49.50500  -26.40500    0.27400   63.82100
  213.00000    1.24400    1.29500   49.26900  -26.53100    0.27400   63.82000
  213.50000    1.25350    1.29500   52.77300  -26.63400    0.27400   63.82000
  214.00000    1.26280    1.29500   56.60900  -26.73800    0.27400   63.81900
  214.50000    1.25980    1.29500   59.45700  -26.84200    0.27400   63.81800
  215.00000    1.24580    1.29500   62.04900  -26.94600    0.27400   63.81700
  215.50000    1.23180    1.28980   62.74900  -27.05000    0.27400   63.81600
  216.00000    1.21770    1.24630   61.90700  -27.15400    0.27400   63.81500
  216.50000    1.20370    1.22900   58.28600  -27.25800    0.27400   63.81400
  217.00000    1.19440    1.23530   53.81900  -27.30800    0.27400   63.81300
  217.50000    1.18820    1.22600   49.94900  -27.35500    0.27400   63.81300
  218.00000    1.19150    1.17370   46.15900  -27.40200    0.27400   63.81200
  218.50000    1.21330    1.15480   44.32000  -27.44900    0.27400   63.81100
  219.00000    1.23530    1.21350   43.23600  -27.49600    0.27400   63.81000
  219.50000    1.28390    1.27730   43.71000  -27.54600    0.27400   63.80900
  220.00000    1.33930    1.30360   45.97800  -27.78800    0.27400   63.80800
  220.50000    1.39470    1.32930   47.97100  -28.12100    0.27400   63.80700
  221.00000    1.45030    1.40320   50.58200  -28.27200    0.27400   63.80600
  221.50000    1.57800    1.55900   54.56800  -28.31800    0.27400   63.80600
  222.00000    1.72440    1.71690   60.05700  -28.14000    0.27300   63.80500
  222.50000    1.87080    1.85990   61.65000  -28.34800    0.27300   63.80400
  223.00000    2.00850    2.00310   61.69700  -28.63800    0.27300   63.80300
  223.50000    2.12340    2.14630   62.80700  -28.16900    0.27300   63.80200
  224.00000    2.28320    2.28980   62.50300  -28.11800    0.27300   63.80100
  224.50000    2.41700    2.37860   59.37500  -27.51400    0.27300   63.80000
  225.00000    2.52040    2.38680   57.20700  -27.26000    0.27300   63.80000
  225.50000    2.63180    2.31780   56.72900  -27.00700    0.27300   63.79900
  226.00000    2.66560    2.26270   56.46300  -26.75200    0.27300   63.79800
  226.50000    2.62880    2.25610   54.34400  -26.48600    0.27300   63.79700
  227.00000    2.66560    2.26850   55.96200  -27.05500    0.27300   63.79600
  227.50000    2.74950    2.38360   60.05200  -27.78800    0.27300   63.79500
  228.00000    2.85310    2.58240   64.12500  -28.49900    0.27300   63.79400
  228.50000    2.98750    2.70850   64.18900  -29.14600    0.27300   63.79300
  229.00000    3.16770    2.93750   62.43600  -30.07600    0.27300   63.79300
  229.50000    3.32770    3.16450   60.66300  -31.33800    0.27300   63.79200
  230.00000    3.33060    3.37750   61.49400  -32.60300    0.27300   63.79100
  230.50000    3.37550    3.58940   62.38200  -33.86900    0.27300   63.79000
  231.00000    3.48580    3.68410   63.38200  -35.13300    0.27300   63.78900
  231.50000    3.55190    3.75080   65.06400  -36.39500    0.27200   63.78800
  232.00000    3.53440    3.90630   66.57400  -37.03300    0.27200   63.78700
  232.50000    3.55710    3.93680   64.35100  -37.82900    0.27200   63.78600
  233.00000    3.62080    3.98090   60.21600  -38.06000    0.27200   63.78600
  233.50000    3.62470    4.13000   57.75900  -38.17400    0.27200   63.78500
  234.00000    3.60930    4.10510   57.84800  -37.29400    0.27200   63.78400
  234.50000    3.63310    4.07160   59.42600  -36.14100    0.27200   63.78300
  235.00000    3.60420    4.19350   61.96100  -35.07600    0.27200   63.78200
  235.50000    3.49410    3.90740   62.50500  -35.52700    0.27200   63.78100
  236.00000    3.44220    3.54160   62.23800  -35.96000    0.27200   63.78000
  236.50000    3.38500    3.33420   60.97400  -36.39600    0.27200   63.77900
  237.00000    3.19200    3.10670   61.45700  -36.11200    0.27200   63.77900
  237.50000    2.94670    2.72350   58.67500  -35.79400    0.27200   63.77800
  238.00000    2.69560    2.43890   55.43400  -35.09400    0.27200   63.77700
  238.50000    2.42710    2.20970   55.42900  -34.76700    0.27200   63.77600
  239.00000    2.23230    2.03450   56.74300  -34.76400    0.27200   63.77500
  239.50000    2.07930    1.99370   56.91400  -34.76200    0.27200   63.77400
  240.00000    2.05970    1.94050   56.21600  -34.90700    0.27200   63.77300
  240.50000    2.09320    1.98200   59.64500  -35.06900    0.27200   63.77200
  241.00000    2.13850    2.04600   63.14500  -35.23200    0.27100   63.77200
  241.50000    2.13240    2.05680   64.27800  -35.39500    0.27100   63.77100
  242.00000    2.09980    2.05670   60.73300  -35.55800    0.27100   63.77000
  242.50000    2.07570    2.05100   56.74900  -35.72100    0.27100   63.77100
  243.00000    2.05930    2.06080   56.17800  -35.87200    0.27100   63.77100
  243.50000    2.04280    2.01770   59.38600  -35.87300    0.27100   63.77200
  244.00000    2.02610    2.00400   64.87600  -35.87300    0.27100   63.77200
