~Version ---------------------------------------------------
VERS.   2.0 : CWLS log ASCII Standard -VERSION 2.0
WRAP.    NO : One line per depth step
DLM . SPACE : Column Data Section Delimiter
~Well ------------------------------------------------------
STRT.F    90.0 : START DEPTH
STOP.F   334.0 : STOP DEPTH
STEP.F     0.5 : STEP
NULL. -9999.25 : NULL VALUE
COMP.          : COMPANY
WELL.          : WELL
FLD .          : FIELD
LOC .          : LOCATION
PROV.          : PROVINCE
CNTY.          : COUNTY
STAT.          : STATE
CTRY.          : COUNTRY
SRVC.          : SERVICE COMPANY
DATE.          : DATE
UWI .          : UNIQUE WELL ID
API .          : API NUMBER
~Curve Information -----------------------------------------
DEPT.F     : 
RILD.      : 
RILM.      : 
GR  .      : 
SP  .      : 
FRES.OHMM  : 
TMP .DEGF  : 
~Params ----------------------------------------------------
~Other -----------------------------------------------------
~ASCII -----------------------------------------------------
# ...
  296.00000    1.48890    1.54180   55.34700  -74.60900    0.26100   63.96000
  296.50000    1.50850    1.56890   55.89800  -74.53500    0.26100   63.97100
  297.00000    1.55130    1.59610   57.34400  -74.46100    0.26100   63.98300
  297.50000    1.59440    1.62320   59.80200  -74.39200    0.26000   63.99400
  298.00000    1.63090    1.64990   61.55600  -74.06500    0.26000   64.00500
  298.50000    1.64550    1.68010   61.90300  -73.96100    0.26000   64.01700
  299.00000    1.66430    1.73630   62.27300  -73.85700    0.26000   64.02800
  299.50000    1.69010    1.75190   65.62100  -73.69600    0.26000   64.03900
  300.00000    1.68020    1.72430   68.52300  -73.50600    0.25900   64.05100
  300.50000    1.65750    1.70600   69.56100  -73.31600    0.25900   64.06200
  301.00000    1.63500    1.65580   66.11400  -73.12600    0.25900   64.07400
  301.50000    1.58130    1.56960   61.45200  -72.93700    0.25900   64.08500
  302.00000    1.51210    1.50470   57.58000  -72.74700    0.25900   64.09600
  302.50000    1.46100    1.46820   57.70100  -72.55700    0.25900   64.10800
  303.00000    1.41970    1.43100   59.44700  -72.36700    0.25800   64.11900
  303.50000    1.37870    1.39390   59.31600  -72.17900    0.25800   64.13000
  304.00000    1.36660    1.36050   54.91700  -72.07700    0.25800   64.14200
  304.50000    1.35500    1.34050   54.54100  -71.98700    0.25800   64.15300
  305.00000    1.34350    1.32050   58.82900  -71.89600    0.25800   64.16400
  305.50000    1.33190    1.33510   61.52800  -71.80500    0.25800   64.17600
  306.00000    1.32260    1.30970   61.28600  -71.71400    0.25700   64.18700
  306.50000    1.32270    1.31500   60.04700  -71.62400    0.25700   64.19900
  307.00000    1.32280    1.32140   59.48500  -71.34900    0.25700   64.21000
  307.50000    1.34280    1.33990   58.93700  -71.03500    0.25700   64.22100
  308.00000    1.36430    1.36140   60.17800  -70.76100    0.25700   64.23300
  308.50000    1.38590    1.38290   64.22500  -70.69400    0.25700   64.24400
  309.00000    1.40780    1.40530   63.68300  -70.62400    0.25600   64.25500
  309.50000    1.46920    1.46400   62.57800  -70.55400    0.25600   64.26700
  310.00000    1.52870    1.52660   61.85800  -70.43200    0.25600   64.27800
  310.50000    1.57430    1.57220   61.56400  -70.04000    0.25600   64.30900
  311.00000    1.58220    1.57200   60.94200  -69.65700    0.25600   64.37100
  311.50000    1.59010    1.57970   61.98000  -69.27400    0.25600   64.43200
  312.00000    1.59830    1.60900   62.51800  -68.89100    0.25500   64.54400
  312.50000    1.61850    1.63820   64.09800  -68.51700    0.25500   64.66000
  313.00000    1.64700    1.66740   61.85400  -68.21200    0.25500   64.77700
  313.50000    1.67540    1.69540   59.77500  -67.90500    0.25500   64.89300
  314.00000    1.68290    1.65630   58.72000  -67.59800    0.25500   65.00900
  314.50000    1.68280    1.64430   62.43100  -67.29100    0.25500   65.12500
  315.00000    1.68280    1.66450   66.03800  -66.98400    0.25400   65.22300
  315.50000    1.68280    1.69590   67.74700  -66.67700    0.25400   65.31100
  316.00000    1.68080    1.68630   69.22600  -66.37000    0.25400   65.39800
  316.50000    1.67660    1.64630   69.37100  -66.06300    0.25600   65.48500
  317.00000    1.67240    1.59130   69.24600  -65.75600    0.25900   65.57200
  317.50000    1.66810    1.56840   68.73900  -65.45000    0.26200   65.66000
  318.00000    1.66390    1.55030   67.00800  -65.14200    0.26800   65.88100
  318.50000    1.65960    1.54450   65.91000  -64.84800    0.27500   66.17100
  319.00000    1.65470    1.55780   66.04800  -64.57000    0.28100   66.46100
  319.50000    1.69960    1.59340   65.59000  -64.29300    0.28800   66.75100
  320.00000    1.78410    1.69410   65.01500  -64.01700    0.29400   67.04100
  320.50000    1.88090    1.80300   63.34300  -63.49300    0.29700   67.33100
  321.00000    2.00010    1.91250   61.12000  -62.61500    0.29800   67.62100
  321.50000    2.15080    2.08640   61.16700  -61.75000    0.30000   67.79800
  322.00000    2.33230    2.32050   61.45300  -60.39600    0.30200   67.91900
  322.50000    2.60020    2.69220   61.82700  -59.00300    0.30400   68.03000
  323.00000    2.98360    3.19310   66.04300  -57.61300    0.30500   68.07900
  323.50000    3.35760    3.69510   70.23300  -55.99600    0.30700   68.12800
  324.00000    3.89530    4.17750   73.46600  -53.90700    0.30900   68.17600
  324.50000    4.26600    4.44360   73.57400  -51.81500    0.31100   68.22500
  325.00000    4.54390   22.90400   71.72600  -49.72400    0.31300   68.27300
  325.50000    4.71780   51.93900   71.69100  -47.83700    0.31600   68.32200
  326.00000    4.57200   54.70900   71.69000  -46.36500    0.31900   68.37100
  326.50000    4.15310   65.78900   71.69000  -44.91200    0.32100   68.41900
  327.00000    4.09860   54.70900   71.69000  -44.06800    0.32400   68.46800
  327.50000    4.48640   57.47900   71.69000  -44.01900    0.32600   68.51600
  328.00000    4.63690   56.96100   71.69000  -45.11000    0.32900   68.55800
  328.50000    4.56490   56.23400   71.69000  -47.62400    0.33200   68.58000
  329.00000    4.46060   51.93900   71.69000  -52.34200    0.33400   68.60100
  329.50000    4.41960   39.29000   71.69000  -58.36100    0.33700   68.62300
  330.00000    4.39170   17.76000   71.69000  -62.22200   -9999.25   -9999.25
  330.50000    4.14340    3.98330   71.69000  -63.77600   -9999.25   -9999.25
  331.00000    4.71210    3.17620   71.69000  -63.66600   -9999.25   -9999.25
  331.50000   50.66600    3.98200   71.69000  -63.69500   -9999.25   -9999.25
  332.00000   49.28000  133.19000   71.69000  -63.17200   -9999.25   -9999.25
  332.50000   49.79200  499.31000   71.69000  -63.59900   -9999.25   -9999.25
  333.00000   49.79200  499.31000   71.69000  -63.86100   -9999.25   -9999.25
  333.50000   49.79200  499.31000   71.69000  -63.41300   -9999.25   -9999.25
  334.00000   49.79200  499.31000   71.69000  -39.76500   -9999.25   -9999.25
