~Version ---------------------------------------------------
VERS.   2.0 : CWLS log ASCII Standard -VERSION 2.0
WRAP.    NO : One line per depth step
DLM . SPACE : Column Data Section Delimiter
~Well ------------------------------------------------------
STRT.F     2.0 : START DEPTH
STOP.F   332.0 : STOP DEPTH
STEP.F     0.5 : STEP
NULL. -9999.25 : NULL VALUE
COMP.          : COMPANY
WELL.          : WELL
FLD .          : FIELD
LOC .          : LOCATION
PROV.          : PROVINCE
CNTY.          : COUNTY
STAT.          : STATE
CTRY.          : COUNTRY
SRVC.          : SERVICE COMPANY
DATE.          : DATE
UWI .          : UNIQUE WELL ID
API .          : API NUMBER
~Curve Information -----------------------------------------
DEPT.F     : 
RILD.      : 
RILM.      : 
GR  .      : 
SP  .      : 
FRES.OHMM  : 
TMP .DEGF  : 
~Params ----------------------------------------------------
~Other -----------------------------------------------------
~ASCII -----------------------------------------------------
# ...
  156.50000    1.84140    1.93360   58.79200  -56.40400    0.28000   61.99400
  157.00000    1.84410    1.95680   61.87300  -56.49600    0.27900   61.99700
  157.50000    1.85060    1.98010   60.34700  -56.59100    0.27900   62.00000
  158.00000    1.86040    1.99880   58.51000  -56.68600    0.27900   62.00300
  158.50000    1.87020    1.99860   58.24300  -56.78000    0.27900   62.00600
  159.00000    1.88010    1.99860   58.08800  -56.87300    0.27800   62.00900
  159.50000    1.88650    1.99860   56.94000  -57.11100    0.27800   62.01200
  160.00000    1.88380    1.99860   57.33500  -57.74300    0.27800   62.01500
  160.50000    1.88110    1.99860   58.79400  -58.37500    0.27800   62.01800
  161.00000    1.87840    1.99860   60.04600  -59.00700    0.27700   62.02100
  161.50000    1.87580    1.99870   57.46900  -59.64200    0.27700   62.02400
  162.00000    1.87360    1.99410   54.96300  -59.93500    0.27700   62.02700
  162.50000    1.88200    1.98080   53.96200  -60.18000    0.27700   62.03000
  163.00000    1.88060    1.96740   56.67300  -60.42500    0.27600   62.03300
  163.50000    1.86090    1.95400   60.58700  -60.67000    0.27600   62.03600
  164.00000    1.84110    1.94060   61.69200  -60.91500    0.27600   62.03900
  164.50000    1.82130    1.92740   58.62900  -61.16100    0.27600   62.04200
  165.00000    1.80150    1.91640   55.36400  -61.41000    0.27500   62.04500
  165.50000    1.78980    1.90530   53.94200  -62.07500    0.27500   62.04800
  166.00000    1.78970    1.89420   54.48200  -62.52300    0.27500   62.05100
  166.50000    1.78960    1.88300   59.74500  -62.59100    0.27600   62.05400
  167.00000    1.79340    1.87190   63.81800  -62.65900    0.27700   62.05700
  167.50000    1.80460    1.86090   64.98400  -62.72800    0.27800   62.06000
  168.00000    1.81580    1.84800   55.56700  -62.79600    0.27900   62.06400
  168.50000    1.82700    1.83490   47.07400  -62.86400    0.28000   62.06700
  169.00000    1.83150    1.82190   42.72400  -62.93200    0.28100   62.07000
  169.50000    1.83150    1.87160   44.28300  -63.00200    0.28200   62.07300
  170.00000    1.83140    1.95330   54.84800  -63.23500    0.28200   62.07600
  170.50000    1.85380    2.03480   64.99000  -63.99100    0.28300   62.07900
  171.00000    1.90890    2.11630   72.03500  -64.55900    0.28400   62.08200
  171.50000    1.96430    2.19780   71.90000  -65.12900    0.28500   62.08500
  172.00000    2.01890    2.27920   77.14100  -65.21600    0.28600   62.08800
  172.50000    2.07370    2.35920   85.42000  -65.12800    0.28700   62.09100
  173.00000    2.11370    2.36070   89.17400  -65.04100    0.28800   62.09400
  173.50000    2.12470    2.36070   84.82700  -64.95400    0.28900   62.09700
  174.00000    2.13600    2.36510   80.28900  -64.86700    0.29000   62.10100
  174.50000    2.13440    2.38050   79.70700  -64.77900    0.29100   62.10600
  175.00000    2.13010    2.40260   78.76400  -64.78900    0.29200   62.11200
  175.50000    2.12580    2.42470   78.28700  -64.98600    0.29300   62.11700
  176.00000    2.12390    2.39010   76.93800  -65.18800    0.29400   62.12300
  176.50000    2.08540    2.33470   72.84900  -65.96200    0.29500   62.12800
  177.00000    2.02730    2.25290   69.50700  -67.24400    0.29600   62.13300
  177.50000    1.96920    2.14260   68.03700  -68.52600    0.29700   62.13900
  178.00000    1.91120    2.01750   64.76700  -69.74100    0.29700   62.14400
  178.50000    1.85320    1.90120   58.92700  -70.44000    0.29800   62.15000
  179.00000    1.80010    1.83720   50.44400  -71.11100    0.29900   62.15500
  179.50000    1.74790    1.78840   50.40600  -71.78200    0.30000   62.16100
  180.00000    1.69580    1.73940   52.69100  -72.48000    0.30100   62.16600
  180.50000    1.66600    1.69050   54.40500  -73.30400    0.30300   62.17200
  181.00000    1.64800    1.65600   54.04600  -74.16700    0.30400   62.17700
  181.50000    1.63000    1.63530   51.08500  -75.02900    0.30600   62.18200
  182.00000    1.63140    1.66860   50.14600  -75.84200    0.30700   62.18800
  182.50000    1.63330    1.67920   51.25400  -76.18900    0.30900   62.19300
  183.00000    1.62820    1.69050   53.47600  -76.52200    0.31000   62.19900
  183.50000    1.62310    1.70160   54.55000  -76.85400    0.31200   62.20400
  184.00000    1.62770    1.70120   52.43000  -77.53400    0.31300   62.21000
  184.50000    1.63370    1.69270   51.48000  -78.34200    0.31500   62.21500
  185.00000    1.63970    1.68430   52.28500  -79.14900    0.31600   62.22000
  185.50000    1.64570    1.68270   53.74300  -79.95200    0.31800   62.22600
  186.00000    1.65120    1.69950   55.42500  -80.22900    0.31900   62.23100
  186.50000    1.65520    1.71630   54.54800  -80.14200    0.32100   62.23700
  187.00000    1.65930    1.73310   53.05200  -80.05700    0.32200   62.24200
  187.50000    1.66330    1.74990   52.36100  -79.97200    0.32400   62.24800
  188.00000    1.67560    1.76670   52.14000  -79.88700    0.32500   62.25300
  188.50000    1.69920    1.78350   50.14400  -79.80500    0.32700   62.25900
  189.00000    1.72270    1.80060   47.99600  -79.78400    0.32800   62.26400
  189.50000    1.72830    1.81760   49.12300  -81.55500    0.33000   62.26900
  190.00000    1.71760    1.82800   54.40500  -82.67800    0.33100   62.27500
  190.50000    1.70680    1.80640   57.34800  -83.81300    0.33300   62.28000
  191.00000    1.69610    1.78590   57.64600  -84.95000    0.33400   62.28600
  191.50000    1.68540    1.76460   56.85700  -86.08900    0.33500   62.29100
  192.00000    1.67480    1.74390   54.40100  -86.73000    0.33700   62.29700
  192.50000    1.66430    1.73980   52.15800  -87.19200    0.33800   62.30300
  193.00000    1.65390    1.75080   52.06900  -87.65400    0.34000   62.30900
  193.50000    1.64340    1.76150   52.89800  -88.11700    0.34100   62.31500
  194.00000    1.63650    1.75310   50.76000  -88.59800    0.34300   62.32100
  194.50000    1.63650    1.74660   48.78300  -89.28100    0.34400   62.32800
  195.00000    1.63650    1.74300   49.55800  -90.00000    0.34600   62.33400
  195.50000    1.63650    1.73960   50.60400  -90.72000    0.34800   62.34000
  196.00000    1.63500    1.73620   49.46000  -91.42800    0.35000   62.34600
  196.50000    1.63240    1.71450   47.12900  -92.68700    0.35200   62.35200
  197.00000    1.62990    1.66660   46.52100  -93.90200    0.35400   62.35800
  197.50000    1.62730    1.65020   46.83500  -95.12900    0.35600   62.36400
  198.00000    1.62480    1.65030   46.30600  -95.26900    0.35800   62.37000
  198.50000    1.62250    1.65460   44.98600  -96.04600    0.35900   62.37600
  199.00000    1.62260    1.67080   46.99300  -97.00800    0.36100   62.38200
  199.50000    1.62580    1.68690   49.22100  -97.96700    0.36300   62.38800
  200.00000    1.63200    1.70340   48.67400  -99.03800    0.36500   62.39500
  200.50000    1.63850    1.70480   45.78100 -100.31000    0.36700   62.40100
  201.00000    1.64630    1.70320   48.92900 -101.58000    0.36900   62.40700
  201.50000    1.65400    1.70160   52.35800 -102.85000    0.37100   62.41300
  202.00000    1.66180    1.69990   53.53100 -104.13000    0.37300   62.41900
  202.50000    1.66600    1.69830   51.22900 -105.40000    0.37500   62.42500
  203.00000    1.66850    1.69670   48.42400 -106.67000    0.37700   62.43100
  203.50000    1.67100    1.69500   46.66500 -107.95000    0.37900   62.43700
  204.00000    1.67350    1.69330   45.13000 -109.22000    0.38100   62.44300
  204.50000    1.67590    1.70200   45.50900 -110.50000    0.38300   62.44900
  205.00000    1.67810    1.73960   49.13100 -111.63000    0.38500   62.45600
  205.50000    1.67380    1.75440   53.38100 -112.72000    0.38700   62.46300
  206.00000    1.66970    1.72700   52.91800 -113.80000    0.38900   62.47200
  206.50000    1.66550    1.69950   49.39000 -115.17000    0.39100   62.48100
  207.00000    1.65210    1.67940   43.65300 -116.68000    0.39300   62.49100
  207.50000    1.63540    1.66570   38.02300 -118.18000    0.39500   62.50000
