~Version ---------------------------------------------------
VERS.   2.0 : CWLS log ASCII Standard -VERSION 2.0
WRAP.    NO : One line per depth step
DLM . SPACE : Column Data Section Delimiter
~Well ------------------------------------------------------
STRT.F     2.0 : START DEPTH
STOP.F   332.0 : STOP DEPTH
STEP.F     0.5 : STEP
NULL. -9999.25 : NULL VALUE
COMP.          : COMPANY
WELL.          : WELL
FLD .          : FIELD
LOC .          : LOCATION
PROV.          : PROVINCE
CNTY.          : COUNTY
STAT.          : STATE
CTRY.          : COUNTRY
SRVC.          : SERVICE COMPANY
DATE.          : DATE
UWI .          : UNIQUE WELL ID
API .          : API NUMBER
~Curve Information -----------------------------------------
DEPT.F     : 
RILD.      : 
RILM.      : 
GR  .      : 
SP  .      : 
FRES.OHMM  : 
TMP .DEGF  : 
~Params ----------------------------------------------------
~Other -----------------------------------------------------
~ASCII -----------------------------------------------------
# ...
  208.00000    1.61860    1.67910   37.75400 -119.69000    0.39700   62.51000
  208.50000    1.60870    1.69100   38.10500 -121.19000    0.39800   62.51900
  209.00000    1.60870    1.64220   39.87000 -122.70000    0.40000   62.52800
  209.50000    1.60540    1.59230   41.49900 -124.21000    0.40200   62.53800
  210.00000    1.59740    1.54080   42.74200 -125.71000    0.40400   62.54700
  210.50000    1.57580    1.54350   42.03600 -127.22000    0.40600   62.55700
  211.00000    1.54720    1.54810   44.16200 -128.73000    0.40800   62.56600
  211.50000    1.51870    1.55170   48.77500 -130.23000    0.41000   62.57200
  212.00000    1.50500    1.53200   48.01800 -131.72000    0.41200   62.57400
  212.50000    1.49660    1.52290   40.47600 -133.21000    0.41400   62.57600
  213.00000    1.48830    1.51360   36.40400 -134.70000    0.41600   62.57800
  213.50000    1.48180    1.50430   34.77100 -136.19000    0.41800   62.58000
  214.00000    1.47790    1.49520   33.92900 -137.29000    0.41800   62.58300
  214.50000    1.47400    1.48740   34.97200 -138.33000    0.41700   62.58500
  215.00000    1.47000    1.49380   37.41600 -139.38000    0.41700   62.58700
  215.50000    1.47560    1.48360   38.97300 -140.42000    0.41600   62.58900
  216.00000    1.48350    1.49730   37.63900 -141.48000    0.41600   62.59100
  216.50000    1.49130    1.49740   36.30300 -142.45000    0.41500   62.59300
  217.00000    1.49910    1.51220   37.60100 -101.90000    0.41500   62.59500
  217.50000    1.50690    1.53730   38.94800  -20.70400    0.41400   62.59700
  218.00000    1.52150    1.56250   39.73700   -0.60413    0.41400   62.60000
  218.50000    1.54340    1.58090   41.83800   -0.80134    0.41400   62.60200
  219.00000    1.56600    1.57610   44.31200   -0.83333    0.41300   62.60400
  219.50000    1.54670    1.54810   47.13500   -0.83203    0.41300   62.60600
  220.00000    1.52530    1.52080   48.39000   -0.83353    0.41200   62.60800
  220.50000    1.50380    1.49680   48.92200   -1.97170    0.41200   62.64000
  221.00000    1.48220    1.49720   44.12100   -3.69140    0.41100   62.67100
  221.50000    1.46530    1.49720   39.22200   -5.85230    0.41100   62.70300
  222.00000    1.45470    1.49720   34.98600   -8.67990    0.41000   62.73400
  222.50000    1.44420    1.49720   33.47000  -11.50900    0.41000   62.75700
  223.00000    1.45350    1.49720   32.04000  -14.33100    0.40900   62.77400
  223.50000    1.47010    1.49720   30.61900  -16.95100    0.40800   62.79100
  224.00000    1.48350    1.49720   30.52000  -19.44500    0.40800   62.79900
  224.50000    1.48630    1.49730   30.85300  -21.94600    0.40700   62.80600
  225.00000    1.48940    1.49370   30.42800  -24.44000    0.40700   62.81200
  225.50000    1.49260    1.48320   29.36600  -26.16300    0.40600   62.81900
  226.00000    1.49580    1.47290   30.70400  -27.47200    0.40500   62.82600
  226.50000    1.51890    1.50760   33.66000  -28.78700    0.40400   62.83300
  227.00000    1.55950    1.56540   35.66900  -30.10400    0.40200   62.84000
  227.50000    1.60150    1.62300   35.80300  -31.43400    0.40000   62.84600
  228.00000    1.65210    1.68130   40.81300  -33.07600    0.39800   62.85300
  228.50000    1.70280    1.77010   46.40900  -33.05800    0.39700   62.86000
  229.00000    1.75340    1.86930   56.63100  -33.05600    0.39500   62.86700
  229.50000    1.80410    1.97550   63.10300  -33.63800    0.39300   62.87400
  230.00000    1.85120    2.08560   64.27900  -34.51700    0.39100   62.88000
  230.50000    1.89720    2.14500   64.10400  -35.47100    0.38900   62.89000
  231.00000    1.94330    2.15800   61.68600  -36.96000    0.38700   62.90500
  231.50000    1.96720    2.17160   59.74700  -38.84400    0.38600   62.91900
  232.00000    1.95950    2.13970   57.82500  -41.36800    0.38400   62.93400
  232.50000    1.94210    2.02070   55.97300  -42.97100    0.38200   62.94800
  233.00000    1.87820    1.91150   54.24000  -44.57200    0.38000   62.96300
  233.50000    1.81350    1.81510   52.92200  -46.16300    0.37700   62.97800
  234.00000    1.75220    1.77670   51.86900  -48.22900    0.37400   62.99200
  234.50000    1.69890    1.76160   51.62900  -50.35100    0.37000   63.00700
  235.00000    1.67120    1.76190   53.27700  -52.47400    0.36600   63.02200
  235.50000    1.64700    1.74380   56.98500  -54.59600    0.36200   63.03600
  236.00000    1.62290    1.69920   58.81400  -56.71900    0.35800   63.05100
  236.50000    1.59870    1.65460   58.00900  -58.84300    0.35400   63.06600
  237.00000    1.57450    1.62250   56.98700  -61.00100    0.35100   63.08000
  237.50000    1.55030    1.59340   54.86800  -63.19200    0.34700   63.09500
  238.00000    1.52610    1.56400   54.22400  -65.45200    0.34300   63.11000
  238.50000    1.50190    1.53460   55.03600  -67.71200    0.33900   63.12400
  239.00000    1.47770    1.50810   57.13000  -69.72100    0.33500   63.13900
  239.50000    1.45350    1.49190   60.63000  -71.57400    0.33100   63.15300
  240.00000    1.42930    1.47580   60.71000  -73.42600    0.32800   63.16800
  240.50000    1.40510    1.45980   57.61500  -75.28500    0.32400   63.18300
  241.00000    1.37860    1.43010   53.45300  -77.51000    0.32100   63.19700
  241.50000    1.33760    1.38900   51.54900  -79.74200    0.31800   63.21200
  242.00000    1.31630    1.35580   51.93700  -81.97400    0.31400   63.22700
  242.50000    1.31090    1.32080   53.55600  -84.39600    0.31100   63.24100
  243.00000    1.26720    1.30520   55.71600  -87.36100    0.30800   63.25600
  243.50000    1.25760    1.31120   56.76300  -90.32200    0.30500   63.27100
  244.00000    1.27530    1.31740   58.46400  -93.28200    0.30100   63.28500
  244.50000    1.27960    1.32350   58.47500  -96.24700    0.29800   63.30000
  245.00000    1.28400    1.32990   57.50500  -99.01100    0.29500   63.31500
  245.50000    1.28870    1.34250   57.48800 -101.20000    0.29200   63.32900
  246.00000    1.31450    1.35590   60.57500 -103.35000    0.28800   63.34400
  246.50000    1.32990    1.36920   60.91200 -105.50000    0.28500   63.35800
  247.00000    1.33010    1.38250   59.45100 -107.84000    0.28200   63.37300
  247.50000    1.33010    1.39590   58.24800 -110.50000    0.27800   63.38800
  248.00000    1.33240    1.40920   55.88300 -113.17000    0.27500   63.40200
  248.50000    1.33740    1.41630   52.71500 -115.83000    0.27200   63.41700
  249.00000    1.34230    1.42020   50.66100 -118.12000    0.26900   63.43200
  249.50000    1.35120    1.42420   53.79900 -120.42000    0.26500   63.44600
  250.00000    1.36200    1.42810   55.91600 -122.34000    0.26200   63.46100
  250.50000    1.37280    1.43200   56.62100 -123.53000    0.25900   63.47300
  251.00000    1.38380    1.43600   56.11300 -124.98000    0.25500   63.48600
  251.50000    1.40080    1.44000   55.85700 -126.79000    0.25200   63.49800
  252.00000    1.41950    1.45500   55.69300 -128.70000    0.24900   63.51100
  252.50000    1.43830    1.47760   54.73800 -130.60000    0.24700   63.52300
  253.00000    1.45700    1.50020   54.10400 -132.50000    0.24500   63.53600
  253.50000    1.47580    1.52280   54.24100 -134.62000    0.24300   63.54800
  254.00000    1.48620    1.54540   54.37600 -134.52000    0.24200   63.56100
  254.50000    1.49090    1.57300   54.50800 -134.33000    0.24000   63.57400
  255.00000    1.49560    1.56820   55.48900 -134.28000    0.23800   63.58600
  255.50000    1.50660    1.55340   57.45000 -135.03000    0.23600   63.59900
  256.00000    1.52070    1.55910   59.41700 -135.73000    0.23400   63.61100
  256.50000    1.53490    1.56460   59.73000 -137.74000    0.23300   63.62400
  257.00000    1.54900    1.56450   60.01600 -139.81000    0.23100   63.63600
  257.50000    1.56310    1.56040   60.99800 -141.29000    0.22900   63.64900
  258.00000    1.57380    1.55640   60.66200 -142.18000    0.22700   63.66100
  258.50000    1.58330    1.55790   58.74700 -143.09000    0.22500   63.67400
  259.00000    1.59260    1.59940   57.34000 -144.05000    0.22400   63.68600
