~Version ---------------------------------------------------
VERS.   2.0 : CWLS log ASCII Standard -VERSION 2.0
WRAP.    NO : One line per depth step
DLM . SPACE : Column Data Section Delimiter
~Well ------------------------------------------------------
STRT.F     2.0 : START DEPTH
STOP.F   332.0 : STOP DEPTH
STEP.F     0.5 : STEP
NULL. -9999.25 : NULL VALUE
COMP.          : COMPANY
WELL.          : WELL
FLD .          : FIELD
LOC .          : LOCATION
PROV.          : PROVINCE
CNTY.          : COUNTY
STAT.          : STATE
CTRY.          : COUNTRY
SRVC.          : SERVICE COMPANY
DATE.          : DATE
UWI .          : UNIQUE WELL ID
API .          : API NUMBER
~Curve Information -----------------------------------------
DEPT.F     : 
RILD.      : 
RILM.      : 
GR  .      : 
SP  .      : 
FRES.OHMM  : 
TMP .DEGF  : 
~Params ----------------------------------------------------
~Other -----------------------------------------------------
~ASCII -----------------------------------------------------
    2.00000    0.45265    0.25766   29.30600 -198.61000   -9999.25   -9999.25
    2.50000    0.46196    0.25766   29.30600 -198.61000   -9999.25   -9999.25
    3.00000    0.46240    0.25761   29.15400 -198.57000   -9999.25   -9999.25
    3.50000    0.49351    0.25766   28.22500 -198.61000   -9999.25   -9999.25
    4.00000    0.48961    0.25766   28.47200 -198.61000   -9999.25   -9999.25
    4.50000    0.48472    0.25766   28.31100 -198.61000   -9999.25   -9999.25
    5.00000    0.47811    0.25766   28.23200 -198.61000   -9999.25   -9999.25
    5.50000    0.45995    0.25766   28.10900 -198.61000   -9999.25   -9999.25
    6.00000    0.44196    0.25766   28.14400 -198.61000   -9999.25   -9999.25
    6.50000    0.42495    0.25766   29.42800 -198.61000   -9999.25   -9999.25
    7.00000    0.42479    0.25766   30.60900 -198.61000   -9999.25   -9999.25
    7.50000    0.42479    0.25766   32.14700 -198.61000   -9999.25   -9999.25
    8.00000    0.42479    0.25766   33.39200 -198.61000   -9999.25   -9999.25
    8.50000    0.42479    0.25766   34.09800 -198.61000   -9999.25   -9999.25
    9.00000    0.42365    0.25766   34.02500 -198.61000   -9999.25   -9999.25
    9.50000    0.42126    0.25766   31.92000 -198.61000   -9999.25   -9999.25
   10.00000    0.41885    0.25766   29.75700 -198.61000   -9999.25   -9999.25
   10.50000    0.41645    0.25766   29.13600 -198.61000   -9999.25   -9999.25
   11.00000    0.41404    0.25766   30.67100 -198.61000   -9999.25   -9999.25
   11.50000    0.41164    0.25766   32.20200 -198.61000   -9999.25   -9999.25
   12.00000    0.41291    0.25766   33.93000 -198.61000   -9999.25   -9999.25
   12.50000    0.41597    0.25768   37.00700 -198.61000   -9999.25   -9999.25
   13.00000    0.41901    0.25617   37.88700 -198.61000   -9999.25   -9999.25
   13.50000    0.42206    0.25429   35.02500 -198.61000   -9999.25   -9999.25
   14.00000    0.42568    0.25241   31.51600 -198.61000   -9999.25   -9999.25
   14.50000    0.43431    0.25052   28.22200 -198.61000   -9999.25   -9999.25
   15.00000    0.43328    0.24864   28.45700 -198.61000   -9999.25   -9999.25
   15.50000    0.40176    0.24676   28.45800 -198.61000   -9999.25   -9999.25
   16.00000    0.31514    0.24486   29.53700 -198.61000   -9999.25   -9999.25
   16.50000    0.25415    0.24695   35.47200 -198.61000   -9999.25   -9999.25
   17.00000    0.22278    0.25556   43.21900 -198.61000   -9999.25   -9999.25
   17.50000    0.24690    0.35417   49.15800 -198.61000   -9999.25   -9999.25
   18.00000    0.32579    2.06180   51.37900 -198.61000   -9999.25   -9999.25
   18.50000    0.68448    3.83020   51.00300 -198.61000   -9999.25   -9999.25
   19.00000    1.62090    5.57540   49.74200 -198.61000   -9999.25   -9999.25
   19.50000    4.89720    9.34310   48.02000 -198.61000   -9999.25   -9999.25
   20.00000    6.90500   20.10800   46.93000 -198.61000   -9999.25   -9999.25
   20.50000    8.98710   37.79600   50.90500 -198.61000   -9999.25   -9999.25
   21.00000    9.96120   49.93000   53.51300 -198.61000   -9999.25   -9999.25
   21.50000   10.53500   49.93000   54.83900 -198.61000   -9999.25   -9999.25
   22.00000   10.78100   49.94100   53.74800 -198.61000   -9999.25   -9999.25
   22.50000   10.54800   50.01000   52.50700 -198.61000   -9999.25   -9999.25
   23.00000   10.36800   50.01900   51.44300 -198.61000   -9999.25   -9999.25
   23.50000   10.08800   36.56000   53.75000 -198.61000   -9999.25   -9999.25
   24.00000    9.72380   49.93000   59.14000 -198.61000   -9999.25   -9999.25
   24.50000    9.56070   49.93000   62.69500 -198.61000   -9999.25   -9999.25
   25.00000    9.92860   49.93000   61.48000 -198.61000   -9999.25   -9999.25
   25.50000   10.18800   49.93000   60.96000 -198.61000   -9999.25   -9999.25
   26.00000   10.37700   49.93000   63.21200 -198.61000   -9999.25   -9999.25
   26.50000   10.37600   49.93000   64.83900 -198.61000   -9999.25   -9999.25
   27.00000   10.37600   49.93000   65.72700 -198.61000   -9999.25   -9999.25
   27.50000   10.37600   49.93000   67.56600 -198.61000   -9999.25   -9999.25
   28.00000   10.37400   49.93000   69.06900 -198.61000   -9999.25   -9999.25
   28.50000   10.49800   49.93000   69.06900 -198.61000   -9999.25   -9999.25
   29.00000   10.64600   49.93000   68.40200 -198.61000   -9999.25   -9999.25
   29.50000   10.79400   49.93000   69.91500 -198.61000   -9999.25   -9999.25
   30.00000   10.94100   49.93000   72.23300 -198.61000   -9999.25   -9999.25
   30.50000   11.08300   49.93000   70.06600 -198.61000   -9999.25   -9999.25
   31.00000   10.51600   49.93000   66.96600 -198.57000   -9999.25   -9999.25
   31.50000    9.78360   50.04900   63.01200 -195.35000   -9999.25   -9999.25
   32.00000    9.02620   50.39200   59.77400 -146.40000   -9999.25   -9999.25
   32.50000    8.17400   27.29200   59.63500 -112.84000   -9999.25   -9999.25
   33.00000    7.91250   18.55800   61.45700 -101.72000   -9999.25   -9999.25
   33.50000    7.66570   14.72300   61.60300  -93.88000   -9999.25   -9999.25
   34.00000    7.41820   13.05000   56.22100  -65.44500   -9999.25   -9999.25
   34.50000    7.31160   12.39500   51.40300  -53.60600   -9999.25   -9999.25
   35.00000    7.31130   11.68600   45.43300  -52.80600   -9999.25   -9999.25
   35.50000    7.30430   10.84600   41.51700  -53.37600   -9999.25   -9999.25
   36.00000    7.74380   10.38800   40.19600  -53.95000   -9999.25   -9999.25
   36.50000    8.23210   11.24300   42.65100  -54.38400   -9999.25   -9999.25
   37.00000    8.76640   13.02700   45.69200  -54.72500   -9999.25   -9999.25
   37.50000    9.38600   15.15400   46.69000  -55.07200   -9999.25   -9999.25
   38.00000   10.00700   17.09600   46.87400  -55.57500   -9999.25   -9999.25
   38.50000   10.63000   17.88600   44.94800  -56.30600   -9999.25   -9999.25
   39.00000   11.07400   17.88200   44.21600  -56.11700   -9999.25   -9999.25
   39.50000   11.07300   15.94000   44.13700  -56.84400   -9999.25   -9999.25
   40.00000   11.07300   14.83200   45.31200  -58.19600    3.86800   61.63700
   40.50000   11.04900   14.14600   46.66600  -59.57200    3.83400   61.65100
   41.00000   10.97500   13.45200   47.47700  -60.94900    3.79900   61.66400
   41.50000   10.80400   13.06300   49.31900  -62.32600    3.76200   61.67800
   42.00000   10.51700   12.67400   51.56300  -63.62400    3.72400   61.66600
   42.50000   10.24300   12.28600   52.53800  -63.88600    3.68700   61.62400
   43.00000   10.02400   11.89900   52.28700  -64.12900    3.64900   61.58300
   43.50000    9.86840   11.64800   49.79100  -64.96900    3.61200   61.54200
   44.00000    9.71140   11.46900   47.03900  -65.84100    3.57500   61.50000
   44.50000    9.78010   11.28900   44.94400  -66.71500    3.54600   61.45900
   45.00000    9.90980   11.02300   44.39000  -67.58900    3.53600   61.41800
   45.50000   10.03700   10.69200   43.75200  -68.46400    3.52600   61.37600
   46.00000    9.91690   10.36100   42.96900  -69.33800    3.51800   61.33500
   46.50000    9.58740   10.01800   43.29700  -70.21100    3.52200   61.29400
   47.00000    9.25750    9.58140   44.40300  -70.66000    3.52800   61.25200
   47.50000    8.90180    9.15250   46.50400  -71.07300    3.54000   61.21100
   48.00000    8.52540    8.72360   48.02100  -71.48600    3.55200   61.17000
   48.50000    8.14920    8.29480   47.52900  -71.89900    3.56400   61.12800
   49.00000    7.77310    7.86750   46.55400  -72.31200    3.57600   61.11500
   49.50000    7.41690    7.53110   46.53200  -72.72600    3.58800   61.10800
   50.00000    7.19360    7.23980   45.18100  -73.13600    3.60000   61.10200
   50.50000    6.96890    6.94890   42.40000  -73.58800    3.60300   61.09800
   51.00000    6.74400    6.69660   42.71500  -74.03100    3.60300   61.09400
   51.50000    6.51900    6.52270   47.39700  -74.47400    3.60300   61.09000
   52.00000    6.29410    6.34870   55.69000  -74.91700    3.59100   61.08600
   52.50000    6.06910    6.17460   59.31600  -75.36000    3.53000   61.07400
   53.00000    5.87960    6.00110   58.21800  -75.81800    3.38900   61.04600
