~Version ---------------------------------------------------
VERS.   2.0 : CWLS log ASCII Standard -VERSION 2.0
WRAP.    NO : One line per depth step
DLM . SPACE : Column Data Section Delimiter
~Well ------------------------------------------------------
STRT.F     2.0 : START DEPTH
STOP.F   332.0 : STOP DEPTH
STEP.F     0.5 : STEP
NULL. -9999.25 : NULL VALUE
COMP.          : COMPANY
WELL.          : WELL
FLD .          : FIELD
LOC .          : LOCATION
PROV.          : PROVINCE
CNTY.          : COUNTY
STAT.          : STATE
CTRY.          : COUNTRY
SRVC.          : SERVICE COMPANY
DATE.          : DATE
UWI .          : UNIQUE WELL ID
API .          : API NUMBER
~Curve Information -----------------------------------------
DEPT.F     : 
RILD.      : 
RILM.      : 
GR  .      : 
SP  .      : 
FRES.OHMM  : 
TMP .DEGF  : 
~Params ----------------------------------------------------
~Other -----------------------------------------------------
~ASCII -----------------------------------------------------
# ...
   53.50000    5.76150    5.83110   55.10500  -75.83300    3.19500   61.01800
   54.00000    5.64330    5.66640   49.50100  -75.83300    3.00100   60.99000
   54.50000    5.52500    5.50190   48.55300  -75.83300    2.80700   60.96200
   55.00000    5.40680    5.36210   46.58500  -75.83300    2.61400   60.93400
   55.50000    5.28850    5.22280   46.13700  -75.83300    2.42000   60.90600
   56.00000    5.16990    5.08370   44.83600  -75.83300    2.33100   60.87900
   56.50000    5.08000    4.94700   43.84800  -75.83300    2.26900   60.86600
   57.00000    5.06820    4.94440   44.48700  -75.98500    2.20700   60.86600
   57.50000    5.05640    4.94430   44.76000  -76.19400    2.14500   60.87400
   58.00000    5.04430    4.94430   44.76700  -76.40300    2.08300   60.88200
   58.50000    5.03230    4.94430   45.77100  -76.61100    2.03700   60.89000
   59.00000    5.02030    4.94430   45.75700  -76.81900    1.99800   60.89800
   59.50000    5.00830    4.94430   47.03800  -77.02800    1.96000   60.90600
   60.00000    4.99630    4.94430   47.92600  -77.23600    1.92200   60.91400
   60.50000    4.98430    4.93800   50.51100  -77.44400    1.88400   60.92200
   61.00000    4.97230    4.88620   51.22900  -77.65300    1.84600   60.93000
   61.50000    4.96030    4.83490   48.16800  -77.86100    1.80800   60.93800
   62.00000    4.94920    4.78360   45.27600  -78.05100    1.77000   60.94600
   62.50000    4.93320    4.73230   43.97300  -77.95200    1.73200   60.95400
   63.00000    4.75920    4.68100   44.53600  -77.85500    1.70100   60.96200
   63.50000    4.61200    4.62980   44.08300  -77.75800    1.67200   60.97000
   64.00000    4.81530    4.57850   44.39900  -77.66100    1.64300   60.97800
   64.50000    4.39440    4.43330   47.25200  -77.56400    1.61400   60.98600
   65.00000    4.27040    4.23330   49.79200  -77.50000    1.58500   60.99500
   65.50000    4.12980    4.11190   50.97100  -77.50000    1.55600   61.00300
   66.00000    4.00630    3.98800   50.83800  -77.50000    1.52800   61.01100
   66.50000    3.88310    3.86430   50.78400  -77.50000    1.52000   61.01900
   67.00000    3.75990    3.74070   50.96900  -77.50000    1.51200   61.02700
   67.50000    3.63650    3.61700   52.67200  -77.50000    1.50400   61.03500
   68.00000    3.51050    3.49310   55.32400  -77.37700    1.49500   61.04300
   68.50000    3.45550    3.40870   54.52700  -77.11800    1.48700   61.05100
   69.00000    3.41360    3.38010   48.84500  -76.85800    1.47900   61.05900
   69.50000    3.37190    3.36970   43.87700  -76.59700    1.47100   61.06700
   70.00000    3.32960    3.36390   41.31400  -76.36400    1.46100   61.07500
   70.50000    3.26860    3.33520   42.08900  -76.23300    1.44500   61.08300
   71.00000    3.20210    3.28340   42.38900  -76.10200    1.42800   61.09100
   71.50000    3.13540    3.23120   42.73700  -75.97200    1.41200   61.09900
   72.00000    3.09540    3.17890   42.35800  -75.83900    1.39600   61.10700
   72.50000    3.05920    3.12890   42.87900  -76.22300    1.38000   61.11500
   73.00000    3.02300    3.08470   42.77300  -76.63900    1.36300   61.12300
   73.50000    2.99350    3.04040   43.56500  -77.05500    1.34700   61.13100
   74.00000    2.97310    2.99520   43.48500  -77.48500    1.33100   61.13900
   74.50000    2.95290    2.97710   46.58300  -77.25600    1.31500   61.14500
   75.00000    2.93270    2.96400   51.69300  -76.99700    1.29800   61.15100
   75.50000    2.90480    2.92800   56.40000  -76.73500    1.28200   61.15600
   76.00000    2.85540    2.88050   55.95300  -76.47600    1.26600   61.16200
   76.50000    2.80600    2.83300   52.33900  -76.92300    1.25000   61.16700
   77.00000    2.75670    2.78660   49.60600  -76.85100    1.23300   61.17300
   77.50000    2.70740    2.74050   50.99000  -76.75900    1.21700   61.17900
   78.00000    2.66200    2.69440   54.52000  -76.66700    1.20100   61.18400
   78.50000    2.62150    2.64820   56.47600  -76.57400    1.18800   61.19000
   79.00000    2.58310    2.60320   55.87000  -76.48100    1.17900   61.19600
   79.50000    2.56290    2.55760   52.77500  -76.38300    1.17100   61.20100
   80.00000    2.51120    2.52800   49.41800  -75.97200    1.16200   61.20700
   80.50000    2.43610    2.52890   49.08900  -75.55600    1.15400   61.21200
   81.00000    2.36020    2.46590   52.79100  -75.13900    1.14500   61.21800
   81.50000    2.30190    2.39460   54.91500  -74.72100    1.13600   61.22400
   82.00000    2.25010    2.32030   54.45300  -74.30600    1.12800   61.22900
   82.50000    2.22980    2.24720   54.06500  -74.85600    1.11800   61.23500
   83.00000    2.17080    2.22610   51.75200  -75.89500    1.08900   61.24000
   83.50000    2.12210    2.18860   50.66400  -76.21900    1.05900   61.24600
   84.00000    2.07410    2.12720   50.73200  -75.89700    1.03000   61.25200
   84.50000    2.02610    2.06550   51.76700  -75.57600    1.00000   61.25700
   85.00000    1.97790    2.00260   51.78600  -75.26000    0.97100   61.26000
   85.50000    1.94050    1.94900   49.86700  -74.69700    0.94100   61.26100
   86.00000    1.93180    1.92000   47.64000  -74.15500    0.91200   61.26200
   86.50000    1.92320    1.89060   45.76700  -73.61100    0.88200   61.26300
   87.00000    1.91570    1.89280   46.71900  -73.06800    0.85300   61.26400
   87.50000    1.93290    1.89920   52.61900  -72.52500    0.84800   61.26500
   88.00000    1.94960    1.94690   57.47300  -71.96100    0.84800   61.26600
   88.50000    1.96630    2.00330   58.28700  -71.31800    0.84900   61.26800
   89.00000    1.98910    2.05070   56.66700  -70.64500    0.85000   61.26900
   89.50000    2.01420    2.09790   54.08300  -69.97200    0.85000   61.27000
   90.00000    2.03930    2.14530   54.34500  -69.28400    0.85100   61.27100
   90.50000    2.06560    2.17520   55.17100  -69.07200    0.85200   61.27200
   91.00000    2.09500    2.15770   57.41000  -68.95200    0.85300   61.27300
   91.50000    2.06680    2.14020   59.70100  -68.83300    0.85500   61.27400
   92.00000    2.04580    2.12440   59.90600  -68.71400    0.85900   61.27500
   92.50000    2.03150    2.13510   58.46700  -68.62400    0.86400   61.27700
   93.00000    2.01730    2.14190   55.97000  -68.75000    0.86900   61.27800
   93.50000    2.04020    2.14740   54.41100  -68.87300    0.87100   61.27900
   94.00000    2.08210    2.15960   53.65200  -68.99500    0.84600   61.28000
   94.50000    2.12370    2.20540   54.37500  -69.11600    0.82100   61.28100
   95.00000    2.15140    2.25040   58.11000  -69.02100    0.80100   61.28200
   95.50000    2.17900    2.28340   58.90100  -68.77500    0.80000   61.28300
   96.00000    2.22490    2.29960   59.42100  -68.53400    0.79900   61.28400
   96.50000    2.22850    2.29810   58.52100  -68.30300    0.79800   61.28500
   97.00000    2.21970    2.28740   59.59500  -68.06400    0.79700   61.28700
   97.50000    2.21100    2.27680   60.92900  -68.22900    0.79600   61.28400
   98.00000    2.20270    2.26620   62.86900  -68.41400    0.79600   61.27900
   98.50000    2.19470    2.25560   64.70000  -68.59900    0.79500   61.27500
   99.00000    2.18660    2.24500   64.15800  -68.78400    0.79400   61.27000
   99.50000    2.17860    2.23440   60.16900  -68.96900    0.79300   61.26500
  100.00000    2.17060    2.22380   57.63100  -69.15900    0.79200   61.26000
  100.50000    2.15560    2.21320   57.09300  -68.97100    0.79100   61.25600
  101.00000    2.13040    2.20600   56.75300  -68.76200    0.79000   61.25100
  101.50000    2.10520    2.20260   56.06100  -68.67600    0.78900   61.24600
  102.00000    2.08010    2.19920   55.99800  -68.92200    0.78800   61.24100
  102.50000    2.05600    2.19620   56.62500  -69.16800    0.77700   61.25200
  103.00000    2.02750    2.17150   59.73200  -69.41400    0.75600   61.26400
  103.50000    1.98910    2.10570   61.42700  -69.65900    0.73500   61.27600
  104.00000    1.95030    2.03970   62.33300  -69.90500    0.71300   61.28800
  104.50000    1.87800    1.97370   61.35100  -70.15000    0.69200   61.30000
