~Version ---------------------------------------------------
VERS.   2.0 : CWLS log ASCII Standard -VERSION 2.0
WRAP.    NO : One line per depth step
DLM . SPACE : Column Data Section Delimiter
~Well ------------------------------------------------------
STRT.F     2.0 : START DEPTH
STOP.F   332.0 : STOP DEPTH
STEP.F     0.5 : STEP
NULL. -9999.25 : NULL VALUE
COMP.          : COMPANY
WELL.          : WELL
FLD .          : FIELD
LOC .          : LOCATION
PROV.          : PROVINCE
CNTY.          : COUNTY
STAT.          : STATE
CTRY.          : COUNTRY
SRVC.          : SERVICE COMPANY
DATE.          : DATE
UWI .          : UNIQUE WELL ID
API .          : API NUMBER
~Curve Information -----------------------------------------
DEPT.F     : 
RILD.      : 
RILM.      : 
GR  .      : 
SP  .      : 
FRES.OHMM  : 
TMP .DEGF  : 
~Params ----------------------------------------------------
~Other -----------------------------------------------------
~ASCII -----------------------------------------------------
# ...
  105.00000    1.81220    1.90770   61.10100  -70.27700    0.59300   61.31200
  105.50000    1.75700    1.83530   62.04000  -70.27800    0.48700   61.32400
  106.00000    1.70400    1.74440   60.45500  -70.27800    0.38200   61.33600
  106.50000    1.65620    1.66880   56.98300  -70.27800    0.33500   61.34800
  107.00000    1.60840    1.63410   52.93900  -70.27800    0.32600   61.36000
  107.50000    1.56460    1.59940   49.56700  -70.25800    0.31700   61.37200
  108.00000    1.55250    1.56680   53.39000  -70.11500    0.30800   61.38500
  108.50000    1.53980    1.56070   57.97700  -69.97300    0.29800   61.39700
  109.00000    1.52720    1.55490   61.74200  -69.83200    0.28900   61.40900
  109.50000    1.51450    1.54910   59.44500  -69.69000    0.28000   61.42100
  110.00000    1.50750    1.54330   53.47900  -69.54900    0.27600   61.43800
  110.50000    1.50250    1.53650   51.26700  -69.40700    0.27700   61.45900
  111.00000    1.49740    1.52720   53.40400  -69.26500    0.27900   61.48000
  111.50000    1.49180    1.51790   55.33800  -69.18200    0.28000   61.50000
  112.00000    1.48600    1.50850   55.03100  -69.23400    0.28200   61.50400
  112.50000    1.47990    1.49920   53.14600  -69.28600    0.28300   61.50700
  113.00000    1.47360    1.48990   52.35300  -69.33900    0.28500   61.51100
  113.50000    1.46720    1.48050   54.23300  -69.39100    0.28600   61.51400
  114.00000    1.46090    1.47100   59.16700  -69.44300    0.28800   61.51800
  114.50000    1.45460    1.46530   64.41700  -69.49500    0.28900   61.52100
  115.00000    1.44860    1.46010   66.01000  -69.54700    0.29100   61.52500
  115.50000    1.44260    1.45500   64.67200  -69.59900    0.29200   61.52800
  116.00000    1.43650    1.44980   63.22400  -69.65100    0.29400   61.53200
  116.50000    1.43050    1.44470   63.95800  -69.70400    0.29500   61.53500
  117.00000    1.42450    1.43960   66.79900  -69.91700    0.29700   61.53900
  117.50000    1.41850    1.43440   67.69800  -70.22100    0.29800   61.54200
  118.00000    1.41540    1.42930   69.05800  -69.06100    0.30000   61.54600
  118.50000    1.42640    1.43260   71.03500  -68.71800    0.30100   61.54900
  119.00000    1.43710    1.44030   71.68400  -68.88000    0.30300   61.55200
  119.50000    1.44780    1.44800   68.95700  -69.03900    0.30400   61.55600
  120.00000    1.45840    1.45560   65.87300  -69.19600    0.30600   61.55900
  120.50000    1.46900    1.46330   66.77600  -69.35300    0.30700   61.56300
  121.00000    1.47970    1.47880   69.64400  -69.51100    0.31000   61.56600
  121.50000    1.52220    1.53430   71.68400  -69.66800    0.31200   61.57000
  122.00000    1.58080    1.58850   70.52300  -69.68600    0.31500   61.57300
  122.50000    1.63920    1.64320   66.62900  -69.62900    0.31800   61.57700
  123.00000    1.69720    1.73290   64.26600  -69.57200    0.32000   61.58000
  123.50000    1.75370    1.84760   65.77500  -69.51600    0.32300   61.58400
  124.00000    1.81030    1.96220   69.47800  -69.46000    0.32500   61.58700
  124.50000    1.86540    2.07680   71.52300  -69.40300    0.32800   61.59100
  125.00000    1.90820    2.14740   71.30800  -69.34700    0.33100   61.59400
  125.50000    1.95170    2.16290   70.12000  -69.29000    0.33300   61.59800
  126.00000    1.95700    2.13620   70.12800  -69.23400    0.33600   61.60100
  126.50000    1.98530    2.11000   72.99800  -69.17600    0.33800   61.60500
  127.00000    1.98470    2.09910   75.46500  -69.16800    0.34100   61.60800
  127.50000    1.98460    2.10510   76.89100  -69.15100    0.34400   61.61200
  128.00000    1.98440    2.11250   76.70600  -67.53800    0.34600   61.61500
  128.50000    2.00920    2.12670   76.01800  -67.66800    0.34900   61.61900
  129.00000    2.04010    2.15430   73.04000  -67.80600    0.35200   61.62200
  129.50000    2.10990    2.25070   69.29600  -67.94100    0.35400   61.62600
  130.00000    2.16760    2.31420   68.40100  -68.01700    0.35700   61.62900
  130.50000    2.19360    2.37310   69.48100  -67.70200    0.35900   61.63300
  131.00000    2.20480    2.41680   69.74800  -67.39200    0.36100   61.63600
  131.50000    2.19920    2.43160   67.93100  -67.08200    0.36200   61.64000
  132.00000    2.19360    2.38260   63.48100  -66.48500    0.36300   61.64300
  132.50000    2.18790    2.33880   62.41000  -65.65000    0.36500   61.64700
  133.00000    2.18220    2.30900   63.45200  -64.81400    0.36600   61.65000
  133.50000    2.15740    2.26180   63.74300  -64.48300    0.36800   61.65400
  134.00000    2.11560    2.18870   60.37600  -64.21400    0.36900   61.65800
  134.50000    2.07380    2.11540   59.40900  -63.95500    0.37100   61.66700
  135.00000    2.03960    2.06190   60.55400  -63.70100    0.37200   61.67700
  135.50000    2.00660    2.06070   62.90500  -58.23800    0.37300   61.68600
  136.00000    1.98030    2.06880   63.93400  -55.84600    0.37500   61.69600
  136.50000    1.96730    2.07680   62.07100  -63.98500    0.37600   61.70500
  137.00000    1.95420    2.08490   61.47800  -63.45000    0.37800   61.71400
  137.50000    1.94330    2.09270   61.21800  -62.72000    0.37900   61.72400
  138.00000    1.94800    2.08310   59.61300  -62.42000    0.37200   61.73300
  138.50000    1.95260    2.06130   54.63200  -62.31300    0.36500   61.74300
  139.00000    1.95620    2.03950   51.11300  -62.20400    0.35900   61.75200
  139.50000    1.93940    2.02800   49.27300  -62.09400    0.35200   61.76200
  140.00000    1.92310    2.03130   49.38500  -61.98400    0.34600   61.77100
  140.50000    1.90680    2.03480   50.18600  -61.71300    0.34200   61.78500
  141.00000    1.89010    2.03830   50.04300  -61.34900    0.33900   61.81000
  141.50000    1.87710    2.03530   48.58200  -60.98600    0.33600   61.83500
  142.00000    1.86440    2.02280   48.50100  -60.62400    0.33200   61.85400
  142.50000    1.85170    2.01040   49.25600  -60.26100    0.32900   61.86000
  143.00000    1.83910    2.00000   48.78000  -59.89800    0.32500   61.86500
  143.50000    1.82070    1.99870   47.35600  -59.53500    0.32200   61.87100
  144.00000    1.79370    1.94640   44.90300  -59.17200    0.31900   61.87700
  144.50000    1.76680    1.89410   42.41100  -58.81000    0.31500   61.88200
  145.00000    1.73970    1.84170   41.86300  -58.44700    0.31200   61.88800
  145.50000    1.71930    1.80350   42.91800  -58.08400    0.30800   61.89400
  146.00000    1.71660    1.80360   42.87000  -57.72100    0.30500   61.89900
  146.50000    1.71400    1.80200   42.66700  -57.35800    0.30200   61.90500
  147.00000    1.71130    1.79800   45.50000  -56.99600    0.29800   61.91100
  147.50000    1.70870    1.79400   48.45900  -56.63300    0.29500   61.91600
  148.00000    1.70720    1.79000   49.35700  -56.33600    0.29100   61.92200
  148.50000    1.73960    1.82580   49.51500  -56.17600    0.28800   61.92800
  149.00000    1.77100    1.86450   46.61400  -56.01600    0.28500   61.93300
  149.50000    1.79250    1.90320   45.71400  -55.85500    0.28100   61.93900
  150.00000    1.80010    1.93510   44.90500  -55.69500    0.27600   61.95500
  150.50000    1.80760    1.95320   46.02700  -55.53500    0.27600   61.95800
  151.00000    1.81510    1.97150   46.79400  -55.37400    0.27700   61.96100
  151.50000    1.82250    1.97690   49.97800  -55.21400    0.27800   61.96400
  152.00000    1.83020    1.94690   53.51500  -55.05400    0.27800   61.96700
  152.50000    1.82870    1.91700   57.09800  -54.89300    0.27900   61.97000
  153.00000    1.82520    1.88740   56.65300  -54.72900    0.28000   61.97300
  153.50000    1.82170    1.87710   49.80500  -54.95100    0.28100   61.97600
  154.00000    1.81810    1.88440   46.60900  -55.19600    0.28100   61.97900
  154.50000    1.83920    1.89170   47.10000  -55.44100    0.28100   61.98200
  155.00000    1.83340    1.89900   49.21300  -55.68600    0.28000   61.98500
  155.50000    1.83590    1.90630   50.19300  -55.93100    0.28000   61.98800
  156.00000    1.83860    1.91360   53.37000  -56.17600    0.28000   61.99100
