~Version ---------------------------------------------------
VERS.   2.0 : CWLS log ASCII Standard -VERSION 2.0
WRAP.    NO : One line per depth step
DLM . SPACE : Column Data Section Delimiter
~Well ------------------------------------------------------
STRT.F     2.0 : START DEPTH
STOP.F   332.0 : STOP DEPTH
STEP.F     0.5 : STEP
NULL. -9999.25 : NULL VALUE
COMP.          : COMPANY
WELL.          : WELL
FLD .          : FIELD
LOC .          : LOCATION
PROV.          : PROVINCE
CNTY.          : COUNTY
STAT.          : STATE
CTRY.          : COUNTRY
SRVC.          : SERVICE COMPANY
DATE.          : DATE
UWI .          : UNIQUE WELL ID
API .          : API NUMBER
~Curve Information -----------------------------------------
DEPT.F     : 
RILD.      : 
RILM.      : 
GR  .      : 
SP  .      : 
FRES.OHMM  : 
TMP .DEGF  : 
~Params ----------------------------------------------------
~Other -----------------------------------------------------
~ASCII -----------------------------------------------------
# ...
  259.50000    1.63960    1.64050   61.14600 -142.53000    0.22200   63.69900
  260.00000    1.69590    1.68130   69.39900 -142.85000    0.22000   63.71200
  260.50000    1.75180    1.76380   74.32600 -145.13000    0.21800   63.72400
  261.00000    1.82660    1.90700   73.68100 -146.63000    0.21600   63.73700
  261.50000    1.93650    2.07080   68.44600 -147.19000    0.21400   63.74900
  262.00000    2.05130    2.29080   61.85200 -147.74000    0.21300   63.76500
  262.50000    2.24070    2.51070   60.49800 -148.30000    0.21100   63.78300
  263.00000    2.44060    2.83990   62.14400 -146.79000    0.21100   63.80200
  263.50000    2.63970    3.21040   63.97100 -146.53000    0.21200   63.82100
  264.00000    2.85340    3.58910   65.37800 -145.69000    0.21300   63.83900
  264.50000    3.03060    3.96850   67.01600 -142.85000    0.21400   63.85200
  265.00000    3.15500    4.23890   66.69600 -138.95000    0.21500   63.86500
  265.50000    3.23640    4.39240   64.74300 -136.57000    0.21600   63.87800
  266.00000    3.27790    4.33230   61.85800 -135.08000    0.21700   63.89100
  266.50000    3.27860    4.13240   62.11500 -133.79000    0.21900   63.91200
  267.00000    3.26860    3.92870   65.05300 -133.87000    0.22000   63.93500
  267.50000    3.19540    3.65840   65.62000 -133.82000    0.22100   63.95700
  268.00000    3.11100    3.40350   64.58700 -131.91000    0.22200   63.98000
  268.50000    3.04590    3.26650   61.62200 -131.31000    0.22300   64.00200
  269.00000    2.98340    3.26370   57.94400 -131.11000    0.22400   64.02400
  269.50000    2.92070    3.27420   55.23600 -130.90000    0.22500   64.04700
  270.00000    2.81760    3.24510   56.98300 -130.83000    0.22600   64.06900
  270.50000    2.69910    3.10370   58.96300 -130.83000    0.22800   64.09200
  271.00000    2.58130    2.93850   58.66800 -130.83000    0.22900   64.11400
  271.50000    2.52940    2.79250   58.20300 -131.06000    0.22900   64.13600
  272.00000    2.43220    2.64630   57.44000 -131.52000    0.23000   64.15900
  272.50000    2.33550    2.50070   57.65100 -131.92000    0.23000   64.18100
  273.00000    2.23920    2.38660   56.37100 -131.61000    0.23000   64.20400
  273.50000    2.16530    2.29920   56.20900 -131.31000    0.23100   64.22600
  274.00000    2.08900    2.23970   57.64400 -131.00000    0.23100   64.24800
  274.50000    2.02810    2.18660   59.83100 -130.91000    0.23100   64.27100
  275.00000    1.99440    2.14490   61.67000 -131.07000    0.23200   64.29300
  275.50000    1.96130    2.10550   59.56000 -131.23000    0.23200   64.31600
  276.00000    1.93420    2.07300   55.33300 -131.40000    0.23200   64.33800
  276.50000    1.90800    2.04040   53.22600 -131.56000    0.23300   64.36100
  277.00000    1.89170    2.00770   56.50700 -131.72000    0.23300   64.38300
  277.50000    1.87890    1.97490   59.21100 -131.88000    0.23400   64.40500
  278.00000    1.86620    1.96170   60.85200 -132.04000    0.23400   64.42800
  278.50000    1.85340    1.95120   63.34200 -132.21000    0.23400   64.45000
  279.00000    1.84060    1.94280   66.81600 -132.37000    0.23500   64.47300
  279.50000    1.82780    1.94290   68.42800 -132.50000    0.23500   64.49500
  280.00000    1.81590    1.93390   66.42500 -132.50000    0.23500   64.51700
  280.50000    1.80680    1.91500   64.50800 -132.58000    0.23600   64.54000
  281.00000    1.79790    1.89610   63.72500 -132.83000    0.23600   64.56200
  281.50000    1.78890    1.87560   62.29000 -133.08000    0.23800   64.58500
  282.00000    1.78010    1.85380   58.25300 -133.33000    0.24000   64.60700
  282.50000    1.78500    1.83190   56.40100 -133.58000    0.24100   64.62900
  283.00000    1.80250    1.82380   55.72500 -133.83000    0.24300   64.65200
  283.50000    1.82390    1.84170   56.53300 -134.08000    0.24500   64.67400
  284.00000    1.87390    1.92640   57.84000 -133.90000    0.24700   64.69700
  284.50000    1.92350    2.01960   61.05300 -133.48000    0.24900   64.71900
  285.00000    1.98110    2.12030   67.66800 -133.06000    0.25000   64.74100
  285.50000    2.05350    2.23400   68.55700 -132.79000    0.25200   64.76400
  286.00000    2.13990    2.34810   71.93400 -132.51000    0.25400   64.78600
  286.50000    2.23650    2.48010   73.80500 -132.59000    0.25600   64.80900
  287.00000    2.33280    2.63980   77.72500 -132.72000    0.25800   64.83100
  287.50000    2.42190    2.79940   78.88900 -132.85000    0.25900   64.85600
  288.00000    2.45420    2.95910   79.11500 -132.98000    0.26100   64.88100
  288.50000    2.48740    3.11800   76.50800 -132.60000    0.26300   64.90700
  289.00000    2.51310    3.20070   70.78500 -131.57000    0.26500   64.93300
  289.50000    2.50600    3.23500   65.22800 -130.52000    0.26700   64.95800
  290.00000    2.49690    3.08530   59.92400 -129.55000    0.26800   64.98400
  290.50000    2.40250    2.76670   58.82200 -128.79000    0.27000   65.00900
  291.00000    2.30760    2.53110   61.27400 -128.03000    0.27200   65.03500
  291.50000    2.17490    2.29720   64.14900 -128.02000    0.27400   65.06100
  292.00000    2.06810    2.13940   67.41400 -129.25000    0.27400   65.08600
  292.50000    1.97690    2.01900   67.89500 -129.50000    0.27100   65.11200
  293.00000    1.90070    1.97460   65.61400 -129.74000    0.26900   65.13800
  293.50000    1.87520    1.92990   61.54100 -129.99000    0.26600   65.16300
  294.00000    1.84540    1.92900   59.12400 -130.23000    0.26300   65.18900
  294.50000    1.81570    1.92880   61.83100 -130.48000    0.26100   65.21400
  295.00000    1.80360    1.93960   66.86800 -130.72000    0.25800   65.24000
  295.50000    1.80360    1.95160   71.65900 -130.61000    0.25500   65.26600
  296.00000    1.79950    1.93010   74.18500 -130.18000    0.25600   65.29100
  296.50000    1.77520    1.88520   75.10700 -129.66000    0.25800   65.31700
  297.00000    1.75140    1.84040   74.57500 -131.56000    0.25900   65.34200
  297.50000    1.72610    1.79570   74.90100 -131.80000    0.26100   65.36800
  298.00000    1.69620    1.75090   74.84300 -132.06000    0.26200   65.39400
  298.50000    1.66640    1.70610   68.22600 -132.31000    0.26300   65.41900
  299.00000    1.63640    1.66380   60.91600 -132.57000    0.26500   65.44500
  299.50000    1.60660    1.64350   59.77900 -132.82000    0.26600   65.47000
  300.00000    1.57680    1.62310   62.79500 -133.08000    0.26800   65.49600
  300.50000    1.55000    1.58700   66.79600 -133.34000    0.26500   65.52200
  301.00000    1.52500    1.54900   68.04600 -133.59000    0.26200   65.54700
  301.50000    1.49990    1.51090   68.34300 -133.94000    0.25900   65.58200
  302.00000    1.47570    1.47300   66.01200 -134.30000    0.25600   65.61700
  302.50000    1.45350    1.45060   61.25900 -134.65000    0.25300   65.65200
  303.00000    1.43130    1.44200   56.45800 -135.01000    0.24900   65.68800
  303.50000    1.40910    1.43340   55.93700 -135.34000    0.24600   65.72300
  304.00000    1.38630    1.41830   56.64600 -135.61000    0.24300   65.75800
  304.50000    1.36480    1.39220   58.13900 -135.88000    0.24000   65.79400
  305.00000    1.34270    1.36610   57.72000 -136.14000    0.23700   65.82900
  305.50000    1.33200    1.34650   55.82500 -136.41000    0.23400   65.86400
  306.00000    1.33600    1.36700   55.41000 -136.68000    0.23100   65.89900
  306.50000    1.34020    1.38710   55.94100 -136.95000    0.22700   65.93500
  307.00000    1.34520    1.40530   56.80200 -137.22000    0.22400   65.97000
  307.50000    1.35750    1.42110   55.28200 -137.50000    0.22200   66.00500
  308.00000    1.36980    1.43680   53.81800 -138.97000    0.22100   66.04100
  308.50000    1.38220    1.45250   56.67400 -139.43000    0.22000   66.07600
  309.00000    1.39440    1.46820   61.75500 -139.73000    0.21900   66.11100
  309.50000    1.39550    1.48230   63.74400 -140.04000    0.21800   66.14600
  310.00000    1.38600    1.45210   60.43100 -140.34000    0.21700   66.18200
  310.50000    1.37660    1.42200   56.48700 -140.64000    0.21700   66.21700
