~Version ---------------------------------------------------
VERS.   2.0 : CWLS log ASCII Standard -VERSION 2.0
WRAP.    NO : One line per depth step
DLM . SPACE : Column Data Section Delimiter
~Well ------------------------------------------------------
STRT.F     6.0 : START DEPTH
STOP.F   430.0 : STOP DEPTH
STEP.F     0.5 : STEP
NULL. -9999.25 : NULL VALUE
COMP.          : COMPANY
WELL.          : WELL
FLD .          : FIELD
LOC .          : LOCATION
PROV.          : PROVINCE
CNTY.          : COUNTY
STAT.          : STATE
CTRY.          : COUNTRY
SRVC.          : SERVICE COMPANY
DATE.          : DATE
UWI .          : UNIQUE WELL ID
API .          : API NUMBER
~Curve Information -----------------------------------------
DEPT.F     : 
RILD.      : 
RILM.      : 
GR  .      : 
SP  .      : 
FRES.OHMM  : 
TMP .DEGF  : 
~Params ----------------------------------------------------
~Other -----------------------------------------------------
~ASCII -----------------------------------------------------
# ...
  366.50000   10.16800    6.96220   80.70100  -54.91700    9.15500   70.86800
  367.00000   10.71200    6.94240   78.64700  -54.83900    9.14400   70.88400
  367.50000   10.83600    6.74510   76.56700  -54.76100    9.13400   70.90000
  368.00000   10.58000    6.54950   76.11100  -54.68300    9.12300   70.91700
  368.50000   10.32400    6.35430   77.85500  -54.60500    9.11200   70.93300
  369.00000   10.06800    6.21410   79.30500  -54.52700    9.10200   70.94900
  369.50000    9.81240    6.13680   79.07100  -54.44900    9.09100   70.96500
  370.00000    9.55660    6.05970   78.02800  -54.37100    9.08100   70.98100
  370.50000    9.30100    5.98250   71.38000  -54.28700    9.07000   70.99700
  371.00000    9.03650    5.90530   64.66000  -53.87800    9.06000   71.01300
  371.50000    8.97700    5.82810   63.42500  -53.46200    9.04900   71.03000
  372.00000    8.92180    5.75010   68.20700  -53.14600    9.03800   71.04600
  372.50000    8.86700    5.74400   75.53800  -53.02900    9.02800   71.06200
  373.00000    8.81200    5.93310   79.66600  -52.91200    9.01600   71.07800
  373.50000    8.75540    6.11590   79.74300  -52.79500    9.00400   71.09400
  374.00000    8.82530    6.75910   76.36700  -52.67800    8.99200   71.11000
  374.50000    8.91240    6.65760   74.21200  -52.56100    8.98000   71.12600
  375.00000    8.99860    6.50730   72.44900  -52.44400    8.96800   71.14200
  375.50000    8.78240    6.35410   71.69100  -52.32700    8.95600   71.15900
  376.00000    8.41070    6.13830   73.23000  -52.21000    8.94400   71.17500
  376.50000    8.04010    5.80580   73.37100  -52.09000    8.93100   71.19100
  377.00000    7.66980    5.47240   71.47600  -52.18700    8.91900   71.20700
  377.50000    7.29890    5.14240   70.31700  -52.31300    8.90700   71.22300
  378.00000    6.92970    4.99030   71.70800  -52.43800    8.89500   71.23900
  378.50000    6.86960    4.85890   71.24600  -52.56600    8.88300   71.27700
  379.00000    6.97040    4.86090   70.54100  -51.97400    8.87100   71.39700
  379.50000    7.06690    4.86350   71.75000  -50.57500    8.85900   72.11400
  380.00000    7.34150    5.09810   73.32200  -50.95600    8.84700   72.85300
  380.50000    7.64080    5.49500   75.01700  -51.58000    8.83500   73.59200
  381.00000    7.95680    5.89010   75.00100  -52.08800    8.82300   73.96000
  381.50000    9.18940    7.14620   77.76400  -51.18400    8.51900   74.09700
  382.00000   10.39800    8.61210   80.70900  -48.96800    7.25500   74.20400
  382.50000   11.85500    9.78440   84.01200  -47.64400    5.76300   74.25700
  383.00000   13.18900   10.67400   83.05600  -48.54800    5.50800   74.28600
  383.50000   13.19500   10.98800   77.04000  -48.61400    5.38100   74.31500
  384.00000   13.19200   10.32700   72.45200  -48.74900    5.36700   74.34400
  384.50000   12.82400    9.54840   72.04900  -49.28400    5.35200   74.37300
  385.00000   12.13000    8.76630   75.95500  -51.42200    5.33800   74.40200
  385.50000   11.44100    8.02070   76.89400  -53.00700    5.32300   74.43100
  386.00000   10.62000    7.36980   74.72400  -52.31500    5.30900   74.46000
  386.50000   10.33700    6.79610   72.22300  -54.47500    5.29400   74.48900
  387.00000   10.04000    6.80430   74.03500  -55.96200    5.28000   74.51800
  387.50000    9.75570    6.80460   78.17200  -55.95600    5.26500   74.54700
  388.00000    9.68750    7.02210   82.31100  -55.95600    5.25100   74.57600
  388.50000    9.88100    7.31500   83.91200  -55.95500    5.23600   74.60500
  389.00000   11.05200    7.96640   84.94500  -56.21500    5.22200   74.63400
  389.50000   12.06700    8.44000   83.85700  -56.74900    5.20700   74.66300
  390.00000   11.77100    8.30700   81.23600  -57.03200    5.19300   74.69200
  390.50000   11.63500    8.17670   77.73800  -57.07600    5.17800   74.72100
  391.00000   12.60700    9.13360   75.94700  -57.56900    5.16400   74.75000
  391.50000   13.03600   10.21600   74.65800  -57.43800    5.14900   74.77700
  392.00000   13.46500   11.29200   70.86600  -57.29800    5.13500   74.79600
  392.50000   13.89200   11.63500   64.04300  -57.16100    5.12000   74.81600
  393.00000   14.32100   11.30100   57.31600  -57.02300    5.10600   74.83500
  393.50000   14.75000   11.61500   50.61100  -56.88600    5.09100   74.85400
  394.00000   14.63100   11.49500   46.46700  -56.74800    5.07700   74.87300
  394.50000   14.31200   10.97200   45.18500  -56.61000    5.06800   74.89200
  395.00000   13.99500   10.45100   46.68500  -56.50900    5.06300   74.91100
  395.50000   13.67800    9.92900   48.26500  -56.51000    5.05800   74.93000
  396.00000   13.36000    9.58340   48.36100  -56.51000    5.05400   74.94900
  396.50000   13.04500    9.58200   46.57200  -56.51000    5.04900   74.96800
  397.00000   12.91600    9.49120   46.13400  -56.50900    5.04500   74.98700
  397.50000   12.91700    9.33640   48.58900  -56.58800    5.04000   75.00700
  398.00000   12.91700    9.18210   51.30200  -56.84500    5.03600   75.02600
  398.50000   12.91700    9.02780   52.15900  -57.03000    5.03100   75.04500
  399.00000   12.91700    8.87350   50.77200  -56.75700    5.02700   75.06400
  399.50000   12.64000    8.71910   49.96000  -56.49000    5.02200   75.08300
  400.00000   12.22300    8.56370   51.05500  -56.22400    5.01700   75.10200
  400.50000   12.15400    8.60760   52.55700  -55.95800    5.01300   75.12100
  401.00000   12.26600    8.93890   52.13000  -55.69200    5.00800   75.14000
  401.50000   12.35000    9.27210   51.18500  -55.43000    5.00400   75.15900
  402.00000   12.24300    9.58210   51.03300  -55.18900    4.99900   75.17800
  402.50000   12.14000    9.58340   51.02200  -54.95700    4.99500   75.19700
  403.00000   12.50400    9.58330   48.94600  -54.84700    4.99000   75.21700
  403.50000   12.36100    9.58310   47.08600  -54.84900    4.98500   75.23600
  404.00000   12.06800    9.57910   49.41100  -54.59300    4.98100   75.25500
  404.50000   11.99400    9.45250   51.88100  -54.01500    4.97600   75.27400
  405.00000   11.92000    9.33000   56.21900  -53.43400    4.97200   75.29300
  405.50000   11.84500    9.20750   60.63900  -52.85200    4.96700   75.31200
  406.00000   11.69600    9.08500   62.90400  -52.42800    4.96300   75.33100
  406.50000   11.46600    8.96240   58.65800  -52.09900    4.95800   75.35000
  407.00000   11.23500    8.83990   55.04200  -51.77000    4.95400   75.36900
  407.50000   11.00200    8.71730   56.97000  -51.44100    4.94900   75.38900
  408.00000   10.77500    8.59490   60.22500  -51.11200    4.94400   75.41300
  408.50000   11.04900    8.47460   56.71900  -50.78300    4.94000   75.43700
  409.00000   11.27400    8.47230   52.21700  -50.45500    4.93500   75.46100
  409.50000   11.49000    8.47220   50.71500  -50.12500    4.93100   75.48600
  410.00000   11.70300    8.47250   54.23700  -49.74500    4.92600   75.51000
  410.50000   11.58000    8.40610   59.60900  -49.06600    4.92200   75.53400
  411.00000   11.27800    8.24570   64.90800  -48.39800    4.91800   75.55800
  411.50000   11.43900    8.33260   66.83000  -47.72300    4.91500   75.57400
  412.00000   11.59600    8.53850   63.00700  -47.87400    4.91100   75.58000
  412.50000   11.75300    8.74320   60.99400  -48.13800    4.90800   75.58500
  413.00000   11.90900    8.94800   61.64900  -48.40200    4.90500   75.59000
  413.50000   12.06600    9.15370   62.11300  -48.66600    4.90100   75.59600
  414.00000   12.22200    9.27040   61.27100  -48.92900    4.89800   75.60100
  414.50000   12.37900    9.12370   56.96400  -49.19300    4.89400   75.60600
  415.00000   12.54000    8.97760   53.08800  -49.45700    4.89100   75.61200
  415.50000   12.38400    8.83200   53.13200  -49.72100    4.88800   75.61700
  416.00000   11.63900    8.68630   56.42400  -49.92400    4.88400   75.62200
  416.50000   11.10500    8.54070   59.69900  -50.05800    4.88100   75.62800
  417.00000   10.80700    8.39510   58.86300  -50.19300    4.87700   75.63300
  417.50000   10.75100    8.24940   56.43800  -50.33000    4.87400   75.63800
