~Version ---------------------------------------------------
VERS.   2.0 : CWLS log ASCII Standard -VERSION 2.0
WRAP.    NO : One line per depth step
DLM . SPACE : Column Data Section Delimiter
~Well ------------------------------------------------------
STRT.F     6.0 : START DEPTH
STOP.F   430.0 : STOP DEPTH
STEP.F     0.5 : STEP
NULL. -9999.25 : NULL VALUE
COMP.          : COMPANY
WELL.          : WELL
FLD .          : FIELD
LOC .          : LOCATION
PROV.          : PROVINCE
CNTY.          : COUNTY
STAT.          : STATE
CTRY.          : COUNTRY
SRVC.          : SERVICE COMPANY
DATE.          : DATE
UWI .          : UNIQUE WELL ID
API .          : API NUMBER
~Curve Information -----------------------------------------
DEPT.F     : 
RILD.      : 
RILM.      : 
GR  .      : 
SP  .      : 
FRES.OHMM  : 
TMP .DEGF  : 
~Params ----------------------------------------------------
~Other -----------------------------------------------------
~ASCII -----------------------------------------------------
# ...
  212.00000   12.23900    7.75930   49.60900  -40.33200   16.11400   65.14400
  212.50000   11.98000    7.62030   53.02000  -42.87200   15.99900   65.17000
  213.00000   11.72100    7.48170   55.81000  -45.50400   15.88400   65.19600
  213.50000   11.15100    7.36040   58.00700  -48.25500   15.76900   65.22300
  214.00000   10.64500    7.26990   58.96400  -51.01000   15.65400   65.24900
  214.50000   10.26500    6.99910   57.04300  -53.39200   15.55700   65.27500
  215.00000    9.87380    6.72710   54.09700  -54.93000   15.53100   65.30100
  215.50000    9.70150    6.45530   51.93800  -56.73600   15.50400   65.32700
  216.00000    9.42220    6.18350   51.78400  -58.05200   15.48100   65.35300
  216.50000    8.94310    5.91150   52.23100  -59.30500   15.46500   65.37900
  217.00000    8.62470    5.68340   52.55100  -60.55600   15.43400   65.40500
  217.50000    8.41680    5.63470   52.54700  -61.81400   15.31700   65.43100
  218.00000    8.20260    5.58530   53.05700  -62.42700   15.20000   65.45800
  218.50000    8.41930    5.53570   56.65500  -61.82300   15.08300   65.48400
  219.00000    8.65920    5.48610   61.54900  -60.19700   15.01900   65.51000
  219.50000    8.89930    5.43750   60.91200  -58.58500   14.96700   65.53600
  220.00000    9.02860    5.50510   57.18800  -58.16600   14.91500   65.56200
  220.50000    9.20040    5.65400   51.78300  -58.16100   14.78000   65.58800
  221.00000    9.80180    5.99880   50.82800  -58.73600   14.64000   65.61400
  221.50000   10.69400    6.41650   52.39600  -58.50000   14.49900   65.64000
  222.00000   11.73600    6.83410   51.71100  -57.91400   14.35800   65.66600
  222.50000   12.74200    7.16490   51.10800  -58.24400   14.21700   65.69300
  223.00000   13.45700    7.37450   46.73100  -59.23000   14.07600   65.71900
  223.50000   14.17400    7.58260   48.12200  -58.74500   14.00900   65.74500
  224.00000   14.87300    7.99050   50.86100  -59.06900   13.96900   65.77100
  224.50000   16.11700    8.47950   51.81000  -59.42400   13.92800   65.79700
  225.00000   16.92600    9.34060   51.96800  -59.76100   13.88700   65.82300
  225.50000   18.62800   10.20800   49.92900  -61.62900   13.84700   65.84900
  226.00000   20.56500   11.07700   47.87000  -63.21000   13.80600   65.87500
  226.50000   22.49800   11.94600   46.09600  -63.38600   13.67900   65.90100
  227.00000   24.28700   12.60000   43.53800  -63.56300   13.37900   65.92800
  227.50000   23.96400   12.31500   43.70800  -63.74200   13.22200   66.00800
  228.00000   23.64300   12.04100   45.43300  -63.92200   13.09300   66.18100
  228.50000   23.32100   11.70300   47.78600  -64.10000   12.98100   66.33600
  229.00000   22.94500   10.89200   49.58300  -64.18100   12.70200   66.49200
  229.50000   22.51400   10.08500   50.00500  -63.09000   12.62300   66.64800
  230.00000   20.80500    9.27920   49.59900  -62.00800   12.61500   66.80300
  230.50000   18.19300    8.48340   46.87900  -61.65700   12.60800   66.84700
  231.00000   15.97900    8.26470   44.81400  -61.95100   12.60100   66.87500
  231.50000   15.69000    8.27020   45.05700  -61.64500   12.59300   66.90400
  232.00000   15.89500    8.38720   44.14200  -61.93600   12.58600   66.93200
  232.50000   16.12600    8.50310   42.83900  -62.24400   12.57900   66.96000
  233.00000   16.24900    8.61850   42.04500  -62.55200   12.57200   66.98900
  233.50000   16.25200    8.73130   43.47400  -63.15300   12.56400   67.01700
  234.00000   16.29200    9.02780   45.22500  -63.80700   12.55700   67.04500
  234.50000   17.50700    9.31020   45.92900  -64.46100   12.57200   67.07400
  235.00000   17.18700    9.30600   44.55800  -65.11200   12.61300   67.10500
  235.50000   16.66600    9.30560   44.78700  -65.37500   12.65400   67.17400
  236.00000   16.14700    9.30560   43.38100  -65.37400   12.69400   67.24300
  236.50000   16.73900    9.30560   41.51100  -65.37400   12.73500   67.31200
  237.00000   17.90900    9.30640   40.67400  -65.37400   12.77600   67.38100
  237.50000   18.46700    9.31490   39.87500  -65.37200   12.78800   67.45100
  238.00000   17.37100    8.70380   39.27600  -65.36700   12.79900   67.47900
  238.50000   16.27500    8.45980   35.59500  -66.44900   12.81100   67.49000
  239.00000   16.19100    9.01400   34.64300  -67.85700   12.82200   67.50200
  239.50000   17.22300    9.63960   35.02800  -68.32800   12.83400   67.51300
  240.00000   18.08100   10.14500   37.83100  -68.55700   12.84600   67.52400
  240.50000   18.56600   10.14000   37.25300  -68.78700   12.85000   67.53600
  241.00000   18.96000   10.13900   35.56700  -69.01700   12.84900   67.54700
  241.50000   18.91200   10.13500   35.82000  -69.24300   12.84800   67.55800
  242.00000   18.05300    9.72500   38.32600  -69.02700   12.84700   67.57000
  242.50000   17.75700    9.04660   41.65300  -68.79800   12.84600   67.58100
  243.00000   18.70900    9.30520   42.64400  -68.56900   12.84500   67.58700
  243.50000   19.04100    9.55650   43.00400  -68.34000   12.84400   67.59300
  244.00000   17.18800    8.45460   42.10900  -68.17900   12.84300   67.59900
  244.50000   15.80300    8.16240   41.89000  -68.47000   12.84200   67.60500
  245.00000   15.42300    8.62650   40.72100  -68.75500   12.84100   67.61100
  245.50000   16.38800    9.08900   38.63600  -69.04000   12.84000   67.61700
  246.00000   16.98500    9.56720   35.84400  -69.32500   12.83900   67.62300
  246.50000   17.28000    9.58250   35.57400  -69.60900   12.83800   67.62900
  247.00000   17.83200    9.58330   34.24100  -69.89400   12.83700   67.63500
  247.50000   18.41600    9.58330   31.24600  -70.18000   12.83600   67.64100
  248.00000   19.00000    9.58340   30.42900  -70.30200   12.83500   67.64700
  248.50000   19.58200    9.58290   32.83100  -70.15200   12.83400   67.65300
  249.00000   20.06600    9.76220   34.90000  -70.00000   12.83300   67.65900
  249.50000   20.45000   10.13200   35.17600  -69.84800   12.83200   67.66500
  250.00000   20.57200   10.13900   35.74800  -69.29800   12.83100   67.67100
  250.50000   20.69400   10.14500   36.86400  -68.60400   12.83000   67.67700
  251.00000   20.81500   10.47500   37.16900  -67.91200   12.82900   67.68300
  251.50000   20.93600   10.81100   34.14500  -67.21800   12.82800   67.68900
  252.00000   22.07900   11.14600   30.92400  -66.92700   12.82600   67.69500
  252.50000   24.02400   11.47600   29.25100  -66.78300   12.82500   67.70100
  253.00000   25.97700   12.47500   31.34700  -66.63800   12.82400   67.70700
  253.50000   25.90700   11.44400   34.44000  -66.49200   12.82300   67.71300
  254.00000   25.23800   11.00000   37.23200  -66.34600   12.82200   67.71900
  254.50000   26.25000   11.76800   39.46800  -66.20000   12.82100   67.72500
  255.00000   26.96400   12.10400   41.04600  -66.05400   12.82000   67.73100
  255.50000   24.53400   10.53900   41.72200  -65.90900   12.81900   67.73700
  256.00000   22.68200   10.47600   41.21700  -65.76300   12.81800   67.74300
  256.50000   24.61700   12.43500   42.07000  -65.61700   12.81700   67.74800
  257.00000   28.15500   13.57400   44.92300  -65.47100   12.81600   67.75400
  257.50000   31.21800   14.07900   47.26700  -65.32500   12.81500   67.76000
  258.00000   30.47900   14.26500   46.91500  -65.18000   12.81400   67.76600
  258.50000   31.25000   15.06800   44.37100  -65.03400   12.81300   67.77200
  259.00000   33.34200   16.02400   43.51400  -64.89100   12.81100   67.77800
  259.50000   33.98400   16.97100   46.43100  -65.16200   12.80900   67.78400
  260.00000   32.56700   17.01900   50.20900  -65.81700   12.80700   67.79000
  260.50000   35.27400   15.75000   52.92000  -65.94600   12.80500   67.79600
  261.00000   43.01400   15.19500   52.04000  -66.09600   12.80300   67.80200
  261.50000   44.91800   16.48200   56.47300  -66.24500   12.80100   67.80800
  262.00000   32.15400    9.35580   62.39000  -66.39400   12.79900   67.81400
  262.50000   19.69300    8.18630   66.24800  -66.38300   12.79700   67.82000
  263.00000   17.60400   11.98200   63.16500  -66.14000   12.79500   67.82600
