~Version ---------------------------------------------------
VERS.   2.0 : CWLS log ASCII Standard -VERSION 2.0
WRAP.    NO : One line per depth step
DLM . SPACE : Column Data Section Delimiter
~Well ------------------------------------------------------
STRT.F     6.0 : START DEPTH
STOP.F   430.0 : STOP DEPTH
STEP.F     0.5 : STEP
NULL. -9999.25 : NULL VALUE
COMP.          : COMPANY
WELL.          : WELL
FLD .          : FIELD
LOC .          : LOCATION
PROV.          : PROVINCE
CNTY.          : COUNTY
STAT.          : STATE
CTRY.          : COUNTRY
SRVC.          : SERVICE COMPANY
DATE.          : DATE
UWI .          : UNIQUE WELL ID
API .          : API NUMBER
~Curve Information -----------------------------------------
DEPT.F     : 
RILD.      : 
RILM.      : 
GR  .      : 
SP  .      : 
FRES.OHMM  : 
TMP .DEGF  : 
~Params ----------------------------------------------------
~Other -----------------------------------------------------
~ASCII -----------------------------------------------------
# ...
  315.00000   35.61200   14.84700   72.44600  -59.75200   11.84800   69.12200
  315.50000   41.50000   17.75100   69.95400  -58.03400   11.83000   69.13300
  316.00000   45.49700   20.66600   64.13700  -56.31300   11.81200   69.14500
  316.50000   48.97600   23.42100   59.91700  -54.56500   11.79400   69.15700
  317.00000   50.81100   24.91200   56.46500  -53.83300   11.77600   69.16900
  317.50000   53.75300   27.26900   54.50200  -53.27200   11.75700   69.18100
  318.00000   57.30900   29.89500   53.02600  -52.70000   11.73900   69.19300
  318.50000   58.44300   31.20000   52.77100  -53.02000   11.72100   69.20500
  319.00000   59.11000   31.77200   54.27400  -53.47600   11.70200   69.21700
  319.50000   59.16400   32.09900   55.14900  -53.57700   11.68400   69.22900
  320.00000   57.57000   32.33900   54.51700  -53.20100   11.66600   69.24100
  320.50000   58.09100   32.18900   56.19200  -52.82200   11.64700   69.25300
  321.00000   55.52800   31.69900   58.83900  -52.44200   11.62900   69.26500
  321.50000   52.86600   30.55700   56.46600  -52.07600   11.61100   69.27600
  322.00000   50.72000   29.41100   53.17900  -51.86900   11.59200   69.28800
  322.50000   50.08900   27.75100   53.19100  -51.66600   11.57400   69.30000
  323.00000   47.78500   25.87900   56.37000  -51.67200   11.55600   69.31200
  323.50000   42.81600   22.88600   56.10500  -52.21600   11.53700   69.32400
  324.00000   36.04400   20.00000   53.65200  -52.76000   11.51900   69.33600
  324.50000   31.83000   17.11400   54.13200  -53.30400   11.50100   69.34800
  325.00000   28.02900   14.12000   56.79200  -54.08300   11.48200   69.36000
  325.50000   24.23500   12.08600   58.45900  -56.10700   11.46400   69.37200
  326.00000   20.64900   10.09800   58.71000  -58.12300   11.44900   69.40900
  326.50000   18.83800    8.64180   58.89500  -58.85400   11.43500   69.50200
  327.00000   17.10900    8.32060   59.37900  -58.79000   11.42100   69.59500
  327.50000   16.32000    8.23570   56.98600  -59.19100   11.40800   69.68800
  328.00000   16.01500    8.39860   52.29800  -59.04400   11.08500   69.75400
  328.50000   16.64700    8.94860   52.29800  -58.90500   10.55700   69.76100
  329.00000   17.49200    9.84230   54.81100  -58.76800   10.32200   69.76900
  329.50000   18.33700   10.73700   56.37800  -58.63000   10.23300   69.77700
  330.00000   19.18400   10.97500   53.98800  -58.49300   10.14500   69.78500
  330.50000   20.04800   10.97300   52.12200  -58.35600   10.10400   69.79300
  331.00000   19.44400   10.97000   53.25600  -58.21800   10.08200   69.80100
  331.50000   18.57200   10.55500   55.59600  -57.43500   10.05900   69.80900
  332.00000   17.19600   10.12700   57.62000  -56.32700   10.03700   69.81700
  332.50000   15.82300    9.69500   57.97500  -55.61600   10.01400   69.82500
  333.00000   14.45100    8.94470   55.44700  -56.33100    9.99200   69.83300
  333.50000   13.07800    8.06930   53.73300  -57.89400    9.96900   69.84000
  334.00000   11.71000    7.19510   56.00200  -58.75800    9.94700   69.85400
  334.50000   10.86400    6.32280   63.06600  -58.84100    9.92400   69.86900
  335.00000   10.14300    5.79270   69.88900  -58.91900    9.90200   69.88500
  335.50000    9.42450    5.49500   74.91800  -58.99800    9.87900   69.90000
  336.00000    9.30550    5.18800   77.22800  -59.07600    9.85700   69.91600
  336.50000    9.30540    5.34680   79.18000  -59.15400    9.83400   69.93100
  337.00000    9.30320    5.60750   81.26200  -59.23400    9.81200   69.94700
  337.50000    9.78440    5.87070   84.55800  -59.12300    9.78900   69.96200
  338.00000   10.51500    6.34460   89.66400  -58.73900    9.76700   69.97800
  338.50000   11.34300    7.12560   95.14200  -58.35200    9.74700   69.99300
  339.00000   13.81100    8.33720   97.94800  -57.96600    9.73600   70.00900
  339.50000   16.27500    9.54770   93.97500  -57.58000    9.72600   70.02400
  340.00000   18.40900   10.75700   82.19200  -57.20200    9.71500   70.04000
  340.50000   19.87500   11.87400   70.44500  -57.23900    9.70500   70.05500
  341.00000   21.21100   12.27900   62.68000  -57.35100    9.69400   70.07100
  341.50000   20.21900   12.64500   61.21300  -57.67700    9.68300   70.08600
  342.00000   19.25500   12.63600   64.73800  -58.00600    9.67300   70.10200
  342.50000   18.28900   12.04900   67.59000  -57.95200    9.66200   70.11700
  343.00000   17.32400   10.94200   70.44600  -57.51900    9.65200   70.13300
  343.50000   16.35300    9.83470   70.98500  -57.07800    9.64100   70.14800
  344.00000   15.09200    8.72530   69.98200  -57.21000    9.63100   70.16400
  344.50000   13.61700    7.79040   71.60500  -57.36200    9.62000   70.17900
  345.00000   12.46100    7.34170   74.40300  -57.51700    9.60900   70.19500
  345.50000   12.15500    6.90470   76.09400  -57.53300    9.59900   70.21100
  346.00000   12.74400    7.81460   75.85600  -57.27500    9.58800   70.22600
  346.50000   13.88800    8.84850   75.50500  -57.01700    9.57800   70.24200
  347.00000   15.03500   10.27100   72.40500  -56.75900    9.56700   70.25700
  347.50000   16.18100   11.69400   72.12700  -56.50500    9.55700   70.27300
  348.00000   17.32500   12.76800   71.54200  -56.22500    9.54600   70.28800
  348.50000   18.43600   13.16700   73.03300  -55.96100    9.53500   70.30400
  349.00000   17.57400   12.10000   73.00700  -56.01000    9.52500   70.31900
  349.50000   15.59800   10.83800   72.52100  -56.06200    9.51400   70.33500
  350.00000   13.95700    9.57480   73.70000  -56.11500    9.50400   70.35000
  350.50000   12.91600    8.31300   73.76600  -56.16800    9.49300   70.36600
  351.00000   11.91200    7.35240   71.55800  -56.22000    9.48300   70.38100
  351.50000   10.92000    6.73910   67.58200  -56.27300    9.47200   70.39700
  352.00000    9.89620    6.29580   66.31400  -56.32600    9.46100   70.41200
  352.50000   10.01600    6.60560   66.77800  -56.37900    9.45100   70.42800
  353.00000   10.17900    6.89420   66.22300  -56.43100    9.44000   70.44300
  353.50000   10.34400    7.04980   66.65600  -56.48200    9.43000   70.45900
  354.00000   10.50800    6.91890   69.29200  -56.00700    9.41900   70.47400
  354.50000   10.67600    6.78820   75.37900  -55.01300    9.40800   70.49000
  355.00000   10.60600    6.65800   80.73400  -55.34500    9.39800   70.50500
  355.50000   10.50500    6.52780   81.35600  -55.97300    9.38700   70.52100
  356.00000   10.40300    6.39740   76.99500  -56.50800    9.37700   70.53600
  356.50000   10.30100    6.26580   74.24200  -56.41900    9.36600   70.55200
  357.00000   10.19900    6.24970   73.10700  -56.33800    9.35600   70.56800
  357.50000   10.13400    6.24960   74.81200  -56.25800    9.34500   70.58300
  358.00000   10.46100    6.38860   77.26800  -56.17800    9.33400   70.59900
  358.50000   10.83300    6.80380   79.95400  -56.09800    9.32400   70.61400
  359.00000   11.20500    6.86530   79.25700  -56.01800    9.31300   70.63000
  359.50000   11.53300    7.04350   79.15500  -55.93800    9.30300   70.64500
  360.00000   11.52800    7.22220   79.87700  -55.85800    9.29200   70.66100
  360.50000   11.52800    7.40130   80.60800  -55.77800    9.28200   70.67600
  361.00000   11.52800    7.57900   80.23400  -55.69800    9.27100   70.69200
  361.50000   11.52500    7.36320   79.43500  -55.61800    9.26000   70.70700
  362.00000   11.27900    6.94470   79.25900  -55.53900    9.25000   70.72300
  362.50000   10.86200    6.52730   79.46200  -55.47300    9.23900   70.73900
  363.00000   10.43000    6.11180   80.06800  -54.92000    9.22900   70.75500
  363.50000   10.19500    5.97010   79.77200  -55.38200    9.21800   70.77100
  364.00000    9.95640    5.97200   76.82000  -55.30700    9.20800   70.78800
  364.50000    9.71730    5.97210   73.55900  -55.22900    9.19700   70.80400
  365.00000    9.46410    5.97230   74.34300  -55.15100    9.18600   70.82000
  365.50000    9.87510    6.02860   78.15000  -55.07300    9.17600   70.83600
  366.00000    9.60380    6.49720   81.99500  -54.99500    9.16500   70.85200
