~Version ---------------------------------------------------
VERS.   2.0 : CWLS log ASCII Standard -VERSION 2.0
WRAP.    NO : One line per depth step
DLM . SPACE : Column Data Section Delimiter
~Well ------------------------------------------------------
STRT.F     6.0 : START DEPTH
STOP.F   430.0 : STOP DEPTH
STEP.F     0.5 : STEP
NULL. -9999.25 : NULL VALUE
COMP.          : COMPANY
WELL.          : WELL
FLD .          : FIELD
LOC .          : LOCATION
PROV.          : PROVINCE
CNTY.          : COUNTY
STAT.          : STATE
CTRY.          : COUNTRY
SRVC.          : SERVICE COMPANY
DATE.          : DATE
UWI .          : UNIQUE WELL ID
API .          : API NUMBER
~Curve Information -----------------------------------------
DEPT.F     : 
RILD.      : 
RILM.      : 
GR  .      : 
SP  .      : 
FRES.OHMM  : 
TMP .DEGF  : 
~Params ----------------------------------------------------
~Other -----------------------------------------------------
~ASCII -----------------------------------------------------
# ...
   57.50000   13.61100   10.45200   39.10400 -136.35000   -9999.25   -9999.25
   58.00000   12.34400    8.86670   43.99400 -127.02000   -9999.25   -9999.25
   58.50000   11.07800    7.28410   50.18700 -125.09000   -9999.25   -9999.25
   59.00000    9.85700    6.43320   56.48500 -108.97000   -9999.25   -9999.25
   59.50000    9.20810    5.96330   59.46400  -38.63500   -9999.25   -9999.25
   60.00000    8.46190    5.97150   70.13200   36.49300   -9999.25   -9999.25
   60.50000    8.05560    5.97220   70.68200   37.57400   -9999.25   -9999.25
   61.00000    7.65290    5.99710   67.32400   39.24900   -9999.25   -9999.25
   61.50000    7.75080    6.14430   67.50600   40.44100   -9999.25   -9999.25
   62.00000    7.86910    6.28850   68.16700   40.43500   -9999.25   -9999.25
   62.50000    7.98810    6.43380   70.12300   41.51800   -9999.25   -9999.25
   63.00000    8.10730    6.43670   70.83500   41.19000   -9999.25   -9999.25
   63.50000    8.22290    6.16570   70.09400   41.44600   -9999.25   -9999.25
   64.00000    8.32980    5.89200   67.36500   40.00300   -9999.25   -9999.25
   64.50000    8.43660    5.74360   65.91800   41.05500   -9999.25   -9999.25
   65.00000    8.54350    5.93680   66.87600   40.07400   -9999.25   -9999.25
   65.50000    8.65140    6.12060   67.75000   37.33000   -9999.25   -9999.25
   66.00000    8.77150    6.48220   66.87900   38.54100   -9999.25   -9999.25
   66.50000    9.43120    7.17100   65.55600   41.12600   -9999.25   -9999.25
   67.00000   10.21000    8.06870   60.49600   43.88100   -9999.25   -9999.25
   67.50000   11.24900    9.34550   55.46400   45.59900   -9999.25   -9999.25
   68.00000   12.29500   10.00400   51.82700   45.91000   -9999.25   -9999.25
   68.50000   12.91100    9.46920   52.60200   45.01900   -9999.25   -9999.25
   69.00000   12.91700    8.94080   55.18800   43.78100   -9999.25   -9999.25
   69.50000   12.80600    8.56220   56.80100   41.51800   -9999.25   -9999.25
   70.00000   12.63800    8.28460   56.72200   41.55100   -9999.25   -9999.25
   70.50000   12.46400    8.43650   55.93100   40.80400   -9999.25   -9999.25
   71.00000   12.65900    8.37930   57.91700   39.58200   -9999.25   -9999.25
   71.50000   12.87600    8.93380   60.29600   41.14900   -9999.25   -9999.25
   72.00000   13.18900    9.63050   60.20800   41.46100   -9999.25   -9999.25
   72.50000   14.29200   10.32400   56.64400   41.32700   -9999.25   -9999.25
   73.00000   15.50000   10.98700   56.95000   41.19600   -9999.25   -9999.25
   73.50000   14.96700   10.98400   60.20200   41.06400   -9999.25   -9999.25
   74.00000   14.05500   10.37000   65.77500   41.90000    6.98000   63.08100
   74.50000   13.14300    9.67610   68.80700   43.80300    6.97500   62.92300
   75.00000   12.23400    8.98150   64.60700   48.48200    6.96900   62.90000
   75.50000   11.38400    8.28680   58.18000   52.70600    6.96400   62.90900
   76.00000   10.59700    7.59050   55.77000   52.92300    6.95900   62.91800
   76.50000    9.80860    6.99030   57.32300   53.14100    6.95400   62.92800
   77.00000    9.02010    6.50920   59.48800   53.36600    6.94900   62.93700
   77.50000    8.23560    6.21100   59.31200   53.59400    6.94400   62.94700
   78.00000    8.01870    6.08870   58.02500   53.54000    6.93900   62.95600
   78.50000    8.19430    5.98080   57.26800   52.94700    6.93400   62.96600
   79.00000    8.36770    6.30160   55.69600   52.80100    6.92900   62.97500
   79.50000    8.64810    6.62900   54.33400   53.29700    6.92400   62.98500
   80.00000    9.08460    7.29640   54.85200   53.79800    6.91900   62.99400
   80.50000    9.50630    8.32100   57.52500   54.31000    6.91300   63.00300
   81.00000   10.98800    9.94390   55.94500   55.49700    6.90800   63.01200
   81.50000   12.60700   11.64200   50.43700   56.55400    6.91100   63.02100
   82.00000   13.81500   13.34600   45.02000   56.75200    6.91500   63.03000
   82.50000   14.55200   14.54900   43.78900   56.95900    6.91900   63.03900
   83.00000   15.16400   14.40400   45.57100   56.78200    6.92200   63.04800
   83.50000   15.26500   13.30600   47.55100   56.22900    6.92600   63.05700
   84.00000   15.36600   12.39000   49.06700   55.89700    6.92900   63.06600
   84.50000   15.09000   11.53000   52.49400   55.78400    6.93300   63.07500
   85.00000   14.47500   10.58700   54.15200   55.67100    6.93600   63.08400
   85.50000   13.95700   10.13600   52.58500   55.55800    6.94000   63.09300
   86.00000   13.78800   10.25500   49.11300   55.45000    6.94400   63.06600
   86.50000   14.05000   11.02400   43.06600   55.78600    6.94700   63.02800
   87.00000   15.59200   12.57600   36.34300   56.41500    6.95100   62.98900
   87.50000   17.22800   14.55300   34.68100   57.04200    6.95400   62.95000
   88.00000   20.06700   17.91600   38.88400   56.69500    6.95800   62.91200
   88.50000   24.81600   21.07600   47.21800   56.31600    6.96200   62.87300
   89.00000   26.57700   20.99900   54.33300   55.93500    6.96500   62.83400
   89.50000   27.11400   22.55300   57.99600   55.56100    6.96900   62.79600
   90.00000   27.23400   25.26900   58.31000   55.68000    6.97200   62.75700
   90.50000   29.64600   29.20500   59.51700   54.94700    6.97600   62.71800
   91.00000   32.04000   34.64800   60.10700   56.54100    6.97900   62.68000
   91.50000   33.65800   45.88700   56.30800   56.20500    6.98300   62.64100
   92.00000   34.83400   51.85800   52.20400   56.89800    6.98700   62.60200
   92.50000   35.90100   55.65900   50.93300   58.04600    6.99000   62.58900
   93.00000   35.19900   57.79700   52.13700   59.24000    6.99400   62.58200
   93.50000   37.35700   54.80600   52.37700   59.28300    6.99700   62.57400
   94.00000   40.48800   59.60200   48.92600   58.95800    7.00100   62.56700
   94.50000   43.63700   69.38600   45.06100   58.00900    7.00100   62.55900
   95.00000   44.66000   67.11900   41.69900   58.00700    7.00100   62.55200
   95.50000   45.39000   73.02800   40.69000   58.67300    7.00100   62.54400
   96.00000   45.82900   67.91500   42.89300   59.83600    7.00100   62.53700
   96.50000   44.93500   66.83800   44.82300   60.04800    7.00100   62.52900
   97.00000   45.11400   74.68800   46.31500   60.39300    7.00100   62.52200
   97.50000   46.23400   92.32900   48.61600   60.38800    7.00100   62.52100
   98.00000   46.22800   83.16500   51.34400   60.38800    7.00100   62.52000
   98.50000   46.02400   69.68300   49.38700   60.38800    7.00100   62.51900
   99.00000   48.49600   67.56500   44.69500   60.38800    7.00100   62.51900
   99.50000   51.01900   86.04300   43.59300   60.38800    7.00100   62.51800
  100.00000   51.11800   81.45400   44.69100   60.38800    7.00100   62.51800
  100.50000   48.50000   74.43400   45.05300   60.51600    7.00100   62.51700
  101.00000   48.55700   77.88800   43.86600   60.65400    7.00100   62.51700
  101.50000   48.73800   82.66300   43.42800   60.79200    7.00100   62.51600
  102.00000   46.56800   86.16500   44.72300   60.94100    7.00100   62.51600
  102.50000   44.02400   89.85800   47.21300   60.31700    7.00100   62.51500
  103.00000   42.39200   72.07000   45.90600   59.63200    7.00100   62.51400
  103.50000   44.12900   71.12800   43.31100   59.28100    7.00100   62.51400
  104.00000   45.25800   72.52900   40.37600   59.28000    7.00100   62.51300
  104.50000   45.71900   71.56100   38.91800   59.28000    7.00100   62.51300
  105.00000   48.20000   72.68400   37.40300   59.27500    7.00100   62.51200
  105.50000   48.11700   68.31000   39.86700   59.02700    7.00100   62.51200
  106.00000   46.72000   69.60500   45.18400   58.77400    7.00100   62.51100
  106.50000   46.72400   72.26700   50.29400   58.52200    7.00100   62.51000
  107.00000   47.76200   73.16100   47.76600   58.26900    7.00100   62.51000
  107.50000   48.51200   64.19600   43.30000   58.01600    7.00100   62.50900
  108.00000   46.39400   63.14700   43.16800   57.76300    7.00100   62.50900
  108.50000   44.92400   62.37300   44.35500   57.53900    7.00100   62.50800
