~Version ---------------------------------------------------
VERS.   2.0 : CWLS log ASCII Standard -VERSION 2.0
WRAP.    NO : One line per depth step
DLM . SPACE : Column Data Section Delimiter
~Well ------------------------------------------------------
STRT.F     6.0 : START DEPTH
STOP.F   430.0 : STOP DEPTH
STEP.F     0.5 : STEP
NULL. -9999.25 : NULL VALUE
COMP.          : COMPANY
WELL.          : WELL
FLD .          : FIELD
LOC .          : LOCATION
PROV.          : PROVINCE
CNTY.          : COUNTY
STAT.          : STATE
CTRY.          : COUNTRY
SRVC.          : SERVICE COMPANY
DATE.          : DATE
UWI .          : UNIQUE WELL ID
API .          : API NUMBER
~Curve Information -----------------------------------------
DEPT.F     : 
RILD.      : 
RILM.      : 
GR  .      : 
SP  .      : 
FRES.OHMM  : 
TMP .DEGF  : 
~Params ----------------------------------------------------
~Other -----------------------------------------------------
~ASCII -----------------------------------------------------
    6.00000   62.63900   90.13900   53.38000 -204.99000   -9999.25   -9999.25
    6.50000   67.63900  191.25000   49.77800 -203.99000   -9999.25   -9999.25
    7.00000   68.18800  188.60000   49.77100 -204.32000   -9999.25   -9999.25
    7.50000   68.17300  203.31000   50.03500 -204.22000   -9999.25   -9999.25
    8.00000   70.05100  193.73000   52.19000 -203.95000   -9999.25   -9999.25
    8.50000   70.73400   99.86100   52.16100 -203.68000   -9999.25   -9999.25
    9.00000   70.73000  191.25000   52.79800 -203.41000   -9999.25   -9999.25
    9.50000   70.11100  130.83000   52.89500 -203.48000   -9999.25   -9999.25
   10.00000   68.80800   94.02800   52.50200 -203.71000   -9999.25   -9999.25
   10.50000   67.65300  182.65000   52.55400 -203.88000   -9999.25   -9999.25
   11.00000   70.00500  233.64000   53.51900 -203.88000   -9999.25   -9999.25
   11.50000   74.48200  276.24000   55.94800 -203.88000   -9999.25   -9999.25
   12.00000   74.03700  244.47000   58.33700 -203.88000   -9999.25   -9999.25
   12.50000   72.42200  203.27000   59.57900 -203.83000   -9999.25   -9999.25
   13.00000   69.90700   79.06700   57.13000 -203.39000   -9999.25   -9999.25
   13.50000   65.92600   59.75800   54.61700 -203.26000   -9999.25   -9999.25
   14.00000   64.32400   57.49100   55.25000 -202.97000   -9999.25   -9999.25
   14.50000   65.13100   61.49900   58.93200 -203.06000   -9999.25   -9999.25
   15.00000   65.48700   54.75900   62.95500 -201.32000   -9999.25   -9999.25
   15.50000   66.20400   52.88100   62.85500 -202.07000   -9999.25   -9999.25
   16.00000   65.83800   53.87000   60.31400 -197.70000   -9999.25   -9999.25
   16.50000   64.88000   55.27300   57.84900 -196.61000   -9999.25   -9999.25
   17.00000   63.92800   54.95300   57.31100 -197.20000   -9999.25   -9999.25
   17.50000   62.97700   53.48300   57.69800 -194.53000   -9999.25   -9999.25
   18.00000   62.02600   51.32000   56.57300 -195.20000   -9999.25   -9999.25
   18.50000   61.08300   51.76600   54.51400 -195.93000   -9999.25   -9999.25
   19.00000   61.17100   50.13600   53.79200 -196.12000   -9999.25   -9999.25
   19.50000   61.97800   49.44300   53.79600 -196.29000   -9999.25   -9999.25
   20.00000   62.53700   47.87400   53.93200 -195.55000   -9999.25   -9999.25
   20.50000   63.62300   47.89600   54.44200 -195.26000   -9999.25   -9999.25
   21.00000   63.96400   48.71600   56.38000 -197.23000   -9999.25   -9999.25
   21.50000   63.20100   57.94400   56.67600 -199.19000   -9999.25   -9999.25
   22.00000   61.78900   60.05000   54.17200 -201.76000   -9999.25   -9999.25
   22.50000   60.51700   55.60900   52.07100 -204.44000   -9999.25   -9999.25
   23.00000   61.27600   59.81600   53.46000 -204.47000   -9999.25   -9999.25
   23.50000   61.02900   64.50000   55.82600 -204.52000   -9999.25   -9999.25
   24.00000   61.94400   65.14300   55.86800 -204.57000   -9999.25   -9999.25
   24.50000   62.83700   69.70600   54.32200 -204.62000   -9999.25   -9999.25
   25.00000   63.72500   73.81200   56.37300 -204.66000   -9999.25   -9999.25
   25.50000   64.03100   75.94000   58.86600 -204.71000   -9999.25   -9999.25
   26.00000   64.00900   74.09900   58.27400 -204.76000   -9999.25   -9999.25
   26.50000   65.23400   77.35500   54.60700 -204.81000   -9999.25   -9999.25
   27.00000   64.37600   86.88800   51.08300 -204.86000   -9999.25   -9999.25
   27.50000   63.24600   74.98000   49.74800 -204.91000   -9999.25   -9999.25
   28.00000   63.87800  131.57000   52.21500 -204.96000   -9999.25   -9999.25
   28.50000   64.49800  214.90000   56.56700 -205.01000   -9999.25   -9999.25
   29.00000   65.91600  221.25000   58.55100 -205.06000   -9999.25   -9999.25
   29.50000   67.37500  206.56000   56.50200 -205.11000   -9999.25   -9999.25
   30.00000   68.89200  223.80000   53.25000 -205.16000   -9999.25   -9999.25
   30.50000   67.08900  206.97000   51.54600 -205.21000   -9999.25   -9999.25
   31.00000   65.83900  106.67000   50.61100 -205.25000   -9999.25   -9999.25
   31.50000   66.55400  102.61000   50.58200 -205.30000   -9999.25   -9999.25
   32.00000   67.89900  212.38000   49.21800 -205.35000   -9999.25   -9999.25
   32.50000   69.25600  218.75000   48.38500 -205.40000   -9999.25   -9999.25
   33.00000   68.40900  193.34000   49.54400 -205.45000   -9999.25   -9999.25
   33.50000   66.94600  194.79000   49.88500 -205.50000   -9999.25   -9999.25
   34.00000   64.99800   89.26200   46.36200 -205.52000   -9999.25   -9999.25
   34.50000   63.34800   91.11900   41.45300 -205.39000   -9999.25   -9999.25
   35.00000   62.02500   82.14500   40.36200 -205.26000   -9999.25   -9999.25
   35.50000   62.43000   79.35400   42.14800 -205.14000   -9999.25   -9999.25
   36.00000   64.49200   78.09300   43.35900 -205.02000   -9999.25   -9999.25
   36.50000   63.99700   77.15200   41.03100 -202.10000   -9999.25   -9999.25
   37.00000   64.02100   76.10800   38.82400 -193.96000   -9999.25   -9999.25
   37.50000   64.56000   82.58100   37.76100 -180.80000   -9999.25   -9999.25
   38.00000   63.46700   72.35800   39.50200 -175.19000   -9999.25   -9999.25
   38.50000   62.27600   68.88900   42.86100 -169.67000   -9999.25   -9999.25
   39.00000   61.09200   69.08600   45.04400 -169.80000   -9999.25   -9999.25
   39.50000   60.33400   68.69000   45.56400 -170.21000   -9999.25   -9999.25
   40.00000   59.62900   71.53700   42.98500 -173.18000   -9999.25   -9999.25
   40.50000   57.92800   72.01000   39.73800 -182.93000   -9999.25   -9999.25
   41.00000   54.91100   63.00000   37.86300 -192.27000   -9999.25   -9999.25
   41.50000   52.01600   58.86600   39.39500 -192.38000   -9999.25   -9999.25
   42.00000   51.56100   51.94400   44.62400 -184.44000   -9999.25   -9999.25
   42.50000   52.55100   48.36200   47.81000 -168.90000   -9999.25   -9999.25
   43.00000   53.36000   42.47200   45.78600 -160.65000   -9999.25   -9999.25
   43.50000   47.54800   34.20700   42.59700 -168.51000   -9999.25   -9999.25
   44.00000   39.78900   25.16300   40.26800 -162.98000   -9999.25   -9999.25
   44.50000   34.38500   24.09600   39.80600 -185.69000   -9999.25   -9999.25
   45.00000   33.98600   24.76100   39.24700 -186.98000   -9999.25   -9999.25
   45.50000   32.66500   23.54200   39.82100 -192.68000   -9999.25   -9999.25
   46.00000   31.31100   21.82900   38.65200 -191.47000   -9999.25   -9999.25
   46.50000   30.31800   22.10800   36.79300 -194.52000   -9999.25   -9999.25
   47.00000   29.63900   22.09800   37.11400 -196.98000   -9999.25   -9999.25
   47.50000   28.93000   20.45200   38.32000 -194.42000   -9999.25   -9999.25
   48.00000   28.06200   19.05500   37.69400 -191.29000   -9999.25   -9999.25
   48.50000   27.28100   18.18400   37.31000 -191.39000   -9999.25   -9999.25
   49.00000   25.90100   16.56800   39.00700 -203.12000   -9999.25   -9999.25
   49.50000   23.61900   14.89300   45.93500 -204.56000   -9999.25   -9999.25
   50.00000   21.67100   14.39700   53.15200 -204.71000   -9999.25   -9999.25
   50.50000   21.02300   14.15400   55.87500 -204.87000   -9999.25   -9999.25
   51.00000   20.37600   13.73800   56.69000 -204.95000   -9999.25   -9999.25
   51.50000   19.72700   13.15600   55.53900 -204.78000   -9999.25   -9999.25
   52.00000   19.07800   12.62600   54.73200 -204.64000   -9999.25   -9999.25
   52.50000   18.46300   12.37000   54.63700 -204.23000   -9999.25   -9999.25
   53.00000   18.09600   12.59400   54.52700 -175.81000   -9999.25   -9999.25
   53.50000   17.74500   12.82900   52.36500 -103.23000   -9999.25   -9999.25
   54.00000   17.75500   12.94800   49.52100   16.64400   -9999.25   -9999.25
   54.50000   17.92500   13.14400   46.72400   35.13400   -9999.25   -9999.25
   55.00000   18.09600   13.58200   43.11100   38.72800   -9999.25   -9999.25
   55.50000   17.95700   14.02500   38.24300   35.61200   -9999.25   -9999.25
   56.00000   17.36500   14.09000   34.22300   28.72800   -9999.25   -9999.25
   56.50000   16.14400   13.48800   35.18200  -10.42600   -9999.25   -9999.25
   57.00000   14.87800   12.10000   36.34800  -94.78600   -9999.25   -9999.25
