~Version ---------------------------------------------------
VERS.   2.0 : CWLS log ASCII Standard -VERSION 2.0
WRAP.    NO : One line per depth step
DLM . SPACE : Column Data Section Delimiter
~Well ------------------------------------------------------
STRT.F     6.0 : START DEPTH
STOP.F   430.0 : STOP DEPTH
STEP.F     0.5 : STEP
NULL. -9999.25 : NULL VALUE
COMP.          : COMPANY
WELL.          : WELL
FLD .          : FIELD
LOC .          : LOCATION
PROV.          : PROVINCE
CNTY.          : COUNTY
STAT.          : STATE
CTRY.          : COUNTRY
SRVC.          : SERVICE COMPANY
DATE.          : DATE
UWI .          : UNIQUE WELL ID
API .          : API NUMBER
~Curve Information -----------------------------------------
DEPT.F     : 
RILD.      : 
RILM.      : 
GR  .      : 
SP  .      : 
FRES.OHMM  : 
TMP .DEGF  : 
~Params ----------------------------------------------------
~Other -----------------------------------------------------
~ASCII -----------------------------------------------------
# ...
  263.50000   23.77900   15.92800   57.62000  -65.89500   12.79300   67.83200
  264.00000   29.61300   17.01000   54.00000  -65.65100   12.79100   67.83800
  264.50000   31.89700   17.21200   52.26000  -65.40600   12.78900   67.84400
  265.00000   32.09700   16.97500   53.94300  -65.21000   12.78700   67.85000
  265.50000   31.18700   16.80000   55.83800  -65.02200   12.78500   67.85600
  266.00000   30.12300   17.06900   56.04000  -64.82700   12.78400   67.86200
  266.50000   29.64400   15.99500   56.98300  -64.86800   12.78200   67.86800
  267.00000   30.23900   15.98300   58.88800  -64.91900   12.78000   67.87400
  267.50000   30.82000   15.10100   60.57800  -64.97000   12.77800   67.88000
  268.00000   30.88500   14.00900   61.71000  -65.02200   12.77600   67.88600
  268.50000   30.76200   12.92500   61.06100  -65.07300   12.77400   67.89200
  269.00000   29.61900   12.25400   58.67000  -65.12400   12.77200   67.89900
  269.50000   27.33800   11.59200   57.53700  -65.17600   12.77000   67.91200
  270.00000   23.59500   10.99800   59.97800  -65.22700   12.76800   67.92500
  270.50000   22.71900   11.69000   61.39700  -65.27800   12.76600   67.93900
  271.00000   24.05900   12.36100   61.20700  -65.32900   12.76400   67.95200
  271.50000   26.79200   13.03200   60.02600  -65.36800   12.76200   67.96500
  272.00000   29.42200   13.72600   58.84700  -65.31200   12.76000   67.97900
  272.50000   30.05500   13.66400   56.62000  -65.25700   12.75800   67.99200
  273.00000   28.24300   13.57400   56.27300  -65.20200   12.75600   68.00500
  273.50000   26.01100   13.46900   55.99700  -65.14700   12.75400   68.01900
  274.00000   26.68000   14.30000   55.04000  -65.09200   12.75200   68.03200
  274.50000   27.95900   15.25600   53.87500  -65.03800   12.75000   68.04500
  275.00000   29.34200   16.20800   52.14900  -64.98300   12.74800   68.05900
  275.50000   30.56100   16.33500   51.11400  -64.92800   12.74600   68.07200
  276.00000   30.34100   16.03200   50.36000  -64.87300   12.74400   68.08500
  276.50000   31.09400   15.73500   49.64400  -64.81800   12.74200   68.09900
  277.00000   32.87200   15.42300   46.62500  -64.76400   12.74000   68.11200
  277.50000   33.16800   14.49000   45.32300  -64.70900   12.73800   68.12500
  278.00000   30.87900   13.49900   46.27300  -64.65400   12.73300   68.13900
  278.50000   28.57400   12.65000   47.87500  -64.59900   12.72900   68.15200
  279.00000   27.64400   12.87400   47.29500  -64.54400   12.72400   68.16600
  279.50000   26.72300   13.08300   45.32500  -64.48900   12.72000   68.17900
  280.00000   26.23600   13.48100   44.92200  -64.43500   12.71600   68.19300
  280.50000   28.28600   14.08700   44.51200  -64.38000   12.71100   68.20600
  281.00000   30.46900   14.70200   43.44800  -64.32500   12.70700   68.22000
  281.50000   32.23200   14.58600   44.30600  -64.27000   12.70200   68.23400
  282.00000   30.42200   11.91200   46.60800  -64.21500   12.69800   68.24700
  282.50000   28.06500   10.49300   50.23400  -64.16000   12.69300   68.26100
  283.00000   33.56900   12.16500   53.65200  -64.10600   12.68900   68.27500
  283.50000   34.42900   10.69300   56.61000  -64.05100   12.68400   68.28800
  284.00000   25.98500    7.95940   58.10600  -63.99600   12.68000   68.30200
  284.50000   20.74600    7.40130   59.16000  -63.94100   12.67500   68.31600
  285.00000   22.08500    9.82670   59.79800  -63.88600   12.67100   68.32900
  285.50000   23.63500   10.89800   60.03000  -63.83100   12.66700   68.34300
  286.00000   22.46800    7.98800   53.60000  -63.77700   12.66200   68.35700
  286.50000   24.29000   10.03100   49.07400  -63.72200   12.65800   68.37000
  287.00000   30.75200   13.17200   49.04900  -63.56300   12.65300   68.38400
  287.50000   31.99100   11.60500   54.09800  -63.38100   12.64900   68.39800
  288.00000   23.91100    8.84830   51.83400  -63.19800   12.64100   68.41100
  288.50000   22.46400   11.18000   45.42400  -63.15700   12.63000   68.42500
  289.00000   29.82800   15.17100   45.20300  -63.11800   12.61800   68.43900
  289.50000   36.36000   16.08500   47.97800  -63.04900   12.60700   68.45200
  290.00000   35.93900   14.78800   49.62200  -62.97900   12.59500   68.46600
  290.50000   32.43700   16.11700   48.16200  -62.91000   12.58400   68.48000
  291.00000   31.75800   16.80600   45.97100  -62.84100   12.57200   68.49300
  291.50000   31.05800   16.44100   45.07100  -62.77200   12.56000   68.50700
  292.00000   32.90900   15.15000   46.03200  -62.70000   12.54900   68.52100
  292.50000   41.15100   15.90100   45.85400  -62.60700   12.53700   68.53400
  293.00000   46.47100   13.90800   45.16500  -62.14900   12.52600   68.54800
  293.50000   35.65800    9.99310   45.92600  -62.53900   12.51400   68.56200
  294.00000   25.83600    8.08940   46.84500  -62.47100   12.50300   68.57500
  294.50000   24.59800    9.27730   51.20800  -62.39200   12.49100   68.58900
  295.00000   27.25200    9.30100   55.62300  -62.31100   12.47900   68.60300
  295.50000   30.79500   10.02700   55.58700  -62.23000   12.46800   68.61600
  296.00000   34.36400   10.25100   53.05700  -62.14800   12.45600   68.63000
  296.50000   34.75000    8.77910   51.03500  -62.06600   12.44500   68.64400
  297.00000   31.50200    8.75350   50.64500  -62.15500   12.43300   68.65700
  297.50000   28.29000    8.44880   52.38800  -62.29100   12.42200   68.67100
  298.00000   24.97300    7.01410   57.39400  -62.42700   12.41000   68.68400
  298.50000   25.05600    7.30600   62.02100  -62.56200   12.39800   68.69800
  299.00000   26.60600    9.22110   62.03900  -62.69800   12.38700   68.71200
  299.50000   24.68100    8.83160   58.73400  -62.83400   12.37500   68.72500
  300.00000   19.50100    7.91730   53.54900  -62.96900   12.36400   68.73900
  300.50000   20.28000   11.08600   48.40800  -63.10200   12.35200   68.75300
  301.00000   32.04300   15.98000   44.35200  -62.93800   12.33700   68.76600
  301.50000   41.17700   16.79900   42.99800  -62.57300   12.32000   68.78000
  302.00000   40.69600   17.29100   42.11100  -62.20900   12.30300   68.79400
  302.50000   41.33100   18.72100   44.73200  -61.84500   12.28600   68.80700
  303.00000   44.37900   19.14300   46.26900  -61.48200   12.26900   68.82100
  303.50000   47.84900   18.86700   46.45600  -61.12000   12.25200   68.83500
  304.00000   47.55400   19.24800   46.69400  -60.85800   12.23500   68.84800
  304.50000   42.89900   20.07600   46.21600  -60.69800   12.21800   68.86200
  305.00000   39.87800   19.46100   43.96200  -60.53700   12.20100   68.87600
  305.50000   45.77800   15.54900   43.33900  -60.41200   12.18300   68.88900
  306.00000   57.48800   17.72500   46.93300  -60.73300   12.16600   68.90300
  306.50000   51.53500   14.26200   52.47300  -61.05500   12.14900   68.91700
  307.00000   29.09700    5.87200   56.97400  -61.37600   12.13200   68.93000
  307.50000   12.10500    4.20040   59.39400  -61.49700   12.11500   68.94300
  308.00000    9.97590    5.99550   58.00600  -61.49600   12.09800   68.95500
  308.50000   16.75200    8.32200   56.19900  -61.49600   12.08100   68.96700
  309.00000   22.59700    9.96680   55.24300  -61.49500   12.06400   68.97900
  309.50000   19.41500    8.72840   59.01500  -61.49900   12.04700   68.99100
  310.00000   14.16100    6.28550   63.64400  -62.27300   12.02900   69.00200
  310.50000   13.74900    8.34530   66.35900  -62.06300   12.01100   69.01400
  311.00000   19.65400   11.51800   64.93500  -62.00100   11.99300   69.02600
  311.50000   27.23000   11.61700   65.07600  -61.92600   11.97500   69.03800
  312.00000   27.44200   11.70000   66.84700  -61.85400   11.95700   69.05000
  312.50000   27.53400   11.78300   67.61500  -61.78300   11.93900   69.06200
  313.00000   27.61600   11.86700   67.28500  -61.71100   11.92000   69.07400
  313.50000   28.32400   11.95000   67.03000  -61.63900   11.90200   69.08600
  314.00000   29.18600   12.03100   69.31400  -61.56500   11.88400   69.09800
  314.50000   31.03900   12.68000   71.74700  -61.45800   11.86600   69.11000
