~Version ---------------------------------------------------
VERS.   2.0 : CWLS log ASCII Standard -VERSION 2.0
WRAP.    NO : One line per depth step
DLM . SPACE : Column Data Section Delimiter
~Well ------------------------------------------------------
STRT.F     6.0 : START DEPTH
STOP.F   430.0 : STOP DEPTH
STEP.F     0.5 : STEP
NULL. -9999.25 : NULL VALUE
COMP.          : COMPANY
WELL.          : WELL
FLD .          : FIELD
LOC .          : LOCATION
PROV.          : PROVINCE
CNTY.          : COUNTY
STAT.          : STATE
CTRY.          : COUNTRY
SRVC.          : SERVICE COMPANY
DATE.          : DATE
UWI .          : UNIQUE WELL ID
API .          : API NUMBER
~Curve Information -----------------------------------------
DEPT.F     : 
RILD.      : 
RILM.      : 
GR  .      : 
SP  .      : 
FRES.OHMM  : 
TMP .DEGF  : 
~Params ----------------------------------------------------
~Other -----------------------------------------------------
~ASCII -----------------------------------------------------
# ...
  160.50000   35.36200   29.72700   96.54500   59.00300    6.94600   62.76300
  161.00000   36.22700   32.67200   97.47000   58.65700    6.94300   62.77000
  161.50000   35.66000   31.24800   96.09100   58.31300    6.93900   62.77700
  162.00000   35.19300   31.66900   89.86300   58.30900    6.93600   62.78400
  162.50000   36.70000   34.49700   85.62100   58.54100    6.93300   62.79100
  163.00000   36.91100   33.22500   82.45600   58.70400    6.93000   62.79800
  163.50000   36.60900   31.83000   79.23100   58.56000    6.92700   62.80400
  164.00000   35.81900   28.44400   75.65400   58.42100    6.92400   62.81100
  164.50000   35.08700   25.92600   73.82300   58.28200    6.92100   62.81800
  165.00000   35.84900   26.30100   71.48000   58.08100    6.91700   62.82500
  165.50000   35.31400   24.99400   69.77500   57.55400    6.91400   62.83200
  166.00000   34.87300   25.36600   71.38100   57.11100    6.91100   62.83900
  166.50000   35.17900   25.06000   73.82200   57.40200    6.90800   62.84600
  167.00000   35.63000   25.19100   74.80300   57.05700    6.90500   62.85300
  167.50000   36.86000   26.30400   76.32100   56.71900    6.90200   62.85900
  168.00000   36.50800   27.13300   76.15200   56.38200    6.89900   62.86600
  168.50000   35.07200   24.72000   74.24800   56.04500    6.89500   62.87300
  169.00000   33.32400   26.14200   72.02200   55.87000    6.89200   62.88000
  169.50000   31.24700   28.04000   73.42300   55.75500    6.88900   62.88700
  170.00000   29.61200   25.07300   73.12900   55.63900    6.88600   62.89400
  170.50000   28.86700   25.90200   69.52600   55.52300    6.88300   62.90100
  171.00000   28.96900   26.60800   63.52100   55.40700    6.88000   62.90800
  171.50000   30.01700   27.12300   60.91900   55.29100    6.87700   62.91400
  172.00000   29.87400   27.63600   63.11600   55.17500    6.87300   62.92100
  172.50000   30.57700   24.32800   66.93700   55.05900    6.87000   62.92800
  173.00000   30.45200   24.94100   69.67000   54.94300    6.86700   62.93500
  173.50000   29.04300   27.22700   70.15300   54.72300    6.86400   62.94200
  174.00000   29.29900   25.81600   67.27800   54.54900    6.86100   62.94900
  174.50000   30.71100   26.71700   63.11300   55.04200    6.85800   62.95600
  175.00000   32.96000   26.66800   60.07800   55.40300    6.85500   62.96300
  175.50000   34.30300   26.20800   60.86400   55.40200    6.85100   62.97100
  176.00000   33.58500   26.77400   62.38600   55.40100    6.84800   62.98200
  176.50000   31.44100   23.95700   63.00500   55.50000    6.84500   62.99200
  177.00000   29.28700   20.94600   63.94200   55.96700    6.84200   63.00300
  177.50000   27.13400   17.68800   67.06500   56.43200    6.83900   63.01300
  178.00000   25.35200   15.25000   71.38100   57.16500    6.83600   63.02400
  178.50000   24.93200   13.17400   74.46900   57.95000    6.83400   63.03400
  179.00000   23.22800   12.02200   75.48300   58.17500    6.83400   63.04500
  179.50000   21.52800   10.62000   74.67800   58.17200    6.83400   63.05500
  180.00000   19.83600   10.41200   74.57100   58.16700    6.83400   63.06600
  180.50000   19.33100   11.24600   74.45700   56.88000    6.83400   63.07600
  181.00000   19.89600   12.50000   72.31900   55.44600    6.83400   63.08700
  181.50000   20.98600   13.76200   66.66700   54.56100    6.83400   63.09700
  182.00000   22.44600   15.53800   60.49200   53.65500    6.83400   63.10800
  182.50000   25.13200   17.79300   59.80600   52.74400    6.83400   63.11800
  183.00000   27.22100   19.88500   63.05400   52.47700    6.83400   63.12800
  183.50000   29.17900   20.85900   64.26900   51.99900    6.83400   63.13900
  184.00000   30.56900   21.79200   60.38700   51.40500    6.83400   63.14900
  184.50000   32.08800   22.72600   55.49300   50.81400    6.83400   63.16000
  185.00000   31.92800   23.36100   56.23300   50.09400    6.83400   63.17000
  185.50000   30.99500   22.64100   58.71400   49.13800    6.83400   63.18100
  186.00000   30.42200   21.94400   58.81300   48.17800    6.83400   63.19100
  186.50000   30.69500   21.24700   54.62400   47.21900    6.83400   63.20200
  187.00000   29.93500   20.41500   51.73400   46.26100    6.84900   63.21200
  187.50000   28.89200   19.56000   54.75700   45.41500    6.87400   63.22300
  188.00000   28.30700   18.03000   58.71700   45.42800    6.89900   63.25500
  188.50000   28.65000   17.10400   61.52300   45.42900    6.92400   63.29400
  189.00000   29.25000   17.23300   65.74900   45.43200    6.94900   63.33200
  189.50000   27.71300   17.28000   70.53100   45.43600    6.97500   63.37100
  190.00000   26.47600   16.58400   72.99800   44.10000    7.00000   63.40900
  190.50000   25.40900   16.81100   73.52600   43.54800    7.02500   63.44800
  191.00000   25.44200   16.62000   71.67100   44.36100    7.05000   63.48600
  191.50000   25.87300   15.98500   66.73800   44.66400    7.07500   63.52500
  192.00000   25.49200   15.97300   58.51700   44.95900    7.49500   63.56400
  192.50000   25.14100   15.97200   52.50900   45.25600    8.17400   63.64700
  193.00000   25.48700   16.07900   51.48300   44.74600    8.85300   63.75400
  193.50000   26.94400   16.70600   55.36200   43.02700    9.45400   63.86100
  194.00000   28.77000   18.06200   55.79600   41.30000    9.74300   63.96800
  194.50000   30.34700   18.95500   51.89500   39.57400    9.96700   64.05100
  195.00000   31.58400   19.33600   47.34100   37.84900   10.11600   64.08400
  195.50000   32.81600   20.29600   48.99700   35.87900   10.26500   64.11700
  196.00000   33.08300   21.21800   53.00900   33.18000   10.41400   64.15000
  196.50000   32.27600   21.18700   56.39200   30.48500   10.52000   64.18300
  197.00000   31.45700   20.66100   56.10100   27.79200   10.75000   64.21600
  197.50000   31.39700   20.15900   55.36100   25.10600   11.00300   64.24800
  198.00000   32.43300   20.62400   52.58700   22.03800   11.25500   64.28100
  198.50000   33.47700   20.81100   49.77500   18.65800   11.64000   64.31400
  199.00000   32.99200   20.16200   49.98600   15.48700   11.98600   64.34700
  199.50000   30.14600   19.40800   52.03800   12.96700   12.23500   64.38000
  200.00000   27.97200   18.29900   51.23900    9.38350   12.43000   64.41300
  200.50000   27.38200   17.51900   47.36900    5.01080   12.56400   64.44500
  201.00000   27.71300   17.27600   46.99100    1.00740   12.87800   64.47800
  201.50000   27.35100   16.56600   47.41800   -2.98930   13.23600   64.51100
  202.00000   25.93400   15.77300   45.32900   -6.98900   13.59500   64.54400
  202.50000   25.84700   15.09700   43.47800  -11.03000   13.95300   64.57700
  203.00000   25.83100   14.76600   43.47900  -13.41000   14.31200   64.61000
  203.50000   25.05100   14.43600   44.74700  -15.32400   14.67000   64.64200
  204.00000   24.18500   14.04300   46.72700  -16.67900   15.01400   64.67500
  204.50000   22.99800   13.60400   49.27700  -18.03400   15.14800   64.70800
  205.00000   22.07700   13.20500   49.82900  -19.38700   15.28300   64.74100
  205.50000   21.47000   13.42000   49.81800  -20.56000   15.48500   64.77400
  206.00000   20.86200   12.93400   50.37700  -21.72900   15.68800   64.80600
  206.50000   20.20800   12.19100   50.24200  -22.89800   15.87700   64.83900
  207.00000   19.44100   11.45100   48.45400  -24.06700   15.86900   64.87200
  207.50000   18.64600   10.71200   46.71000  -25.23600   15.82900   64.90500
  208.00000   17.77900   10.17200   47.52900  -26.40600   15.84900   64.93800
  208.50000   17.15400    9.76620   49.65300  -27.57400   15.98900   64.96400
  209.00000   16.62600    9.35980   51.76800  -28.92500   16.12800   64.98800
  209.50000   15.78800    8.95320   52.47900  -30.52500   16.22700   65.01400
  210.00000   14.86100    8.54690   52.26700  -32.12600   16.21500   65.04000
  210.50000   13.93000    8.17160   51.08200  -33.72400   16.20400   65.06600
  211.00000   12.94800    8.03670   49.17300  -35.27900   16.19200   65.09200
  211.50000   12.56500    7.89810   47.09400  -37.79600   16.18000   65.11800
