~Version ---------------------------------------------------
VERS.   2.0 : CWLS log ASCII Standard -VERSION 2.0
WRAP.    NO : One line per depth step
DLM . SPACE : Column Data Section Delimiter
~Well ------------------------------------------------------
STRT.F     6.0 : START DEPTH
STOP.F   430.0 : STOP DEPTH
STEP.F     0.5 : STEP
NULL. -9999.25 : NULL VALUE
COMP.          : COMPANY
WELL.          : WELL
FLD .          : FIELD
LOC .          : LOCATION
PROV.          : PROVINCE
CNTY.          : COUNTY
STAT.          : STATE
CTRY.          : COUNTRY
SRVC.          : SERVICE COMPANY
DATE.          : DATE
UWI .          : UNIQUE WELL ID
API .          : API NUMBER
~Curve Information -----------------------------------------
DEPT.F     : 
RILD.      : 
RILM.      : 
GR  .      : 
SP  .      : 
FRES.OHMM  : 
TMP .DEGF  : 
~Params ----------------------------------------------------
~Other -----------------------------------------------------
~ASCII -----------------------------------------------------
# ...
  109.00000   48.03600   61.41900   44.29500   57.35000    7.00100   62.50800
  109.50000   49.92200   66.64500   43.73600   57.16200    7.00100   62.50700
  110.00000   50.03900   69.45300   42.88700   56.97400    7.00100   62.50700
  110.50000   47.11600   67.42900   43.95000   56.78600    7.00100   62.50600
  111.00000   44.83600   67.64200   44.51100   56.59900    7.00100   62.50500
  111.50000   44.73200   63.53600   44.61800   56.59800    7.00100   62.50500
  112.00000   44.06300   59.42900   44.18100   56.76400    7.00100   62.50400
  112.50000   41.13100   57.97100   45.20500   56.93100    7.00100   62.50400
  113.00000   38.70100   59.89700   46.12500   57.18800    7.00100   62.50300
  113.50000   36.97100   52.96200   44.70300   57.33400    7.00100   62.50300
  114.00000   35.42200   48.29500   43.31100   56.96500    7.00100   62.50200
  114.50000   35.63100   49.01100   41.89700   56.80200    7.00100   62.50300
  115.00000   36.84400   50.31500   42.71500   56.63900    7.00100   62.50400
  115.50000   38.31400   50.96300   45.29500   56.47500    7.00100   62.50500
  116.00000   40.01600   52.16000   47.19400   56.31200    7.00100   62.50500
  116.50000   41.18100   49.64900   47.21600   56.14900    7.00100   62.50600
  117.00000   40.89600   52.17600   48.17300   55.98500    7.00100   62.50700
  117.50000   40.61200   51.53300   50.12300   55.82200    7.00100   62.50800
  118.00000   40.33100   48.46200   48.88900   55.65800    7.00100   62.50900
  118.50000   40.05800   49.77000   44.60300   55.49500    7.00100   62.51000
  119.00000   39.16100   48.27800   40.58300   55.33200    7.00100   62.51100
  119.50000   37.06700   47.74700   39.94500   55.16800    7.00100   62.51200
  120.00000   36.44500   46.48100   41.57300   55.00500    7.00000   62.51300
  120.50000   36.02700   48.00200   43.19600   54.84100    7.00000   62.51400
  121.00000   35.61100   51.17300   44.22500   54.67800    7.00000   62.51500
  121.50000   35.19400   47.31000   46.07000   54.51500    7.00000   62.51600
  122.00000   34.79800   43.44100   47.05900   54.35100    6.99900   62.51700
  122.50000   35.15400   45.32400   47.81900   54.18800    6.99900   62.51800
  123.00000   35.94200   46.45100   45.30300   54.02400    6.99900   62.51800
  123.50000   35.14200   46.86500   43.36500   53.86100    6.99800   62.51900
  124.00000   34.48600   46.45300   41.44600   53.69800    6.99800   62.52000
  124.50000   33.81500   45.53600   41.45500   53.53400    6.99800   62.52100
  125.00000   34.65800   44.62400   42.17300   53.37100    6.99800   62.52200
  125.50000   35.34100   44.31600   43.39600   53.20900    6.99700   62.52300
  126.00000   35.03800   42.15900   42.10300   52.99900    6.99700   62.52400
  126.50000   35.05600   42.97800   41.55100   52.78300    6.99700   62.52500
  127.00000   35.79100   43.05400   43.81800   52.56700    6.99700   62.52600
  127.50000   36.50100   42.82100   48.24700   52.35200    6.99600   62.52700
  128.00000   36.03900   42.10700   49.85500   52.13600    6.99600   62.52800
  128.50000   37.44600   42.52100   49.79300   51.92000    6.99600   62.52900
  129.00000   36.62700   41.45800   50.88800   51.70500    6.99600   62.53000
  129.50000   34.39700   40.39500   51.83500   51.48900    6.99500   62.53100
  130.00000   32.74200   39.60800   51.29200   51.27300    6.99500   62.53100
  130.50000   32.22700   40.10200   50.91800   51.06000    6.99500   62.53200
  131.00000   33.12700   38.75000   52.32000   51.13100    6.99500   62.53300
  131.50000   32.41600   37.39500   54.15900   51.40700    6.99400   62.53400
  132.00000   32.18000   37.73500   54.98700   51.68200    6.99400   62.53500
  132.50000   32.28000   36.85400   52.68200   51.95900    6.99400   62.53600
  133.00000   31.58000   36.58500   46.96300   52.44500    6.99300   62.53700
  133.50000   31.38800   35.51900   41.03500   53.09600    6.99300   62.53800
  134.00000   31.65100   34.62300   38.83600   53.73000    6.99300   62.53900
  134.50000   31.47200   36.54400   40.74000   53.76700    6.99300   62.54000
  135.00000   31.12300   38.45800   45.03900   53.79600    6.99200   62.54100
  135.50000   32.78300   35.42500   47.93600   53.82400    6.99200   62.54200
  136.00000   31.56900   35.89700   48.35600   53.85100    6.99200   62.54300
  136.50000   31.57200   36.60900   46.37500   53.87900    6.99200   62.54400
  137.00000   32.70200   34.85700   45.20400   53.90700    6.99100   62.54400
  137.50000   32.41600   34.28200   46.39200   53.93500    6.99100   62.54500
  138.00000   32.77300   32.20600   47.63100   53.96300    6.99100   62.54600
  138.50000   34.21200   32.12000   48.13100   53.99100    6.99100   62.54700
  139.00000   32.74800   32.50700   47.85700   54.01800    6.99000   62.54800
  139.50000   30.21100   30.91300   49.51700   54.04600    6.99000   62.54900
  140.00000   27.93100   28.30000   51.59600   54.07400    6.99000   62.55000
  140.50000   26.52400   25.69200   53.65100   54.10200    6.99000   62.55100
  141.00000   25.09900   24.09200   56.34000   54.13000    6.98900   62.55200
  141.50000   25.02200   25.17700   59.09900   54.15800    6.98900   62.55300
  142.00000   25.22300   26.48700   58.67800   54.18600    6.98900   62.55400
  142.50000   25.42600   25.44700   57.24400   54.21300    6.98800   62.55500
  143.00000   25.62700   25.90300   57.87900   54.24100    6.98800   62.55600
  143.50000   25.39800   25.06100   60.35100   54.26900    6.98800   62.55700
  144.00000   24.93600   24.31400   63.86500   54.32300    6.98800   62.55700
  144.50000   25.05300   26.51300   66.38900   54.58600    6.98700   62.56000
  145.00000   25.29400   26.82000   70.00700   54.84300    6.98700   62.56500
  145.50000   25.53500   26.91000   72.07100   54.88000    6.98700   62.56900
  146.00000   25.65800   26.99800   69.31500   54.91200    6.98700   62.57400
  146.50000   25.54700   27.12100   60.96100   54.94500    6.98600   62.57800
  147.00000   25.42200   29.14800   54.34400   54.97700    6.98600   62.58300
  147.50000   26.57900   29.03000   52.23900   55.00900    6.98600   62.58800
  148.00000   28.34300   27.59500   56.04700   55.04200    6.98600   62.59200
  148.50000   30.41800   27.35700   60.31000   55.07400    6.98500   62.59800
  149.00000   31.94000   27.36300   62.98600   55.10600    6.98500   62.60500
  149.50000   30.91300   27.36700   63.27500   55.13900    6.98500   62.61200
  150.00000   29.89400   26.07800   65.24500   55.17100    6.98400   62.61900
  150.50000   29.69900   24.33600   70.47000   55.20300    6.98400   62.62500
  151.00000   29.66000   24.10100   75.36300   55.23600    6.98400   62.63200
  151.50000   29.84400   24.94300   79.06600   55.26800    6.98400   62.63900
  152.00000   28.81600   23.45600   82.91400   55.30000    6.98300   62.64600
  152.50000   28.24500   23.78700   86.98800   55.33300    6.98300   62.65300
  153.00000   28.34700   23.53800   85.93000   55.36400    6.98300   62.66000
  153.50000   28.44500   23.12900   84.55900   55.38800    6.98300   62.66700
  154.00000   29.27600   23.99300   84.47100   56.00200    6.98200   62.67400
  154.50000   29.58100   23.12800   86.16500   56.69400    6.98200   62.68100
  155.00000   29.65100   22.41000   86.43200   57.06200    6.98000   62.68700
  155.50000   29.52800   22.15400   84.42900   57.06400    6.97700   62.69400
  156.00000   29.09800   20.59200   82.11400   57.06300    6.97400   62.70100
  156.50000   29.17400   21.42100   76.78400   57.27200    6.97100   62.70800
  157.00000   29.65500   22.61200   75.87700   57.78500    6.96800   62.71500
  157.50000   30.69500   22.38100   76.51200   58.28200    6.96500   62.72200
  158.00000   32.78400   23.13700   82.00200   58.78100    6.96100   62.72900
  158.50000   34.86100   23.34200   85.55200   59.27000    6.95800   62.73600
  159.00000   36.77300   23.66000   87.68100   59.27900    6.95500   62.74200
  159.50000   36.06300   25.41700   89.67000   59.28000    6.95200   62.74900
  160.00000   35.39300   27.12700   92.13900   59.28300    6.94900   62.75600
