~Version ---------------------------------------------------
VERS.   2.0 : CWLS log ASCII Standard -VERSION 2.0
WRAP.    NO : One line per depth step
DLM . SPACE : Column Data Section Delimiter
~Well ------------------------------------------------------
STRT.F     2.0 : START DEPTH
STOP.F   342.0 : STOP DEPTH
STEP.F     0.5 : STEP
NULL. -9999.25 : NULL VALUE
COMP.          : COMPANY
WELL.          : WELL
FLD .          : FIELD
LOC .          : LOCATION
PROV.          : PROVINCE
CNTY.          : COUNTY
STAT.          : STATE
CTRY.          : COUNTRY
SRVC.          : SERVICE COMPANY
DATE.          : DATE
UWI .          : UNIQUE WELL ID
API .          : API NUMBER
~Curve Information -----------------------------------------
DEPT.F     : 
RILD.      : 
RILM.      : 
GR  .      : 
SP  .      : 
FRES.OHMM  : 
TMP .DEGF  : 
~Params ----------------------------------------------------
~Other -----------------------------------------------------
~ASCII -----------------------------------------------------
# ...
  156.50000   50.47200   40.66500   71.21600   23.73400    6.60500   59.49300
  157.00000   49.33000   39.78800   72.18100   23.90700    6.60500   59.49300
  157.50000   48.75200   38.91000   69.35200   23.65600    6.60500   59.49300
  158.00000   47.71500   38.10100   65.90800   23.40400    6.60500   59.49300
  158.50000   46.58400   38.36500   66.30600   23.16600    6.60500   59.49400
  159.00000   45.27300   38.63400   67.98800   23.63900    6.60400   59.49400
  159.50000   45.51200   38.96000   67.47000   23.99300    6.60400   59.49400
  160.00000   46.51300   39.75100   65.31200   23.99200    6.60400   59.49400
  160.50000   48.78600   40.31100   65.71800   23.99200    6.60400   59.49400
  161.00000   51.01100   40.30800   66.74300   23.99200    6.60400   59.49400
  161.50000   51.43300   40.86000   65.01600   23.99200    6.60300   59.49400
  162.00000   51.58300   42.09700   61.37700   23.98900    6.60300   59.49300
  162.50000   51.42400   44.44600   58.19600   23.49900    6.60300   59.49300
  163.00000   52.27100   46.75000   56.92100   23.18200    6.60300   59.49300
  163.50000   53.52400   49.04800   55.59300   23.27100    6.60200   59.49200
  164.00000   54.81800   51.19200   55.21100   23.36100    6.60200   59.49200
  164.50000   56.10900   53.13700   57.32400   23.45200    6.60200   59.49200
  165.00000   57.39900   54.63100   57.13800   23.54100    6.60200   59.49100
  165.50000   58.67000   55.22100   56.72200   23.33100    6.60200   59.49100
  166.00000   61.01800   57.06200   56.24800   22.96600    6.60100   59.49100
  166.50000   64.21800   60.26500   55.60600   22.60100    6.60100   59.49000
  167.00000   69.30000   63.52600   57.67400   22.21300    6.60100   59.49000
  167.50000   74.47500   68.00500   59.31200   21.65400    6.60100   59.49000
  168.00000   74.30600   72.94400   63.94900   21.10500    6.60100   59.48900
  168.50000   69.90000   78.91700   66.90000   20.61100    6.60000   59.48900
  169.00000   63.07400   81.80200   68.12000   20.52800    6.60000   59.48900
  169.50000   58.01300   81.02000   63.12600   20.43800    6.60000   59.48800
  170.00000   57.60400   89.66000   60.52200   20.34800    6.60000   59.48800
  170.50000   60.06300  112.14000   64.66400   20.25800    6.60000   59.48800
  171.00000   62.44500  101.00000   71.22700   20.18200    6.59900   59.48700
  171.50000   63.94500   89.38200   74.54500   20.12100    6.59900   59.48700
  172.00000   64.63500   80.88600   71.48100   20.06100    6.59900   59.48700
  172.50000   65.33000   81.90100   69.01000   20.00000    6.59900   59.48600
  173.00000   65.78900   86.17800   70.09200   19.93900    6.59900   59.48600
  173.50000   64.45300   92.34000   73.55400   19.87900    6.59800   59.48600
  174.00000   62.98400   96.25300   76.38800   19.81900    6.59800   59.48500
  174.50000   63.15800   95.76900   76.59900   19.79000    6.59800   59.48500
  175.00000   63.81700   96.67500   73.68800   19.79000    6.59800   59.48500
  175.50000   65.24600   94.62900   72.02700   19.79200    6.59800   59.48400
  176.00000   67.56500   94.18400   71.68000   19.65400    6.59700   59.48400
  176.50000   70.54400   98.15900   70.96800   19.24800    6.59700   59.48400
  177.00000   73.58100  105.41000   70.00200   18.84100    6.59700   59.48300
  177.50000   73.27800  109.28000   69.43800   18.43400    6.59700   59.48300
  178.00000   68.62600  107.11000   69.84100   18.12000    6.59700   59.48300
  178.50000   60.59400  104.79000   72.21900   18.21100    6.59600   59.48200
  179.00000   53.44500  101.47000   73.33600   18.29700    6.59600   59.48200
  179.50000   49.74500   94.85800   72.39800   18.38200    6.59600   59.48200
  180.00000   46.96100   85.37200   68.98900   18.46700    6.59300   59.47200
  180.50000   45.56400   76.06900   67.10900   18.59300    6.59400   59.47300
  181.00000   44.36900   66.83600   65.34000   18.83600    6.59500   59.47400
  181.50000   42.24800   58.74100   65.95000   19.07900    6.59600   59.47500
  182.00000   39.68200   51.84600   67.81500   19.32300    6.59700   59.47600
  182.50000   36.93400   44.90100   69.86800   19.78900    6.59800   59.47800
  183.00000   34.19000   37.99700   69.27000   20.31500    6.59900   59.47900
  183.50000   31.44600   31.08400   68.26300   20.84400    6.60000   59.48000
  184.00000   28.70200   24.51100   69.23300   21.60900    6.60100   59.48100
  184.50000   25.95600   19.67400   72.75800   22.54400    6.60200   59.48200
  185.00000   23.21900   16.26400   74.01700   23.47700    6.60300   59.48300
  185.50000   21.09600   13.73300   73.03400   24.39200    6.60400   59.48400
  186.00000   18.80200   12.80200   69.63200   24.30200    6.60600   59.48600
  186.50000   18.88800   11.87500   66.68200   24.19400    6.60700   59.48700
  187.00000   18.72000   11.74200   67.28800   24.08600    6.60800   59.48800
  187.50000   19.08200   12.17300   67.89400   23.97700    6.60900   59.48900
  188.00000   19.55700   13.71400   70.29600   23.86800    6.61000   59.49000
  188.50000   20.45300   16.04200   71.40200   23.75900    6.61100   59.49100
  189.00000   21.31700   18.04400   72.45100   23.64900    6.61100   59.49200
  189.50000   22.17300   19.39700   71.40600   23.70900    6.61100   59.49400
  190.00000   23.52100   20.75300   69.40900   24.23600    6.61100   59.49500
  190.50000   24.93100   22.05700   66.53800   24.76200    6.61100   59.49600
  191.00000   26.34000   23.22500   63.38700   25.26500    6.61100   59.49700
  191.50000   27.76500   24.32300   61.70000   25.70000    6.61100   59.49800
  192.00000   29.25800   24.88000   61.94300   26.08400    6.61100   59.49900
  192.50000   30.75500   26.55400   62.15600   25.87500    6.61100   59.50100
  193.00000   32.28000   28.87100   60.89200   25.67200    6.61100   59.50200
  193.50000   33.51100   29.33100   60.34200   25.46900    6.61100   59.50300
  194.00000   33.65600   29.77200   59.22300   25.26300    6.61100   59.50400
  194.50000   33.57800   31.72100   57.11200   26.08700    6.61100   59.50500
  195.00000   32.92200   33.84500   54.95100   25.89600    6.61100   59.50600
  195.50000   32.28600   34.76400   53.30700   25.71900    6.61100   59.50700
  196.00000   32.42600   35.46000   49.26600   25.40700    6.61100   59.50800
  196.50000   33.03800   36.20700   45.03300   25.04200    6.61100   59.50900
  197.00000   34.98800   39.83000   43.67600   24.67900    6.61100   59.50900
  197.50000   38.02800   43.58200   45.97100   24.22400    6.61100   59.51000
  198.00000   40.82200   47.56000   47.28300   23.51400    6.61100   59.51000
  198.50000   41.55800   50.02900   46.06800   22.80500    6.61100   59.51100
  199.00000   41.03500   50.47300   42.47100   22.09600    6.61200   59.51100
  199.50000   40.53800   48.56000   41.12300   21.38700    6.61300   59.51200
  200.00000   40.04600   49.26300   42.77400   20.65700    6.61400   59.51200
  200.50000   40.44500   52.44500   47.61000   21.21200    6.61400   59.51300
  201.00000   40.87000   54.70800   50.03100   20.89200    6.61500   59.51300
  201.50000   41.25800   53.59700   50.26200   19.91400    6.61600   59.51400
  202.00000   41.10300   50.51100   48.55600   19.43800    6.61700   59.51400
  202.50000   40.58100   47.07500   46.06600   19.03100    6.61800   59.51500
  203.00000   40.79900   47.75400   45.45300   18.62200    6.61800   59.51500
  203.50000   41.84100   50.37800   46.12300   18.21500    6.61900   59.51600
  204.00000   41.96700   51.37200   45.33600   19.13300    6.62000   59.51600
  204.50000   41.96800   49.45600   43.65000   19.03200    6.62100   59.51700
  205.00000   41.97100   49.51500   46.58200   18.59500    6.62100   59.51700
  205.50000   41.62400   49.94900   51.25100   19.20200    6.62200   59.51800
  206.00000   40.24000   51.85200   55.36900   20.06500    6.62300   59.51800
  206.50000   38.28400   52.11100   55.50000   20.13600    6.62400   59.51900
  207.00000   36.71300   50.61500   51.01600   20.04400    6.62500   59.51900
  207.50000   35.80800   48.91600   46.11900   19.95100    6.62500   59.52000
