~Version ---------------------------------------------------
VERS.   2.0 : CWLS log ASCII Standard -VERSION 2.0
WRAP.    NO : One line per depth step
DLM . SPACE : Column Data Section Delimiter
~Well ------------------------------------------------------
STRT.F     2.0 : START DEPTH
STOP.F   342.0 : STOP DEPTH
STEP.F     0.5 : STEP
NULL. -9999.25 : NULL VALUE
COMP.          : COMPANY
WELL.          : WELL
FLD .          : FIELD
LOC .          : LOCATION
PROV.          : PROVINCE
CNTY.          : COUNTY
STAT.          : STATE
CTRY.          : COUNTRY
SRVC.          : SERVICE COMPANY
DATE.          : DATE
UWI .          : UNIQUE WELL ID
API .          : API NUMBER
~Curve Information -----------------------------------------
DEPT.F     : 
RILD.      : 
RILM.      : 
GR  .      : 
SP  .      : 
FRES.OHMM  : 
TMP .DEGF  : 
~Params ----------------------------------------------------
~Other -----------------------------------------------------
~ASCII -----------------------------------------------------
# ...
  105.00000   16.11800   11.81900   67.82600   40.21800    6.62700   59.48200
  105.50000   16.77000   12.51000   68.07100   39.56800    6.62600   59.48200
  106.00000   17.42200   13.20700   68.76800   38.91800    6.62600   59.48300
  106.50000   18.07300   13.71400   67.00500   38.26400    6.62600   59.48300
  107.00000   18.41400   13.65000   65.94300   37.94600    6.62600   59.48300
  107.50000   18.25100   13.56200   66.38600   38.16400    6.62600   59.48300
  108.00000   18.15200   13.47400   66.16500   38.27700    6.62500   59.48300
  108.50000   17.44200   13.07900   64.18100   38.27700    6.62500   59.48300
  109.00000   16.56300   12.41100   62.22000   38.27700    6.62500   59.48300
  109.50000   15.68700   11.74200   63.26900   38.22800    6.62500   59.48300
  110.00000   14.63400   11.06100   64.88200   37.91600    6.62500   59.48300
  110.50000   13.40200   10.63800   67.90700   37.61000    6.62400   59.48400
  111.00000   13.30200   10.42300   73.27700   37.30400    6.62400   59.48400
  111.50000   13.18800   10.52600   76.08300   36.99800    6.62400   59.48400
  112.00000   13.19700   10.63000   73.83300   36.69200    6.62400   59.48400
  112.50000   13.25300   10.50600   71.32800   36.38700    6.62400   59.48400
  113.00000   13.30700   10.26500   68.88500   36.08100    6.62300   59.48400
  113.50000   13.36100   10.02500   66.95100   35.77000    6.62300   59.48400
  114.00000   13.41700    9.94140   67.14600   36.31500    6.62300   59.48400
  114.50000   13.95200   10.59400   69.33800   36.92300    6.62300   59.48400
  115.00000   14.73100   11.23000   71.80200   36.69000    6.62300   59.48400
  115.50000   15.67200   11.86500   70.87100   36.28700    6.62200   59.48500
  116.00000   16.74900   12.50000   68.14500   35.88300    6.62200   59.48500
  116.50000   17.82500   13.17300   66.42800   35.48000    6.62200   59.48500
  117.00000   18.93900   13.90700   66.13600   35.07600    6.62200   59.48500
  117.50000   19.38900   14.53400   66.36600   34.67600    6.62100   59.48500
  118.00000   19.80300   14.36300   68.98900   34.65600    6.62100   59.48500
  118.50000   19.66900   14.14400   70.20500   34.94400    6.62100   59.48500
  119.00000   19.12000   13.83800   69.28500   35.22700    6.62100   59.48500
  119.50000   18.25900   13.53300   67.02300   34.98500    6.62100   59.48500
  120.00000   17.39000   13.22700   63.14600   34.42400    6.62000   59.48500
  120.50000   16.75600   12.92300   62.74800   33.86600    6.62000   59.48600
  121.00000   16.75700   12.61400   65.04300   33.30900    6.62000   59.48600
  121.50000   16.81400   12.30600   69.15700   32.81300    6.62000   59.48600
  122.00000   17.02200   11.99700   69.22400   32.88900    6.62000   59.48600
  122.50000   17.22900   11.81600   67.73300   32.95700    6.61900   59.48600
  123.00000   17.31300   11.98300   66.41000   33.02400    6.61900   59.48600
  123.50000   17.11600   12.14900   67.73000   33.09200    6.61900   59.48600
  124.00000   16.81600   12.31900   68.87500   33.16000    6.61900   59.48600
  124.50000   16.29200   11.78800   68.69300   33.23900    6.61900   59.48600
  125.00000   15.70700   11.21100   68.11300   32.48800    6.61800   59.48700
  125.50000   15.12300   10.63400   66.08100   31.88900    6.61800   59.48700
  126.00000   14.54200   10.05700   63.24400   31.65900    6.61800   59.48700
  126.50000   14.26100    9.56420   61.93700   31.43300    6.61800   59.48700
  127.00000   13.97700    9.70340   63.51600   31.20700    6.61800   59.48700
  127.50000   14.26400    9.84280   68.42000   30.98100    6.61700   59.48700
  128.00000   14.78500   10.42800   72.65700   30.75000    6.61700   59.48700
  128.50000   15.30500   11.00500   73.26300   30.71400    6.61700   59.48700
  129.00000   15.82500   11.45400   69.41700   30.71400    6.61700   59.48700
  129.50000   16.33400   11.90500   66.59900   30.71400    6.61700   59.48700
  130.00000   16.81900   12.32900   65.89700   30.71400    6.61600   59.48800
  130.50000   17.30400   12.45000   68.56900   30.71500    6.61600   59.48800
  131.00000   17.78900   12.56500   73.44500   30.66100    6.61600   59.48800
  131.50000   18.29500   12.68100   77.78400   30.51400    6.61600   59.48800
  132.00000   18.87400   12.79500   79.77500   30.36700    6.61500   59.48800
  132.50000   19.21900   12.98300   79.52700   30.22000    6.61500   59.48800
  133.00000   19.52500   13.37000   79.22900   30.07300    6.61500   59.48800
  133.50000   19.83000   13.75700   80.98700   29.92600    6.61500   59.48800
  134.00000   20.13600   14.14400   83.19500   29.87400    6.61500   59.48800
  134.50000   20.50700   14.53000   79.99500   29.87400    6.61400   59.48900
  135.00000   21.06100   14.91500   76.96500   29.86600    6.61400   59.48900
  135.50000   21.72200   15.19800   75.73800   29.40900    6.61400   59.48900
  136.00000   22.68200   15.38700   75.13400   28.93900    6.61400   59.48900
  136.50000   24.14500   15.58200   73.53100   28.46800    6.61400   59.48900
  137.00000   26.12000   16.33400   70.20000   27.99800    6.61300   59.48900
  137.50000   28.41600   17.47700   66.53100   27.52600    6.61300   59.48900
  138.00000   30.92300   18.67200   66.37700   27.05400    6.61300   59.48900
  138.50000   34.08300   21.81800   67.30500   27.09700    6.61300   59.48900
  139.00000   36.73800   26.03100   65.93600   27.32300    6.61300   59.48900
  139.50000   39.38800   30.90100   61.62400   27.58400    6.61200   59.49000
  140.00000   42.04300   37.05900   54.19300   27.77400    6.61200   59.49000
  140.50000   44.29900   39.05300   52.98700   27.77400    6.61200   59.49000
  141.00000   46.00800   40.95300   55.33600   27.77400    6.61200   59.49000
  141.50000   47.70700   43.99800   57.83900   27.62900    6.61200   59.49000
  142.00000   49.20000   47.25300   57.56500   26.94600    6.61100   59.49000
  142.50000   50.44300   50.82100   57.70600   26.40500    6.61100   59.49000
  143.00000   51.22700   54.25700   62.66400   26.10300    6.61100   59.49000
  143.50000   51.48900   57.71300   68.16100   25.81100    6.61100   59.49000
  144.00000   51.74600   58.69900   70.50100   26.39400    6.61100   59.49000
  144.50000   52.21300   60.25000   67.80500   26.31800    6.61000   59.49100
  145.00000   53.25300   62.33100   62.51800   26.10300    6.61000   59.49100
  145.50000   54.63000   64.41900   61.10100   25.88800    6.61000   59.49100
  146.00000   56.45300   64.87500   62.36100   25.67200    6.61000   59.49100
  146.50000   59.13000   65.53700   62.76400   25.45600    6.61000   59.49100
  147.00000   63.67500   68.96100   60.00000   25.24600    6.60900   59.49100
  147.50000   67.05800   71.26000   58.89000   24.99300    6.60900   59.49100
  148.00000   66.91600   75.18100   62.72300   24.74600    6.60900   59.49100
  148.50000   61.86000   75.82500   66.78600   24.50000    6.60900   59.49100
  149.00000   52.97700   72.80500   67.10100   24.25300    6.60800   59.49200
  149.50000   47.18200   66.99200   67.31400   24.00600    6.60800   59.49200
  150.00000   43.59300   65.65400   67.17100   23.76000    6.60800   59.49200
  150.50000   42.68100   65.41900   66.30100   23.51300    6.60800   59.49200
  151.00000   42.32500   67.14200   66.42900   23.26600    6.60800   59.49200
  151.50000   44.69800   65.51800   67.80600   22.87100    6.60700   59.49200
  152.00000   47.37700   61.26600   67.92600   22.33000    6.60700   59.49200
  152.50000   50.11000   59.18400   64.45200   22.61600    6.60700   59.49200
  153.00000   53.07800   59.49400   61.35300   22.94100    6.60700   59.49200
  153.50000   54.15400   58.69900   62.40500   23.26800    6.60700   59.49200
  154.00000   54.85100   55.27100   64.90900   23.59600    6.60600   59.49300
  154.50000   55.08000   51.11300   65.97600   24.33100    6.60600   59.49300
  155.00000   54.63900   47.13900   66.58800   24.20200    6.60600   59.49300
  155.50000   53.76500   44.19900   67.94800   23.95900    6.60600   59.49300
  156.00000   52.42700   42.11700   70.01500   23.71600    6.60600   59.49300
