~Version ---------------------------------------------------
VERS.   2.0 : CWLS log ASCII Standard -VERSION 2.0
WRAP.    NO : One line per depth step
DLM . SPACE : Column Data Section Delimiter
~Well ------------------------------------------------------
STRT.F     2.0 : START DEPTH
STOP.F   342.0 : STOP DEPTH
STEP.F     0.5 : STEP
NULL. -9999.25 : NULL VALUE
COMP.          : COMPANY
WELL.          : WELL
FLD .          : FIELD
LOC .          : LOCATION
PROV.          : PROVINCE
CNTY.          : COUNTY
STAT.          : STATE
CTRY.          : COUNTRY
SRVC.          : SERVICE COMPANY
DATE.          : DATE
UWI .          : UNIQUE WELL ID
API .          : API NUMBER
~Curve Information -----------------------------------------
DEPT.F     : 
RILD.      : 
RILM.      : 
GR  .      : 
SP  .      : 
FRES.OHMM  : 
TMP .DEGF  : 
~Params ----------------------------------------------------
~Other -----------------------------------------------------
~ASCII -----------------------------------------------------
    2.00000   32.27100   23.96100   65.51800  -15.92400   -9999.25   -9999.25
    2.50000   32.27100   23.96100   65.51800  -15.92400   -9999.25   -9999.25
    3.00000   32.19100   23.90500   65.49800  -15.92100   -9999.25   -9999.25
    3.50000   38.83500   28.38600   64.09800  -15.92400   -9999.25   -9999.25
    4.00000   44.85000   35.89400   61.48800  -15.92400   -9999.25   -9999.25
    4.50000   50.83500   43.19000   57.73300  -15.92400   -9999.25   -9999.25
    5.00000   55.49000   50.05700   54.28200  -15.92400   -9999.25   -9999.25
    5.50000   58.58600   53.78100   54.28600  -15.92400   -9999.25   -9999.25
    6.00000   60.83000   57.36900   57.63300  -15.92400   -9999.25   -9999.25
    6.50000   63.05300   64.26000   61.14400  -15.92400   -9999.25   -9999.25
    7.00000   65.27800   58.56300   63.71500  -15.92400   -9999.25   -9999.25
    7.50000   68.51300   41.03400   61.57100  -15.92400   -9999.25   -9999.25
    8.00000   72.97100   37.14000   56.74700  -15.92400   -9999.25   -9999.25
    8.50000   77.59300   61.99700   53.69600  -15.92400   -9999.25   -9999.25
    9.00000   79.33500  239.30000   53.83600  -15.92400   -9999.25   -9999.25
    9.50000   79.36600  154.13000   58.16800  -15.92400   -9999.25   -9999.25
   10.00000   78.25300   87.15000   60.15300  -15.92400   -9999.25   -9999.25
   10.50000   75.63800   64.99400   60.63700  -15.92400   -9999.25   -9999.25
   11.00000   73.51000   64.64700   58.85200  -15.92400   -9999.25   -9999.25
   11.50000   72.68600   60.96300   56.29300  -15.92400   -9999.25   -9999.25
   12.00000   72.80500   60.30500   52.87300  -15.92400   -9999.25   -9999.25
   12.50000   73.54500   62.47100   52.12100  -15.92400   -9999.25   -9999.25
   13.00000   72.01300   62.55200   53.72200  -15.92400   -9999.25   -9999.25
   13.50000   68.83600   59.51600   53.24400  -15.92400   -9999.25   -9999.25
   14.00000   65.67400   52.23500   54.07700  -15.92400   -9999.25   -9999.25
   14.50000   63.39400   44.39000   58.50700  -15.92400   -9999.25   -9999.25
   15.00000   61.72100   37.14700   66.87400  -15.92400   -9999.25   -9999.25
   15.50000   57.50100   30.37700   74.95400  -15.92400   -9999.25   -9999.25
   16.00000   50.42800   24.78400   79.59300  -15.92400   -9999.25   -9999.25
   16.50000   43.34800   20.59600   82.87600  -15.92400   -9999.25   -9999.25
   17.00000   38.10700   18.31600   84.24900  -15.92400   -9999.25   -9999.25
   17.50000   34.78600   17.75700   84.54100  -15.92400   -9999.25   -9999.25
   18.00000   33.38700   17.16400   80.68900  -15.92400   -9999.25   -9999.25
   18.50000   33.68300   16.90100   79.38600  -15.92400   -9999.25   -9999.25
   19.00000   33.99500   17.35900   79.75500  -15.92400   -9999.25   -9999.25
   19.50000   34.33400   17.80400   80.45500  -15.92400   -9999.25   -9999.25
   20.00000   35.18000   18.87600   79.64300  -15.92400   -9999.25   -9999.25
   20.50000   36.31900   20.21200   78.55100  -15.92400   -9999.25   -9999.25
   21.00000   39.37000   23.05800   80.11400  -15.92400   -9999.25   -9999.25
   21.50000   43.83000   28.39500   81.72600  -15.92400   -9999.25   -9999.25
   22.00000   49.43700   35.74400   85.87600  -15.92400   -9999.25   -9999.25
   22.50000   55.13600   44.80600   90.33300  -15.92400   -9999.25   -9999.25
   23.00000   61.75300   49.68200   91.36000  -15.92400   -9999.25   -9999.25
   23.50000   65.49900   46.45000   84.91900  -15.92400   -9999.25   -9999.25
   24.00000   66.15600   40.04000   77.16200  -15.92400   -9999.25   -9999.25
   24.50000   66.31800   36.08400   69.97400  -15.92400   -9999.25   -9999.25
   25.00000   65.09100   32.77500   66.34700  -15.92400   -9999.25   -9999.25
   25.50000   63.15700   31.99200   66.52000  -15.92400   -9999.25   -9999.25
   26.00000   60.88400   31.21800   68.61500  -15.75000   -9999.25   -9999.25
   26.50000   58.61200   30.70600   70.22000  -29.84900   -9999.25   -9999.25
   27.00000   56.35400   29.70100   68.57300   32.91500   -9999.25   -9999.25
   27.50000   55.07900   30.18100   65.38200   77.18300   -9999.25   -9999.25
   28.00000   54.73500   30.99900   62.20200   84.20300   -9999.25   -9999.25
   28.50000   54.41400   31.34600   63.60200   88.80200   -9999.25   -9999.25
   29.00000   55.23900   30.99400   66.81600   93.22300   -9999.25   -9999.25
   29.50000   55.82700   30.71900   69.58900   96.68500   -9999.25   -9999.25
   30.00000   54.76900   30.98800   66.69200   88.86400   -9999.25   -9999.25
   30.50000   52.90000   30.21300   65.53900   68.32000   -9999.25   -9999.25
   31.00000   50.47300   28.67800   66.62600   33.60400   -9999.25   -9999.25
   31.50000   46.64600   27.18800   63.64200   43.05500   -9999.25   -9999.25
   32.00000   43.83300   26.48900   58.35700   54.81600   -9999.25   -9999.25
   32.50000   41.76400   25.76900   58.69300   42.61700   -9999.25   -9999.25
   33.00000   39.69100   25.04000   60.13900   38.76900   -9999.25   -9999.25
   33.50000   38.27800   23.54600   62.22200   11.96700   -9999.25   -9999.25
   34.00000   36.63800   22.06300   64.15700   25.91200   -9999.25   -9999.25
   34.50000   33.53200   20.76900   63.41100   44.72800   -9999.25   -9999.25
   35.00000   30.46400   20.12300   60.49700   51.27600   -9999.25   -9999.25
   35.50000   26.22100   19.39100   56.57200   34.26900   -9999.25   -9999.25
   36.00000   22.84600   17.85100   55.54000   49.65800   -9999.25   -9999.25
   36.50000   20.76800   16.25300   56.83900    0.88529   -9999.25   -9999.25
   37.00000   19.29500   15.71900   59.45400  -16.90300   -9999.25   -9999.25
   37.50000   18.40800   15.19800   63.36400   67.54300   -9999.25   -9999.25
   38.00000   18.09500   14.82100   65.76700  106.67000   -9999.25   -9999.25
   38.50000   17.92400   14.95800   64.59400  112.14000   -9999.25   -9999.25
   39.00000   19.77300   15.12200   58.10300  111.36000   -9999.25   -9999.25
   39.50000   24.88600   16.64100   54.84100  110.38000   -9999.25   -9999.25
   40.00000   30.46100   18.96600   53.39300  109.27000    9.29700   60.16100
   40.50000   36.05300   22.37100   53.80200  108.17000    9.25100   60.11000
   41.00000   40.74700   25.49000   55.90900  107.16000    9.20400   60.05900
   41.50000   43.01000   26.54300   57.26800  106.26000    9.15800   60.02900
   42.00000   42.05000   27.07600   57.65600  105.35000    9.09500   59.99900
   42.50000   40.88400   27.27400   57.59100  102.69000    9.03100   59.96900
   43.00000   39.25100   26.99500   58.12300  101.63000    8.92200   59.93900
   43.50000   37.18100   26.65400   56.64600  100.58000    8.78200   59.90900
   44.00000   35.08200   26.15500   54.39600   99.60300    8.64200   59.87900
   44.50000   33.92300   25.66100   54.63100   98.70700    8.50200   59.84900
   45.00000   32.91200   25.03600   57.02200   97.80900    8.36200   59.81900
   45.50000   31.90200   24.17100   57.45500   96.90900    8.22200   59.78900
   46.00000   30.89100   23.30700   53.98800   95.86200    8.08200   59.75900
   46.50000   29.88300   22.42700   50.10700   94.75800    7.94300   59.72900
   47.00000   28.85900   21.41400   46.53400   93.65700    7.80300   59.69900
   47.50000   27.82600   20.40600   45.96900   92.56300    7.66300   59.66900
   48.00000   26.68000   19.39800   49.12900   91.46800    7.52300   59.63900
   48.50000   25.10700   18.38900   54.75900   90.37400    7.38300   59.60400
   49.00000   23.53700   17.40200   57.34800   89.27900    7.24300   59.56400
   49.50000   21.96400   16.37300   56.55200   88.18400    7.10300   59.52400
   50.00000   20.36200   15.36300   55.54900   87.09100    6.96300   59.48400
   50.50000   19.44500   14.35300   56.05100   86.37900    6.82900   59.44400
   51.00000   18.64500   13.34300   54.12200   85.69400    6.72200   59.40300
   51.50000   17.84600   12.40000   54.77100   85.01000    6.71900   59.39600
   52.00000   17.04600   11.63300   61.49000   84.32600    6.71700   59.39200
   52.50000   16.24900   10.86600   68.83800   83.64200    6.71400   59.41600
   53.00000   15.77100   10.58500   73.60000   82.95800    6.71200   59.44500
