~Version ---------------------------------------------------
VERS.   2.0 : CWLS log ASCII Standard -VERSION 2.0
WRAP.    NO : One line per depth step
DLM . SPACE : Column Data Section Delimiter
~Well ------------------------------------------------------
STRT.F     2.0 : START DEPTH
STOP.F   342.0 : STOP DEPTH
STEP.F     0.5 : STEP
NULL. -9999.25 : NULL VALUE
COMP.          : COMPANY
WELL.          : WELL
FLD .          : FIELD
LOC .          : LOCATION
PROV.          : PROVINCE
CNTY.          : COUNTY
STAT.          : STATE
CTRY.          : COUNTRY
SRVC.          : SERVICE COMPANY
DATE.          : DATE
UWI .          : UNIQUE WELL ID
API .          : API NUMBER
~Curve Information -----------------------------------------
DEPT.F     : 
RILD.      : 
RILM.      : 
GR  .      : 
SP  .      : 
FRES.OHMM  : 
TMP .DEGF  : 
~Params ----------------------------------------------------
~Other -----------------------------------------------------
~ASCII -----------------------------------------------------
# ...
  311.00000   33.47900   24.17900   50.78000    1.66860    7.23500   66.28300
  311.50000   34.45000   25.16600   52.20800    1.39530    7.22100   66.30400
  312.00000   35.39200   26.82700   56.52500    1.12210    7.20600   66.32600
  312.50000   36.52600   28.42200   57.71000    0.85941    7.21400   66.34600
  313.00000   37.86800   29.52100   57.35900    0.69788    7.22300   66.36700
  313.50000   39.42200   29.57600   61.22300    0.53146    7.23200   66.38800
  314.00000   40.86200   29.63000   64.59600    0.00621    7.24100   66.40100
  314.50000   40.70300   29.68700   64.98300   -0.80745    7.25000   66.40600
  315.00000   39.92400   29.74300   62.79800   -1.62060    7.25900   66.41000
  315.50000   39.09600   29.74700   63.32600   -2.05620    7.26900   66.41500
  316.00000   38.69100   29.66400   65.87400   -2.05880    7.27800   66.41900
  316.50000   38.85500   29.57400   67.44400   -2.05990    7.28700   66.42400
  317.00000   39.40500   29.38800   65.92800   -2.09370    7.29600   66.42800
  317.50000   39.94100   28.25100   62.18000   -1.09620    7.30500   66.43000
  318.00000   39.57200   27.84500   60.25300   -0.33012    7.31500   66.43100
  318.50000   37.64400   27.52500   59.31400    0.11763    7.32200   66.43300
  319.00000   35.32100   26.25900   57.04700    0.25843    7.33000   66.43500
  319.50000   33.34600   23.80900   57.17400    0.40543    7.33700   66.44000
  320.00000   31.71800   22.29000   59.34200    1.26310    7.34500   66.44800
  320.50000   30.08800   21.89100   63.17200    2.69290    7.35200   66.45600
  321.00000   28.66800   21.31000   63.04100    4.12200    7.35900   66.46300
  321.50000   27.49700   20.58700   59.99800    5.33030    7.36700   66.47100
  322.00000   26.62000   19.86600   57.36400    6.08170    7.41800   66.47900
  322.50000   26.29700   19.16000   55.75400    6.83360    7.58900   66.48600
  323.00000   25.90200   18.54700   56.78500    7.58710    7.76100   66.49400
  323.50000   25.45400   17.92700   59.03200    8.09010    7.93300   66.50200
  324.00000   24.91200   18.03100   58.64300    8.25710    7.96700   66.50900
  324.50000   24.73700   18.21500   57.97600    8.41880    7.96700   66.53000
  325.00000   25.49800   18.39700   56.92700    8.75840    7.96600   66.55100
  325.50000   26.49100   18.57600   58.91400    9.12190    7.96400   66.57200
  326.00000   27.53300   18.68000   62.01700    9.11990    7.96200   66.59300
  326.50000   29.22900   19.87000   64.62900    8.82310    7.96000   66.61400
  327.00000   31.19400   21.07400   69.00200    8.52720    7.95800   66.62100
  327.50000   33.45600   22.35700   71.82900    7.73690    7.95600   66.62100
  328.00000   36.32100   24.60400   76.36600    6.74750    7.95500   66.62100
  328.50000   38.88600   26.78200   76.74500    4.35130    7.95300   66.62100
  329.00000   40.05600   27.84100   74.52300   -1.41340    7.95100   66.62100
  329.50000   39.49800   27.83900   71.48900   -5.60830    7.94900   66.62100
  330.00000   37.86800   27.84000   71.58100   -6.67250   -9999.25   -9999.25
  330.50000   35.02100   27.84300   74.33800   -7.74340   -9999.25   -9999.25
  331.00000   33.49100   27.20600   74.99200   -8.70520   -9999.25   -9999.25
  331.50000   31.96300   25.49100   73.32400   -9.80100   -9999.25   -9999.25
  332.00000   30.42000   23.50300   73.88200  -10.77600   -9999.25   -9999.25
  332.50000   28.88100   21.53000   74.98600  -10.56200   -9999.25   -9999.25
  333.00000   27.44200   18.67900   74.84300   -9.83150   -9999.25   -9999.25
  333.50000   26.15100   17.27700   74.76200   -9.20330   -9999.25   -9999.25
  334.00000   26.17400   15.80700   74.76200   -9.57070   -9999.25   -9999.25
  334.50000   26.49300   15.27800   74.76200  -10.52000   -9999.25   -9999.25
  335.00000   26.91000   14.86100   74.76200  -10.51900   -9999.25   -9999.25
  335.50000   27.24400   14.73100   74.76200   -9.93080   -9999.25   -9999.25
  336.00000   27.11600   14.63100   74.76200   -9.62350   -9999.25   -9999.25
  336.50000   27.28900   14.52600   74.76200   -9.62190   -9999.25   -9999.25
  337.00000   27.28700   14.37600   74.76200   -9.62190   -9999.25   -9999.25
  337.50000   27.01500   14.37800   74.76200   -9.62370   -9999.25   -9999.25
  338.00000   26.72800   14.81600   74.76200   -9.87540   -9999.25   -9999.25
  338.50000   26.73100   14.82000   74.76200  -10.33700   -9999.25   -9999.25
  339.00000   26.73100   14.82000   74.76200  -10.05000   -9999.25   -9999.25
  339.50000   26.73100   14.82000   74.76200  -10.04300   -9999.25   -9999.25
  340.00000   26.73100   14.82000   74.76200  -10.04200   -9999.25   -9999.25
  340.50000   -9999.25   -9999.25   74.76200  -10.04200   -9999.25   -9999.25
  341.00000   -9999.25   -9999.25   74.76200  -10.04200   -9999.25   -9999.25
  341.50000   -9999.25   -9999.25   74.76200  -10.04200   -9999.25   -9999.25
  342.00000   -9999.25   -9999.25   74.76200  -10.04200   -9999.25   -9999.25
