~Version ---------------------------------------------------
VERS.   2.0 : CWLS log ASCII Standard -VERSION 2.0
WRAP.    NO : One line per depth step
DLM . SPACE : Column Data Section Delimiter
~Well ------------------------------------------------------
STRT.F     2.0 : START DEPTH
STOP.F   342.0 : STOP DEPTH
STEP.F     0.5 : STEP
NULL. -9999.25 : NULL VALUE
COMP.          : COMPANY
WELL.          : WELL
FLD .          : FIELD
LOC .          : LOCATION
PROV.          : PROVINCE
CNTY.          : COUNTY
STAT.          : STATE
CTRY.          : COUNTRY
SRVC.          : SERVICE COMPANY
DATE.          : DATE
UWI .          : UNIQUE WELL ID
API .          : API NUMBER
~Curve Information -----------------------------------------
DEPT.F     : 
RILD.      : 
RILM.      : 
GR  .      : 
SP  .      : 
FRES.OHMM  : 
TMP .DEGF  : 
~Params ----------------------------------------------------
~Other -----------------------------------------------------
~ASCII -----------------------------------------------------
# ...
   53.50000   15.51200   10.48000   73.69100   82.27300    6.70900   59.47400
   54.00000   15.35000   10.37400   65.31800   81.59000    6.70700   59.50300
   54.50000   15.29600   10.26700   59.87500   80.90600    6.70400   59.50800
   55.00000   15.24300   10.16200   59.17300   80.02200    6.70200   59.51300
   55.50000   15.18900   10.33200   62.53100   79.06000    6.69900   59.51900
   56.00000   15.13600   10.74800   65.71000   78.09800    6.69700   59.52400
   56.50000   15.06400   11.16600   65.50900   77.13700    6.69400   59.52900
   57.00000   14.93800   11.37500   60.72600   76.19000    6.69200   59.53000
   57.50000   14.81200   11.55700   57.58300   75.28500    6.68900   59.52800
   58.00000   14.68700   11.74500   56.32800   74.40500    6.68700   59.52500
   58.50000   14.57200   11.44200   55.97700   73.52400    6.68800   59.52300
   59.00000   13.70500   11.02400   54.57300   72.64300    6.70300   59.52100
   59.50000   12.73900   10.05500   55.50000   71.76100    6.71800   59.51900
   60.00000   11.77300    8.92330   58.67400   70.87700    6.73200   59.51700
   60.50000   10.80600    8.22780   62.28500   70.16000    6.74700   59.51500
   61.00000    9.84060    7.60390   64.24400   69.96600    6.76200   59.51200
   61.50000    8.93810    7.01570   65.33100   69.83400    6.77700   59.51000
   62.00000    8.53110    6.70100   64.44000   70.32500    6.79100   59.50800
   62.50000    8.11550    6.38150   61.37000   70.70400    6.79500   59.50600
   63.00000    7.69010    6.06280   59.07000   70.92100    6.79000   59.50400
   63.50000    7.57160    5.93180   62.30800   70.63700    6.78600   59.50200
   64.00000    7.51370    5.89970   65.99900   69.51900    6.78200   59.50000
   64.50000    7.45610    5.86630   67.11800   68.86900    6.77800   59.49700
   65.00000    7.39850    5.83280   64.46700   68.70200    6.77400   59.49500
   65.50000    7.34180    5.79930   65.58100   68.53000    6.77000   59.49300
   66.00000    7.34080    5.76580   66.45500   68.13600    6.76600   59.49100
   66.50000    7.34070    5.73230   66.89200   67.72500    6.76200   59.48900
   67.00000    7.34070    5.69840   62.68100   67.31500    6.75800   59.48700
   67.50000    7.34070    5.72670   59.66400   66.90400    6.75400   59.48400
   68.00000    7.34020    5.84490   60.14600   66.49400    6.75000   59.48200
   68.50000    7.43650    5.96360   63.24500   66.08400    6.74600   59.48000
   69.00000    7.67310    6.08210   66.32600   65.25900    6.74200   59.47800
   69.50000    7.91060    6.20070   67.08500   64.34100    6.73800   59.47600
   70.00000    8.14770    6.42250   67.20300   63.42900    6.73400   59.47500
   70.50000    8.38500    6.68270   67.20100   63.46800    6.72900   59.47500
   71.00000    8.76850    6.94250   63.95400   63.08100    6.72500   59.47500
   71.50000    9.20680    7.36620   59.03600   62.70200    6.72100   59.47500
   72.00000    9.64430    7.93260   57.16400   62.32500    6.71700   59.47500
   72.50000   10.08200    8.49730   62.22700   61.94700    6.71300   59.47600
   73.00000   10.51800    8.72690   66.37400   61.56900    6.70900   59.47600
   73.50000   10.50300    8.72580   69.07800   61.19200    6.70500   59.47600
   74.00000   10.25300    8.72400   70.48600   60.63000    6.70300   59.47600
   74.50000   10.00500    8.40860   71.70500   59.79800    6.70100   59.47600
   75.00000    9.75790    7.81660   70.76100   58.96400    6.70000   59.47600
   75.50000    9.51030    7.47690   71.02500   58.13100    6.69800   59.47600
   76.00000    9.27290    7.27120   72.82900   57.29300    6.69600   59.47600
   76.50000    9.03990    7.06360   75.35400   56.89900    6.69500   59.47600
   77.00000    8.81560    6.85630   76.61200   56.56900    6.69300   59.47700
   77.50000    8.59100    6.64780   74.22200   56.13800    6.69200   59.47700
   78.00000    8.36650    6.44060   70.01900   55.51000    6.69000   59.47700
   78.50000    8.16170    6.23670   66.97400   54.88000    6.68800   59.47700
   79.00000    8.10850    6.23290   67.83000   54.25100    6.68700   59.47700
   79.50000    8.05300    6.23270   69.63100   53.66700    6.68500   59.47700
   80.00000    7.99740    6.23270   69.40300   53.18400    6.68400   59.47700
   80.50000    7.94170    6.23260   68.91700   52.69900    6.68200   59.47700
   81.00000    7.88610    6.23390   67.09200   52.21300    6.68100   59.47700
   81.50000    7.83040    6.50950   64.76200   51.80800    6.67900   59.47700
   82.00000    7.77480    6.78250   61.13200   51.41400    6.67700   59.47800
   82.50000    7.71910    6.69240   61.46000   51.48700    6.67600   59.47800
   83.00000    7.66350    6.60400   62.97200   51.58900    6.67400   59.47800
   83.50000    7.60780    6.51560   67.20300   50.27700    6.67300   59.47800
   84.00000    7.55220    6.42720   69.66800   49.83500    6.67100   59.47800
   84.50000    7.49650    6.33860   70.92800   50.25100    6.66900   59.47800
   85.00000    7.44080    6.24800   68.88700   50.00500    6.66800   59.47800
   85.50000    7.38520    6.23270   66.35100   49.10800    6.66600   59.47800
   86.00000    7.35080    6.23270   62.36000   48.61900    6.66500   59.47800
   86.50000    7.41380    6.23270   59.68200   48.36900    6.66300   59.47900
   87.00000    7.47520    6.23270   57.34400   48.11700    6.66100   59.47900
   87.50000    7.53630    6.23270   55.18700   47.88400    6.66000   59.47900
   88.00000    7.59740    6.23270   54.91600   47.69300    6.65800   59.47900
   88.50000    7.65850    6.23270   57.76000   47.50200    6.65700   59.47900
   89.00000    7.71960    6.23270   59.52900   47.31200    6.65500   59.47900
   89.50000    7.78070    6.23270   59.09600   47.13100    6.65300   59.47900
   90.00000    7.84180    6.23270   56.74400   46.49700    6.65200   59.47900
   90.50000    7.91640    6.23260   52.53600   45.84900    6.65000   59.47900
   91.00000    8.08810    6.23270   50.82800   45.84100    6.64900   59.47900
   91.50000    8.25900    6.34950   53.70500   45.84000    6.64700   59.48000
   92.00000    8.42980    6.52610   61.59300   45.84000    6.64500   59.48000
   92.50000    8.60050    6.70220   67.54400   45.83800    6.64400   59.48000
   93.00000    8.77130    6.87830   69.04100   45.66400    6.64200   59.48000
   93.50000    8.94210    7.05430   64.44100   45.37700    6.64100   59.48000
   94.00000    9.11280    7.23040   62.49600   45.09100    6.63900   59.48000
   94.50000    9.28360    7.40690   64.70200   44.80500    6.63700   59.48000
   95.00000    9.45450    7.58800   64.80200   44.48000    6.63600   59.48000
   95.50000    9.61400    7.55630   64.25900   44.00700    6.63400   59.48000
   96.00000    9.75870    7.47920   63.89400   43.53700    6.63300   59.48000
   96.50000    9.90300    7.40210   67.31500   43.27700    6.63100   59.48100
   97.00000   10.04700    7.38570   68.99200   43.20100    6.63000   59.48100
   97.50000   10.19200    7.65740   69.32800   43.12400    6.63000   59.48100
   98.00000   10.33600    7.92240   70.74700   43.04700    6.63000   59.48100
   98.50000   10.48000    8.18690   72.34200   42.97000    6.62900   59.48100
   99.00000   10.62400    8.45130   71.49200   42.86100    6.62900   59.48100
   99.50000   10.76800    8.71570   68.35400   42.33800    6.62900   59.48100
  100.00000   10.91300    8.97990   66.61600   41.81400    6.62900   59.48100
  100.50000   11.31400    9.24220   68.48700   41.48100    6.62800   59.48100
  101.00000   11.78100    9.59770   71.70600   41.24800    6.62800   59.48200
  101.50000   12.24800    9.96150   76.10800   41.01500    6.62800   59.48200
  102.00000   12.71400    9.96530   77.11400   40.79400    6.62800   59.48200
  102.50000   13.18000    9.71720   73.16000   40.79800    6.62800   59.48200
  103.00000   13.64700    9.67970   65.76200   40.79800    6.62700   59.48200
  103.50000   14.16200   10.04600   65.22600   40.79800    6.62700   59.48200
  104.00000   14.81400   10.41000   66.28300   40.79900    6.62700   59.48200
  104.50000   15.46600   11.12700   67.01400   40.80900    6.62700   59.48200
