~Version ---------------------------------------------------
VERS.   2.0 : CWLS log ASCII Standard -VERSION 2.0
WRAP.    NO : One line per depth step
DLM . SPACE : Column Data Section Delimiter
~Well ------------------------------------------------------
STRT.F     2.0 : START DEPTH
STOP.F   342.0 : STOP DEPTH
STEP.F     0.5 : STEP
NULL. -9999.25 : NULL VALUE
COMP.          : COMPANY
WELL.          : WELL
FLD .          : FIELD
LOC .          : LOCATION
PROV.          : PROVINCE
CNTY.          : COUNTY
STAT.          : STATE
CTRY.          : COUNTRY
SRVC.          : SERVICE COMPANY
DATE.          : DATE
UWI .          : UNIQUE WELL ID
API .          : API NUMBER
~Curve Information -----------------------------------------
DEPT.F     : 
RILD.      : 
RILM.      : 
GR  .      : 
SP  .      : 
FRES.OHMM  : 
TMP .DEGF  : 
~Params ----------------------------------------------------
~Other -----------------------------------------------------
~ASCII -----------------------------------------------------
# ...
  208.00000   35.58100   48.00900   43.13200   19.85800    6.62600   59.52000
  208.50000   35.37600   46.18100   44.37400   19.79000    6.62700   59.52100
  209.00000   33.52100   39.41100   47.08200   19.79000    6.62800   59.52100
  209.50000   31.25200   31.84400   51.24100   19.79000    6.62900   59.52200
  210.00000   28.90500   26.65500   56.94800   19.79000    6.62900   59.52200
  210.50000   26.66000   22.26000   60.49000   19.79000    6.63000   59.52300
  211.00000   24.48800   19.46500   60.18600   19.79000    6.62800   59.52300
  211.50000   22.30700   17.31400   57.24000   19.79000    6.62600   59.52400
  212.00000   20.81800   16.16700   54.29400   19.79000    6.62400   59.52400
  212.50000   19.62700   15.65000   50.95300   19.79000    6.62200   59.52500
  213.00000   18.96300   15.51600   47.15900   19.78800    6.62000   59.52500
  213.50000   18.30000   15.80600   46.82300   19.94300    6.61800   59.52600
  214.00000   17.61000   15.69600   51.33400   20.52800    6.61600   59.52500
  214.50000   16.72100   15.30600   53.80600   21.11300    6.61400   59.52500
  215.00000   15.78900   14.51400   53.94200   21.69500    6.61200   59.52400
  215.50000   14.85600   13.28500   53.59900   21.74200    6.61000   59.52300
  216.00000   13.94800   12.05000   53.16800   21.51100    6.60800   59.52300
  216.50000   12.62400   10.81500   52.43200   21.28200    6.60600   59.52200
  217.00000   11.47200    9.58500   55.99500   21.05300    6.60400   59.52100
  217.50000   10.57500    8.61030   58.81000   20.82500    6.60200   59.52100
  218.00000    9.67660    7.87770   57.62900   20.59700    6.60000   59.52000
  218.50000    8.77820    7.15580   55.62700   20.36800    6.59800   59.51900
  219.00000    7.87860    6.49420   55.53700   20.14000    6.59600   59.51800
  219.50000    7.06530    5.95560   54.27800   19.91100    6.59400   59.51800
  220.00000    6.35260    5.41960   49.41200   19.95600    6.59800   59.51700
  220.50000    6.23260    5.40260   45.48400   20.30300    6.64300   59.55800
  221.00000    6.23240    5.40180   48.87000   20.61900    6.70900   59.60600
  221.50000    6.23240    5.40330   54.88900   20.31500    6.80000   59.73100
  222.00000    6.23270    5.48830   58.88100   20.02000    6.89100   59.88400
  222.50000    6.47040    5.57440   58.57600   19.72300    6.94700   60.03700
  223.00000    6.82960    5.65970   59.44400   19.41200    6.98000   60.18900
  223.50000    7.18810    6.02800   64.13800   20.08800    6.97600   60.27100
  224.00000    7.55160    6.46630   67.20900   21.01900    6.96900   60.33100
  224.50000    7.98070    6.89720   67.99700   21.13100    6.96300   60.32600
  225.00000    8.43570    7.31270   67.34800   21.22000    6.95600   60.32200
  225.50000    8.89010    7.78690   68.30000   21.30700    6.95000   60.31700
  226.00000    9.34420    8.42410   67.52300   21.39500    6.95800   60.31700
  226.50000    9.93050    8.91150   65.69800   21.45800    7.00800   60.37300
  227.00000   10.27200    9.27010   64.35000   21.34300    7.05800   60.44400
  227.50000    9.92700    8.50140   63.27000   21.23100    7.10800   60.52300
  228.00000    9.57990    8.08880   61.86400   21.11900    7.15800   60.60200
  228.50000    9.23360    7.67210   61.39400   20.84800    7.20700   60.68100
  229.00000    8.88670    7.24520   64.84800   20.34500    7.25700   60.76100
  229.50000    8.53930    6.55740   65.58700   19.84100    7.30700   60.84000
  230.00000    8.57390    6.77000   61.87600   19.37900    7.33400   60.91900
  230.50000    8.74860    6.98030   58.58800   19.59400    7.35500   60.97100
  231.00000    8.92330    7.18610   59.65400   19.80400    7.37600   61.00300
  231.50000    9.44620    7.59620   62.82000   20.01400    7.38800   61.03600
  232.00000   10.27600    8.56750   64.62800   20.20800    7.37700   61.06900
  232.50000   11.09700    9.63780   64.01800   20.16800    7.36600   61.06000
  233.00000   12.44700   10.99000   64.40500   20.12900    7.35600   61.04900
  233.50000   13.86100   12.34500   64.47600   20.08900    7.34500   61.03800
  234.00000   15.34100   13.73700   66.79500   20.05000    7.33400   61.02700
  234.50000   16.97800   15.16600   69.77400   20.01100    7.32300   61.01600
  235.00000   17.57600   16.12000   73.02200   19.97100    7.31200   61.00400
  235.50000   18.16100   16.53700   74.73700   19.93200    7.30200   60.99300
  236.00000   18.74600   17.00400   73.85600   19.89200    7.29100   60.98200
  236.50000   19.39700   17.52100   74.51000   19.85300    7.28000   60.97100
  237.00000   20.52100   18.04400   75.00600   19.81400    7.26900   60.96300
  237.50000   21.51900   19.05500   70.89800   19.63800    7.25800   60.95600
  238.00000   22.28800   19.66700   67.79100   19.26100    7.24800   60.94900
  238.50000   22.06000   19.25400   63.41300   18.88200    7.23700   60.94200
  239.00000   21.45400   18.83700   63.85400   18.50400    7.22600   60.93500
  239.50000   20.80100   18.10500   66.73200   18.12600    7.21500   60.92800
  240.00000   19.60700   17.21400   66.65500   17.74700    7.20500   60.92100
  240.50000   19.35800   16.31900   64.54400   17.36800    7.20200   60.91400
  241.00000   19.48500   15.84400   57.62300   17.29400    7.20000   60.90700
  241.50000   19.31200   15.42200   56.06800   17.33200    7.19800   60.90100
  242.00000   18.98200   15.52400   58.61000   17.36800    7.19500   60.89600
  242.50000   18.56700   15.69800   61.29700   17.40400    7.19300   60.90300
  243.00000   17.51900   15.87000   61.69500   17.44000    7.19000   60.91100
  243.50000   16.62000   15.52300   59.90800   17.47700    7.18800   60.91800
  244.00000   16.10100   14.91800   56.69100   17.51300    7.18600   60.92500
  244.50000   15.15900   13.21200   53.53500   17.54900    7.18300   60.93200
  245.00000   14.00400   12.01900   53.49500   17.58500    7.18100   60.93900
  245.50000   12.84900   10.77700   57.41400   17.62200    7.17800   60.94600
  246.00000   11.75100    9.67760   60.74400   17.65800    7.17600   60.95400
  246.50000   10.97900    8.75650   62.96200   17.67000    7.17400   60.96200
  247.00000   10.34700    7.89360   63.04400   17.51100    7.17100   60.97100
  247.50000   10.15000    7.75150   63.29500   17.35300    7.16900   60.98300
  248.00000    9.95230    7.61770   62.70100   17.19500    7.16600   60.99400
  248.50000    9.76790    7.48380   64.66300   17.03800    7.16400   61.00600
  249.00000    9.60120    7.34540   64.95200   16.87800    7.16200   61.01800
  249.50000    9.43570    7.34070   63.92800   16.70200    7.15900   61.03000
  250.00000    9.29390    7.33880   60.42000   16.51900    7.15700   61.04200
  250.50000    9.69500    7.49620   58.27900   16.33600    7.15500   61.05400
  251.00000   10.10200    8.05790   59.29400   16.15300    7.15200   61.06600
  251.50000   11.30600    8.54870   64.35400   15.96900    7.15000   61.07800
  252.00000   12.59800    9.05140   68.17900   15.78600    7.14700   61.09000
  252.50000   14.12600   10.55500   68.19100   15.60300    7.14500   61.10200
  253.00000   15.64800   12.00800   65.35300   15.42000    7.14300   61.11400
  253.50000   17.75300   13.80300   64.04100   15.23600    7.14000   61.12500
  254.00000   20.04100   16.11200   64.25400   15.05300    7.13800   61.13700
  254.50000   22.27500   18.41400   65.32800   14.86500    7.13500   61.14900
  255.00000   23.82100   20.35000   65.59300   15.02600    7.13300   61.16300
  255.50000   24.51700   22.37300   63.14400   15.85400    7.13100   61.17700
  256.00000   25.14700   25.02900   57.25100   16.70500    7.12800   61.19000
  256.50000   25.56800   27.68400   54.61500   16.84900    7.12600   61.18100
  257.00000   26.16100   30.74500   57.23700   16.84900    7.12300   61.17200
  257.50000   27.68100   33.19600   60.25600   16.84900    7.12100   61.16300
  258.00000   28.80400   33.99900   58.86800   16.84800    7.11900   61.15400
  258.50000   29.14800   34.84800   54.25200   16.77400    7.11600   61.14500
  259.00000   27.87600   34.49100   52.42700   16.63400    7.11400   61.20300
