~Version ---------------------------------------------------
VERS.   2.0 : CWLS log ASCII Standard -VERSION 2.0
WRAP.    NO : One line per depth step
DLM . SPACE : Column Data Section Delimiter
~Well ------------------------------------------------------
STRT.F     2.0 : START DEPTH
STOP.F   342.0 : STOP DEPTH
STEP.F     0.5 : STEP
NULL. -9999.25 : NULL VALUE
COMP.          : COMPANY
WELL.          : WELL
FLD .          : FIELD
LOC .          : LOCATION
PROV.          : PROVINCE
CNTY.          : COUNTY
STAT.          : STATE
CTRY.          : COUNTRY
SRVC.          : SERVICE COMPANY
DATE.          : DATE
UWI .          : UNIQUE WELL ID
API .          : API NUMBER
~Curve Information -----------------------------------------
DEPT.F     : 
RILD.      : 
RILM.      : 
GR  .      : 
SP  .      : 
FRES.OHMM  : 
TMP .DEGF  : 
~Params ----------------------------------------------------
~Other -----------------------------------------------------
~ASCII -----------------------------------------------------
# ...
  259.50000   27.15100   32.99600   52.77600   16.49400    7.11800   61.26200
  260.00000   25.84400   31.37500   56.41300   16.35400    7.13900   61.32000
  260.50000   25.97800   30.63500   60.99600   16.21400    7.16000   61.37800
  261.00000   26.44200   30.88500   62.36300   16.07300    7.18500   61.42800
  261.50000   27.41900   31.14700   59.82200   15.72800    7.21400   61.46700
  262.00000   27.68600   30.58600   58.07500   15.20300    7.24300   61.50600
  262.50000   27.42400   30.00900   57.57500   14.67700    7.27200   61.54400
  263.00000   27.11300   29.53200   57.67500   14.25200    7.30100   61.58300
  263.50000   26.74700   28.89700   60.35500   14.02800    7.33000   61.62100
  264.00000   26.27100   27.60400   61.41300   13.81700    7.35900   61.66000
  264.50000   25.20800   26.85000   62.75400   13.62500    7.38800   61.69800
  265.00000   24.30700   26.08300   62.31500   13.43200    7.41700   61.73700
  265.50000   23.49800   25.15700   64.94100   13.23900    7.44600   61.77500
  266.00000   22.83400   23.98800   66.64100   13.04600    7.47500   61.81400
  266.50000   22.76900   22.74600   65.45200   12.85300    7.50400   61.85300
  267.00000   22.70100   21.23900   62.04100   12.66000    7.53300   61.89100
  267.50000   22.63100   20.54700   57.28600   12.46700    7.56200   61.93000
  268.00000   22.57500   19.93400   51.74100   12.27400    7.59100   61.96800
  268.50000   22.56900   19.49000   50.32500   12.08100    7.62000   62.00700
  269.00000   21.88700   18.84500   53.02500   11.88800    7.64900   62.04500
  269.50000   20.72800   17.99500   56.46000   11.69500    7.67800   62.08400
  270.00000   19.54400   16.51500   59.22800   11.49700    7.74100   62.13000
  270.50000   18.06600   14.93200   62.18800   12.32700    7.82000   62.18800
  271.00000   16.66600   13.26900   64.95500   14.64700    7.89900   62.24600
  271.50000   15.26600   11.60600   64.12200   16.97700    7.97800   62.30400
  272.00000   13.75800    9.93860   61.94500   18.97200    8.05700   62.36200
  272.50000   12.81800    8.67130   61.12300   20.28800    8.12100   62.42000
  273.00000   11.96900    8.48380   61.84700   20.00800    8.14500   62.47800
  273.50000   11.55000    7.96420   62.45300   19.01300    8.16900   62.53200
  274.00000   11.38300    8.20240   61.42300   17.65800    8.19100   62.58300
  274.50000   12.38100    9.15090   56.79300   16.31200    8.20300   62.60900
  275.00000   13.40600   10.31000   50.76200   14.95800    8.21600   62.62600
  275.50000   14.82000   11.51100   48.02000   13.59900    8.22900   62.64400
  276.00000   16.21500   13.45200   49.37000   11.74500    8.24200   62.66100
  276.50000   17.83100   15.41000   50.34500    9.62140    8.25400   62.67900
  277.00000   19.48800   16.90000   48.76900    7.72480    8.26700   62.69600
  277.50000   21.52900   18.14600   50.67000    6.18530    8.28000   62.71400
  278.00000   22.67700   19.18200   54.46500    5.60360    8.29300   62.73100
  278.50000   22.61300   19.53400   56.98700    5.02130    8.28600   62.80300
  279.00000   22.02200   19.53000   56.66700    4.43920    8.24200   62.89400
  279.50000   21.42800   19.52700   53.38600    4.13630    8.19800   63.06500
  280.00000   20.94200   19.48300   53.74700    3.98170    8.12900   63.28900
  280.50000   20.52600   18.11700   54.06900    3.84580    8.05500   63.51300
  281.00000   20.11000   16.79700   54.82000    4.79780    7.98000   63.71500
  281.50000   19.77000   15.65300   53.45100    5.50470    7.90600   63.89000
  282.00000   19.64100   15.84700   52.84800    5.45680    7.83100   64.06500
  282.50000   19.64400   16.43500   51.65300    4.00750    7.75600   64.30900
  283.00000   20.61500   17.37700   50.44700    2.61190    7.68200   64.55200
  283.50000   21.57500   19.37600   52.60600    1.82220    7.62600   64.74100
  284.00000   22.53200   21.12600   55.02200    1.35420    7.60800   64.91700
  284.50000   23.43300   22.25600   55.43100    0.87716    7.59000   65.07400
  285.00000   24.25400   23.00100   55.56200    0.13968    7.57200   65.16500
  285.50000   24.83200   23.32300   58.23300   -0.60362    7.55300   65.24600
  286.00000   25.62200   23.40800   60.07100   -0.73501    7.53900   65.31500
  286.50000   26.04700   23.40800   58.49200   -0.64262    7.53900   65.37100
  287.00000   26.27500   23.37600   57.62000   -0.55224    7.53900   65.42700
  287.50000   26.84200   23.28100   58.89700   -0.46347    7.53900   65.48400
  288.00000   27.24500   23.18500   62.04700   -0.40284    7.53900   65.54000
  288.50000   26.93800   23.44600   61.84100   -1.12590    7.53900   65.59600
  289.00000   26.38100   24.03800   60.21600   -1.82550    7.53900   65.64300
  289.50000   25.90400   24.26900   58.77000   -2.52530    7.53900   65.68200
  290.00000   26.01200   24.50800   56.06700   -3.06910    7.53900   65.69000
  290.50000   26.11100   24.82500   52.70800   -3.43260    7.53900   65.69400
  291.00000   26.21000   25.15800   50.80200   -3.79580    7.53900   65.69800
  291.50000   26.30900   25.48500   50.87700   -4.15260    7.53900   65.70400
  292.00000   26.40900   25.22900   52.88200   -4.15940    7.53900   65.71000
  292.50000   26.65000   24.56500   55.44400   -4.15950    7.53900   65.71500
  293.00000   27.01600   23.90600   57.38200   -4.15980    7.53900   65.72100
  293.50000   27.42400   23.75400   57.49000   -4.23160    7.53900   65.72600
  294.00000   27.80300   23.86600   58.20800   -4.83030    7.53900   65.73200
  294.50000   27.55100   23.78200   58.02900   -5.44120    7.53900   65.73800
  295.00000   26.63100   22.28300   63.61300   -6.14050    7.53900   65.74300
  295.50000   24.90400   20.56200   66.90000   -5.92600    7.53900   65.74900
  296.00000   22.92900   18.18300   69.00100   -5.83940    7.53900   65.75500
  296.50000   21.10800   15.67500   68.94700   -5.53200    7.53900   65.76000
  297.00000   19.26800   12.96300   69.05400   -2.94620    7.53900   65.76600
  297.50000   17.43300   11.44400   68.07900    0.04212    7.53900   65.77200
  298.00000   15.66900    9.41690   66.69100    2.49550    7.53900   65.77700
  298.50000   14.07500    9.16950   64.41900    3.54850    7.53900   65.78300
  299.00000   12.96600    9.21270   65.69400    3.82690    7.53900   65.78900
  299.50000   12.18900    9.07670   68.54200    3.82400    7.53900   65.79400
  300.00000   11.74700    8.93740   67.85400    3.82350    7.53900   65.80000
  300.50000   11.66200    8.79970   62.70200    3.82350    7.53400   65.80500
  301.00000   11.57800    8.43250   59.54700    3.82350    7.52200   65.81100
  301.50000   11.49200    7.82170   60.04500    3.82280    7.51000   65.81900
  302.00000   11.23100    7.39710   60.92800    3.76330    7.49800   65.84000
  302.50000   10.95500    7.66530   60.76800    3.70100    7.48400   65.86100
  303.00000   11.80100    7.83780   63.28200    3.63870    7.46900   65.88300
  303.50000   12.75100    8.50340   65.53600    3.57630    7.45400   65.90400
  304.00000   14.47600   10.30100   65.10800    3.51460    7.44000   65.92700
  304.50000   16.26300   12.39500   61.70400    3.45560    7.42500   65.96100
  305.00000   19.34500   16.06300   55.68300    3.00730    7.41000   66.02000
  305.50000   22.14800   19.68400   52.92700    2.22820    7.39600   66.07200
  306.00000   26.09000   23.34200   55.29300    2.38450    7.38100   66.10300
  306.50000   28.69100   25.34700   58.06200    2.54110    7.36700   66.12700
  307.00000   30.61800   26.04700   57.73600    2.65170    7.35200   66.13800
  307.50000   31.74000   26.33000   55.21500    2.75560    7.33700   66.14900
  308.00000   32.54200   26.60700   54.31500    2.86000    7.32300   66.16000
  308.50000   32.64100   26.03300   53.74600    2.96860    7.30800   66.17500
  309.00000   32.07000   24.83700   50.95500    2.76240    7.29400   66.19700
  309.50000   31.81800   24.13400   48.82200    2.48880    7.27900   66.21800
  310.00000   32.03400   23.61500   49.77900    2.21530    7.26400   66.24000
  310.50000   32.62900   23.20300   50.30200    1.94200    7.25000   66.26100
