~Version ---------------------------------------------------
VERS.   2.0 : CWLS log ASCII Standard -VERSION 2.0
WRAP.    NO : One line per depth step
DLM . SPACE : Column Data Section Delimiter
~Well ------------------------------------------------------
STRT.F    40.0 : START DEPTH
STOP.F   352.0 : STOP DEPTH
STEP.F     0.5 : STEP
NULL. -9999.25 : NULL VALUE
COMP.          : COMPANY
WELL.          : WELL
FLD .          : FIELD
LOC .          : LOCATION
PROV.          : PROVINCE
CNTY.          : COUNTY
STAT.          : STATE
CTRY.          : COUNTRY
SRVC.          : SERVICE COMPANY
DATE.          : DATE
UWI .          : UNIQUE WELL ID
API .          : API NUMBER
~Curve Information -----------------------------------------
DEPT.F     : 
RILM.      : 
RILD.      : 
GR  .      : 
SP  .      : 
FRES.OHMM  : 
TMP .DEGF  : 
~Params ----------------------------------------------------
~Other -----------------------------------------------------
~ASCII -----------------------------------------------------
# ...
  246.00000    2.44210    2.29630   52.48000   52.37900    3.99100   63.37500
  246.50000    2.42420    2.28360   56.63400   57.00000    4.04100   63.37300
  247.00000    2.40630    2.27480   58.70200   60.16300    4.09000   63.37100
  247.50000    2.38830    2.26600   59.97800   62.03400    4.13900   63.36900
  248.00000    2.37040    2.25720   59.85300   62.34500    4.18800   63.36700
  248.50000    2.35250    2.24840   59.66500   63.36800    4.23700   63.36500
  249.00000    2.33460    2.23960   58.25100   63.08200    4.28600   63.36300
  249.50000    2.31670    2.23080   57.16600   62.88200    4.33600   63.36100
  250.00000    2.29880    2.22200   54.96800   62.68900    4.38500   63.35900
  250.50000    2.28090    2.21320   52.75200   61.11800    4.43400   63.35700
  251.00000    2.26300    2.20440   51.55800   57.53600    4.48300   63.35500
  251.50000    2.24510    2.19560   52.15900   53.94600    4.53200   63.35300
  252.00000    2.22720    2.18680   50.27300   51.74800    4.58100   63.35100
  252.50000    2.20930    2.17800   48.04200   52.22200    4.63000   63.34900
  253.00000    2.19140    2.16920   48.21700   52.66300    4.68000   63.34700
  253.50000    2.17350    2.16040   49.40700   52.80200    4.72900   63.34500
  254.00000    2.15550    2.15170   49.55600   52.63600    4.77800   63.34300
  254.50000    2.13760    2.14290   49.70700   52.96700    4.82700   63.34100
  255.00000    2.11970    2.13410   51.25600   55.85900    4.87600   63.33900
  255.50000    2.10180    2.12530   53.50400   59.06600    4.92900   63.34000
  256.00000    2.08390    2.11650   57.75300   60.28600    4.98300   63.34200
  256.50000    2.06600    2.10770   61.07700   59.23900    5.03700   63.34500
  257.00000    2.04810    2.09890   62.24200   57.65500    5.09100   63.34700
  257.50000    2.03020    2.09010   60.76600   56.07200    5.13800   63.35000
  258.00000    2.01230    2.08130   58.14500   54.49100    5.15400   63.35200
  258.50000    1.99440    2.07250   52.53000   53.11400    5.17100   63.35500
  259.00000    1.97650    2.06370   49.74900   52.55600    5.18700   63.35700
  259.50000    1.95860    2.05490   47.72800   52.00800    5.20300   63.36000
  260.00000    1.94070    2.04610   49.26900   51.44900    5.22000   63.36300
  260.50000    1.92280    2.03730   55.51000   52.27400    5.23600   63.36500
  261.00000    1.90470    2.02850   64.15000   55.82300    5.25200   63.36800
  261.50000    1.88580    2.01900   68.75200   60.12100    5.25500   63.37000
  262.00000    1.95050    2.06200   70.82000   63.81400    5.25500   63.37300
  262.50000    2.17500    2.20530   68.30400   66.12600    5.25500   63.37700
  263.00000    2.40050    2.34920   65.44900   66.41600    5.25500   63.39100
  263.50000    2.62620    2.49260   61.26300   66.66100    5.25500   63.40500
  264.00000    2.85380    2.64680   60.00300   66.90400    5.24500   63.41900
  264.50000    3.11510    2.81060   61.78200   67.14600    5.21100   63.43400
  265.00000    3.05290    2.98000   64.04000   67.38900    5.17800   63.44800
  265.50000    2.99380    2.88210   65.81000   67.74700    5.14400   63.46200
  266.00000    2.93590    2.77130   66.40700   68.24000    5.11000   63.47600
  266.50000    2.87830    2.66020   66.41600   67.55700    5.07700   63.49100
  267.00000    2.74470    2.54910   65.34500   66.15100    5.04300   63.50500
  267.50000    2.52880    2.43800   61.23800   64.66600    5.00900   63.51900
  268.00000    2.31120    2.32690   56.66500   62.80100    4.97000   63.53300
  268.50000    2.13990    2.21570   54.85800   60.24000    4.91800   63.54800
  269.00000    2.09390    2.10460   54.51200   58.57900    4.86700   63.56200
  269.50000    2.04780    1.99360   51.96300   56.91100    4.81500   63.57600
  270.00000    2.00150    1.87890   49.86800   54.80500    4.76300   63.59000
  270.50000    1.95520    1.88520   51.39100   53.57300    4.71100   63.60500
  271.00000    1.90900    1.89580   54.25100   53.36800    4.65900   63.61900
  271.50000    1.86270    1.90650   55.59300   53.37000    4.60700   63.63300
  272.00000    1.81640    1.91720   55.50400   53.37100    4.55500   63.64700
  272.50000    1.77010    1.92800   54.78600   53.22700    4.50400   63.66200
  273.00000    1.72380    1.93870   53.75300   52.94400    4.45200   63.67600
  273.50000    1.67740    1.94950   54.06700   53.97300    4.40000   63.69000
  274.00000    1.63090    1.96020   53.96800   55.91500    4.34800   63.70400
  274.50000    1.60030    1.97090   53.99800   56.76400    4.29600   63.71900
  275.00000    1.61290    1.98170   55.22400   57.41500    4.24400   63.73300
  275.50000    1.62530    1.99240   56.91000   56.57800    4.19300   63.74700
  276.00000    1.63770    2.00310   58.52900   55.51800    4.14100   63.76100
  276.50000    1.65010    2.01340   56.26700   55.27000    4.09700   63.77600
  277.00000    1.66250    2.00160   55.26500   55.12200    4.05500   63.79000
  277.50000    1.67490    1.98940   54.21100   54.97300    4.01300   63.80400
  278.00000    1.68730    1.97710   55.90200   54.82100    3.97100   63.81800
  278.50000    1.69970    1.96490   55.60600   54.35300    3.92900   63.83300
  279.00000    1.71210    1.95260   56.33400   53.65600    3.88700   63.84700
  279.50000    1.72450    1.94040   56.83300   52.99400    3.85600   63.86100
  280.00000    1.73690    1.92810   57.53400   52.43100    3.83000   63.87400
  280.50000    1.74930    1.91580   56.58300   51.87500    3.80400   63.88800
  281.00000    1.76170    1.90360   52.55400   51.31800    3.77800   63.90100
  281.50000    1.77410    1.89130   48.51400   50.74700    3.75200   63.91500
  282.00000    1.78650    1.87910   46.71700   50.04100    3.72600   63.92800
  282.50000    1.79890    1.87490   46.68200   49.34500    3.70000   63.94200
  283.00000    1.81130    1.87500   48.00400   48.64800    3.67400   63.95500
  283.50000    1.82370    1.87500   48.02300   47.94800    3.64800   63.96800
  284.00000    1.83610    1.87500   48.05300   47.84700    3.62300   63.98200
  284.50000    1.84850    1.87500   50.28700   48.77500    3.59700   63.99500
  285.00000    1.86100    1.87500   52.21900   49.93500    3.57100   64.00900
  285.50000    1.87350    1.87500   52.54400   51.10100    3.55100   64.02200
  286.00000    1.87500    1.87500   51.44600   51.84900    3.53800   64.03600
  286.50000    1.87500    1.87500   50.45000   51.26200    3.52600   64.04900
  287.00000    1.87500    1.87500   50.00500   50.67300    3.51400   64.06300
  287.50000    1.87500    1.87500   51.88600   50.64600    3.50200   64.07600
  288.00000    1.87500    1.87500   53.50800   52.92900    3.48900   64.08900
  288.50000    1.87500    1.87500   53.53300   54.23300    3.47700   64.10300
  289.00000    1.87500    1.87500   51.44500   52.29700    3.46500   64.11600
  289.50000    1.87500    1.87500   49.33600   51.13200    3.45200   64.13000
  290.00000    1.87500    1.87510   48.74500   51.05000    3.44000   64.14300
  290.50000    1.87500    1.87660   46.56800   49.28700    3.42800   64.15700
  291.00000    1.87500    1.78160   45.37500   48.72900    3.41500   64.17000
  291.50000    1.87500    1.67390   47.92200   50.19800    3.40300   64.18400
  292.00000    1.87500    1.56620   51.17900   52.11400    3.39100   64.19700
  292.50000    1.87500    1.46140   53.28500   52.68600    3.37800   64.21000
  293.00000    1.86760    1.51050   54.84300   53.24100    3.36600   64.22400
  293.50000    1.85750    1.56250   57.18700   56.24400    3.35400   64.23700
  294.00000    1.84740    1.61460   60.91900   59.76500    3.34200   64.25100
  294.50000    1.83720    1.66670   65.22000   62.87800    3.32900   64.26400
  295.00000    1.82710    1.71880   67.99700   64.68600    3.31700   64.27800
  295.50000    1.81700    1.77080   65.84600   64.05400    3.30500   64.29100
  296.00000    1.80690    1.82280   63.54500   58.15800    3.29200   64.30500
  296.50000    1.79680    1.87340   64.47300   52.90200    3.28000   64.31800
  297.00000    1.78670    1.84160   67.72400   51.88100    3.26800   64.33100
