~Version ---------------------------------------------------
VERS.   2.0 : CWLS log ASCII Standard -VERSION 2.0
WRAP.    NO : One line per depth step
DLM . SPACE : Column Data Section Delimiter
~Well ------------------------------------------------------
STRT.F    40.0 : START DEPTH
STOP.F   352.0 : STOP DEPTH
STEP.F     0.5 : STEP
NULL. -9999.25 : NULL VALUE
COMP.          : COMPANY
WELL.          : WELL
FLD .          : FIELD
LOC .          : LOCATION
PROV.          : PROVINCE
CNTY.          : COUNTY
STAT.          : STATE
CTRY.          : COUNTRY
SRVC.          : SERVICE COMPANY
DATE.          : DATE
UWI .          : UNIQUE WELL ID
API .          : API NUMBER
~Curve Information -----------------------------------------
DEPT.F     : 
RILM.      : 
RILD.      : 
GR  .      : 
SP  .      : 
FRES.OHMM  : 
TMP .DEGF  : 
~Params ----------------------------------------------------
~Other -----------------------------------------------------
~ASCII -----------------------------------------------------
   40.00000    0.48611    0.48611   52.47900   -9.58220   -9999.25   -9999.25
   40.50000    0.48611    0.48983   49.07300   -9.58220   -9999.25   -9999.25
   41.00000    0.48602    0.49771   44.88600   -9.58030   -9999.25   -9999.25
   41.50000    0.48611    0.50712   44.08200   -9.58220   -9999.25   -9999.25
   42.00000    0.48611    0.51643   46.85200   -9.58220   -9999.25   -9999.25
   42.50000    0.48611    0.52574   49.62100   -9.58220   -9999.25   -9999.25
   43.00000    0.48611    0.53505   50.87600   -9.58220   -9999.25   -9999.25
   43.50000    0.48611    0.54436   47.32700   -9.58220   -9999.25   -9999.25
   44.00000    0.48611    0.55367   43.27800   -9.58220   -9999.25   -9999.25
   44.50000    0.48611    0.56298   39.22600   -9.58220   -9999.25   -9999.25
   45.00000    0.48611    0.57229   35.17600   -9.58830   -9999.25   -9999.25
   45.50000    0.48611    0.58160   31.92900   -9.62980   -9999.25   -9999.25
   46.00000    0.48611    0.59091   31.57700   -5.72530   -9999.25   -9999.25
   46.50000    0.48611    0.60022   33.48900    2.68310   -9999.25   -9999.25
   47.00000    0.48611    0.60953   34.20400   11.02600   -9999.25   -9999.25
   47.50000    0.48611    0.61884   34.14700   27.85400   -9999.25   -9999.25
   48.00000    0.48611    0.62815   33.17500   38.89000   -9999.25   -9999.25
   48.50000    0.48611    0.63746   32.96500   20.00300   -9999.25   -9999.25
   49.00000    0.48611    0.64677   35.08700   -2.02820   -9999.25   -9999.25
   49.50000    0.48611    0.65608   37.86800   -9.37260   -9999.25   -9999.25
   50.00000    0.48611    0.66539   38.60300   -9.35070    5.68300   62.76500
   50.50000    0.48611    0.67470   35.48700   -9.37580    5.68500   62.68700
   51.00000    0.48611    0.68401   32.36300   -9.40940    5.68700   62.60900
   51.50000    0.48611    0.69332   31.25100   -9.44300    5.68900   62.53000
   52.00000    0.48611    0.70263   33.49000   -9.47660    5.69100   62.46400
   52.50000    0.48611    0.71193   35.07900   -9.51020    5.69600   62.44300
   53.00000    0.48611    0.72124   35.90300   -9.55410    5.70300   62.42200
   53.50000    0.48611    0.73055   35.82600   -9.68590    5.71000   62.40100
   54.00000    0.48611    0.73986   35.56000   -3.32310    5.71700   62.38000
   54.50000    0.48611    0.74917   34.36800   13.61000    5.72400   62.35900
   55.00000    0.48611    0.75848   35.40100   38.53200    5.73200   62.33800
   55.50000    0.48611    0.76779   35.73900   53.79600    5.73900   62.31600
   56.00000    0.48611    0.77710   34.81500   62.32100    5.74600   62.29500
   56.50000    0.48611    0.78641   30.51900   68.50100    5.75300   62.27400
   57.00000    0.48611    0.79572   26.83800   73.83800    5.76000   62.27500
   57.50000    0.48611    0.80503   26.74700   75.72000    5.76700   62.27600
   58.00000    0.48611    0.81434   28.56800   73.35700    5.77500   62.27800
   58.50000    0.48611    0.82365   32.23400   71.03200    5.78200   62.28000
   59.00000    0.48611    0.83296   35.99300   68.69700    5.78900   62.28100
   59.50000    0.48611    0.84227   39.34400   65.66100    5.79600   62.28300
   60.00000    0.48611    0.85158   40.53800   64.74800    5.80300   62.28400
   60.50000    0.48611    0.86089   38.33400   62.85100    5.81000   62.28600
   61.00000    0.48611    0.87020   36.00000   57.93200    5.81800   62.28800
   61.50000    0.48611    0.87951   34.25600   38.09300    5.82500   62.28900
   62.00000    0.48611    0.88882   34.71300    0.12147    5.83200   62.29200
   62.50000    0.48611    0.89828   37.32800   -9.55530    5.83900   62.31400
   63.00000    0.48611    0.95788   39.92000   -9.51430    5.84600   62.33500
   63.50000    0.48611    1.06730   41.79600   -9.48900    5.85400   62.35600
   64.00000    0.48611    1.17410   42.02700   -9.45540    5.86100   62.36800
   64.50000    0.48611    0.90092   40.35700   -9.42170    5.86800   62.37300
   65.00000    0.48611    0.61343   39.77500   -9.38810    5.87500   62.37700
   65.50000    0.48611    0.32612   39.77400   -9.34920    5.88200   62.38200
   66.00000    0.48611    0.07871   43.54700  -10.13400    5.88900   62.38700
   66.50000    0.48509    0.21989   51.66300   12.21100    5.89700   62.39100
   67.00000    0.47336    0.35701   56.45700   56.44000    5.90400   62.39300
   67.50000    1.17330    0.49701   58.53100   74.65300    5.91100   62.39300
   68.00000    4.08320    0.95764   56.74700   82.36400    5.91800   62.39300
   68.50000   15.39300    2.61520   54.98500   85.41600    5.92500   62.39300
   69.00000   26.08000   11.99000   54.42200   87.00000    5.93200   62.39300
   69.50000   30.37700   21.53000   54.17700   88.45500    5.94000   62.39300
   70.00000   31.96200   25.69200   52.51400   87.90700    5.94700   62.39100
   70.50000   32.30700   25.94700   49.68900   87.35900    5.95400   62.38800
   71.00000   31.20400   25.85500   49.27500   85.69700    5.96000   62.38500
   71.50000   30.62500   25.80400   52.68000   83.94400    5.96700   62.38300
   72.00000   30.79400   25.65800   56.73900   82.19200    5.97400   62.38000
   72.50000   31.57700   25.23900   58.97200   81.07100    5.98000   62.37700
   73.00000   30.77000   24.82200   59.34000   80.37900    5.98700   62.37500
   73.50000   29.73500   24.44200   61.18300   80.39000    5.99300   62.37200
   74.00000   29.76400   24.58200   63.56100   80.62800    6.00000   62.36900
   74.50000   30.99400   24.91900   64.18700   81.27600    6.00700   62.36700
   75.00000   32.92600   25.66000   64.17300   81.75200    6.01300   62.36400
   75.50000   34.78900   26.61800   62.93500   81.62500    6.03200   62.36100
   76.00000   35.40400   27.60100   56.89300   81.49900    6.08700   62.35900
   76.50000   35.21900   28.92500   50.81000   81.37400    6.14400   62.35100
   77.00000   36.24300   30.60300   51.79300   81.24900    6.26500   62.26900
   77.50000   39.17800   32.51600   55.64000   81.12300    6.40300   62.18800
   78.00000   43.03600   34.32500   57.54000   81.00000    6.54100   62.10600
   78.50000   43.95200   34.78900   55.43100   81.04100    6.67900   62.02500
   79.00000   40.16700   35.11600   53.33700   81.20300    6.81700   61.94400
   79.50000   35.63900   35.01900   51.63200   81.36300    6.95500   61.86200
   80.00000   31.14700   34.06200   50.71900   81.47300    7.09300   61.78100
   80.50000   26.22500   31.26000   52.61200   81.11700    7.23100   61.69900
   81.00000   22.58500   28.12600   57.40600   77.05100    7.33500   61.61800
   81.50000   19.12600   25.58600   59.82500   70.01600    7.42900   61.53600
   82.00000   18.70800   23.99000   59.99400   62.97500    7.48400   61.50200
   82.50000   19.74500   23.81800   59.88200   55.99700    7.50200   61.47400
   83.00000   21.83100   24.42800   55.88000   51.79900    7.52100   61.46800
   83.50000   24.10100   24.91900   51.95100   47.95100    7.54000   61.46200
   84.00000   24.03400   24.76700   48.01700   44.09700    7.55800   61.45600
   84.50000   21.85000   23.39700   44.10800   41.44000    7.57700   61.45000
   85.00000   18.65800   21.86400   43.64400   40.25600    7.59600   61.44400
   85.50000   16.03300   19.92700   51.30300   39.28300    7.61400   61.43800
   86.00000   13.44800   17.99000   61.21600   38.76100    7.63300   61.43200
   86.50000   11.75100   16.36700   63.06700   38.09600    7.64700   61.42500
   87.00000   10.48300   15.06100   62.81900   36.55700    7.66100   61.41900
   87.50000   10.61400   14.72100   64.52300   34.63900    7.67500   61.41300
   88.00000   11.51300   14.90500   66.97300   32.55200    7.68900   61.40700
   88.50000   12.82900   15.68500   65.64100   30.46500    7.70300   61.40100
   89.00000   14.14600   17.21000   62.11300   28.37900    7.71700   61.39500
   89.50000   15.46300   18.77700   59.05400   26.29200    7.73100   61.38900
   90.00000   16.77200   20.19500   57.86200   24.28800    7.74500   61.38300
   90.50000   17.65900   20.74800   55.37100   22.42800    7.75900   61.37700
   91.00000   17.01900   20.62500   51.87600   20.56900    7.77300   61.37100
