~Version ---------------------------------------------------
VERS.   2.0 : CWLS log ASCII Standard -VERSION 2.0
WRAP.    NO : One line per depth step
DLM . SPACE : Column Data Section Delimiter
~Well ------------------------------------------------------
STRT.F    40.0 : START DEPTH
STOP.F   352.0 : STOP DEPTH
STEP.F     0.5 : STEP
NULL. -9999.25 : NULL VALUE
COMP.          : COMPANY
WELL.          : WELL
FLD .          : FIELD
LOC .          : LOCATION
PROV.          : PROVINCE
CNTY.          : COUNTY
STAT.          : STATE
CTRY.          : COUNTRY
SRVC.          : SERVICE COMPANY
DATE.          : DATE
UWI .          : UNIQUE WELL ID
API .          : API NUMBER
~Curve Information -----------------------------------------
DEPT.F     : 
RILM.      : 
RILD.      : 
GR  .      : 
SP  .      : 
FRES.OHMM  : 
TMP .DEGF  : 
~Params ----------------------------------------------------
~Other -----------------------------------------------------
~ASCII -----------------------------------------------------
# ...
  297.50000    1.77660    1.80830   67.79600   51.40600    3.26000   64.34500
  298.00000    1.76650    1.77500   64.47900   49.32000    3.25200   64.35800
  298.50000    1.75630    1.74170   61.74200   47.23300    3.24400   64.37200
  299.00000    1.74620    1.70830   59.95300   45.63000    3.23600   64.38500
  299.50000    1.73610    1.67500   58.98200   45.29800    3.22800   64.39900
  300.00000    1.72600    1.64170   57.01100   46.16500    3.22000   64.42000
  300.50000    1.71590    1.60830   55.46900   46.92200    3.21200   64.44300
  301.00000    1.70580    1.57500   53.45100   45.92600    3.20400   64.46700
  301.50000    1.69570    1.54170   51.75300   44.20200    3.19600   64.49000
  302.00000    1.68550    1.50830   51.92600   43.89500    3.18800   64.51300
  302.50000    1.67540    1.47500   54.43100   43.89900    3.18000   64.53700
  303.00000    1.66530    1.44170   56.20800   43.89900    3.17200   64.56000
  303.50000    1.65520    1.40830   56.52400   43.89800    3.16400   64.58400
  304.00000    1.64510    1.37500   56.03700   44.20400    3.15600   64.60700
  304.50000    1.63500    1.34140   54.71200   44.62300    3.14800   64.63100
  305.00000    1.62490    1.32780   52.74600   45.17300    3.14000   64.65400
  305.50000    1.61470    1.35250   52.21800   46.60100    3.13200   64.67800
  306.00000    1.60460    1.37730   52.39700   48.30800    3.12400   64.70100
  306.50000    1.59720    1.40210   50.04800   50.40800    3.11600   64.72400
  307.00000    1.59720    1.42690   49.02400   52.61700    3.10800   64.74800
  307.50000    1.59720    1.45170   51.24300   53.36700    3.10000   64.77100
  308.00000    1.59720    1.47650   55.08800   52.02400    3.09200   64.79500
  308.50000    1.59720    1.50130   57.19800   50.65600    3.08400   64.81800
  309.00000    1.59720    1.52610   57.07600   51.08300    3.07600   64.84200
  309.50000    1.59720    1.55090   54.94900   51.82600    3.06800   64.86500
  310.00000    1.59720    1.57570   54.65900   51.49100    3.06000   64.88800
  310.50000    1.59720    1.60150   54.34400   51.15600    3.05200   64.91200
  311.00000    1.59720    1.63370   54.42900   51.46100    3.04400   64.93500
  311.50000    1.59720    1.66600   54.98600   52.67000    3.03600   64.95900
  312.00000    1.59720    1.69820   56.07700   53.84100    3.02800   64.98200
  312.50000    1.59720    1.73040   58.88500   55.01500    3.02000   65.00600
  313.00000    1.59720    1.76260   60.39100   54.88900    3.01200   65.02900
  313.50000    1.59720    1.79480   59.76700   54.28700    3.00400   65.05300
  314.00000    1.59720    1.82700   56.20100   53.69000    2.99600   65.07600
  314.50000    1.59720    1.85920   55.53300   53.12100    2.98800   65.09900
  315.00000    1.59720    1.89150   56.39000   54.24700    2.98000   65.12300
  315.50000    1.59720    1.92370   59.07500   56.88600    2.97200   65.14600
  316.00000    1.59800    1.95590   63.06200   59.88500    2.96400   65.17000
  316.50000    1.77960    1.98810   67.28000   61.68600    2.95600   65.19300
  317.00000    1.97480    2.03920   68.33200   62.84900    2.94800   65.21700
  317.50000    2.17010    2.18720   67.71700   64.14600    2.94000   65.24000
  318.00000    2.36550    2.33220   69.49500   64.79400    2.93200   65.26300
  318.50000    2.56080    2.47690   71.24600   65.20800    2.92400   65.28700
  319.00000    2.75610    2.62150   70.69900   65.73100    2.91600   65.31000
  319.50000    2.95140    2.76620   70.39200   66.30900    2.90800   65.33400
  320.00000    3.14720    2.91090   71.56000   67.27900    2.90000   65.35700
  320.50000    3.27590    3.05560   73.16000   67.84900    2.89200   65.38100
  321.00000    3.30940    3.20030   74.54000   67.85500    2.88400   65.40400
  321.50000    3.34200    3.34440   74.20700   67.84100    2.87600   65.42800
  322.00000    3.37450    3.40310   72.75000   67.13700    2.86800   65.45100
  322.50000    3.38940    3.40280   67.45300   66.67700    2.86000   65.47400
  323.00000    3.27420    3.40280   62.28200   65.58800    2.85200   65.49800
  323.50000    3.16040    3.36450   59.76900   63.19300    2.84400   65.52100
  324.00000    3.04670    3.30710   63.20500   59.47000    2.83600   65.54500
  324.50000    2.93310    3.17950   66.32200   58.08500    2.82800   65.56800
  325.00000    2.81940    2.85980   65.70300   56.70800    2.82000   65.59200
  325.50000    2.70580    2.62860   64.84000   56.00800    2.81200   65.61500
  326.00000    2.59090    2.48020   64.61200   55.80600    2.80400   65.63800
  326.50000    2.41100    2.33130   62.31800   54.76500    2.79600   65.66200
  327.00000    2.21250    2.18260   57.07800   53.71800    2.78800   65.68500
  327.50000    2.01770    2.03390   50.69300   52.66900    2.78000   65.70900
  328.00000    2.01400    1.88050   52.20200   52.10400    2.77200   65.73200
  328.50000    2.01380    1.96370   55.20900   51.60700    2.76400   65.75600
  329.00000    2.01280    1.99730   54.06900   51.15500    2.75600   65.77900
  329.50000    1.97940    1.96330   52.36900   51.48400    2.74800   65.80300
  330.00000    1.94710    1.92880   52.01500   51.81700    2.74000   65.82600
  330.50000    1.91480    1.89430   52.13600   52.64700    2.73200   65.84900
  331.00000    1.88250    1.85980   54.27600   53.90200    2.72400   65.87300
  331.50000    1.85020    1.82530   59.62300   55.17400    2.71600   65.89800
  332.00000    1.81790    1.79080   65.38200   54.85100    2.70800   65.92300
  332.50000    1.78560    1.75630   65.11600   55.01800    2.70000   65.94900
  333.00000    1.75330    1.72190   63.71800   56.29400    2.69200   65.97500
  333.50000    1.72100    1.68740   65.72300   58.11000    2.68400   66.00000
  334.00000    1.68870    1.65290   69.64400   58.95500    2.67600   66.02600
  334.50000    1.65640    1.61840   70.62200   58.96700    2.66800   66.05200
  335.00000    1.62410    1.58390   69.09400   57.42300    2.66000   66.07700
  335.50000    1.59180    1.54940   66.57200   56.32500    2.65200   66.10300
  336.00000    1.55950    1.51490   65.87600   56.99000    2.64400   66.12900
  336.50000    1.52720    1.48040   66.93800   57.65600    2.63600   66.15400
  337.00000    1.49490    1.44590   67.41000   57.24400    2.62800   66.18000
  337.50000    1.46170    1.41140   66.80000   56.44600    2.62000   66.20600
  338.00000    1.48970    1.37690   65.44200   56.17800    2.61200   66.23100
  338.50000    1.52580    1.34220   64.58100   56.81900    2.60400   66.25700
  339.00000    1.56190    1.33170   66.64500   58.09500    2.59600   66.28300
  339.50000    1.59800    1.36790   69.92700   59.89500    2.58800   66.30800
  340.00000    1.63420    1.40440   68.99200   62.68000    2.58000   66.33400
  340.50000    1.67030    1.44090   63.15400   63.78500    2.57200   66.36000
  341.00000    1.70640    1.47730   60.14900   62.02200    2.56400   66.38500
  341.50000    1.74250    1.51370   60.61800   59.78300    2.55600   66.41100
  342.00000    1.77870    1.55010   63.12000   58.98300    2.54800   66.43700
  342.50000    1.81480    1.58650   63.90900   60.12500    2.54000   66.46200
  343.00000    1.85090    1.62300   61.23400   61.26500    2.53200   66.48800
  343.50000    1.88700    1.65940   55.94700   60.77900    2.52400   66.51400
  344.00000    1.92320    1.69580   54.14700   59.92200    2.51600   66.53900
  344.50000    1.95930    1.73220   54.14800   59.77600    2.50800   66.56500
  345.00000    1.99540    1.76860   54.15000   60.10600    2.50000   66.59100
  345.50000    2.03160    1.80510   54.15000   60.58600    2.49200   66.61600
  346.00000    2.06770    1.84150   54.15000   58.99300    2.48400   66.64200
  346.50000    2.10380    1.87790   54.15000   57.82600    2.48000   66.66800
  347.00000    2.13990    1.91430   54.15000   57.28800    2.48300   66.69300
  347.50000    2.17610    1.95080   54.15000   57.27200    2.48700   66.71900
  348.00000    2.21220    1.98720   54.15000   57.27800    2.61300   66.74500
  348.50000    2.24830    2.02770   54.15000   56.61100    3.75300   66.77000
