~Version ---------------------------------------------------
VERS.   2.0 : CWLS log ASCII Standard -VERSION 2.0
WRAP.    NO : One line per depth step
DLM . SPACE : Column Data Section Delimiter
~Well ------------------------------------------------------
STRT.F    40.0 : START DEPTH
STOP.F   352.0 : STOP DEPTH
STEP.F     0.5 : STEP
NULL. -9999.25 : NULL VALUE
COMP.          : COMPANY
WELL.          : WELL
FLD .          : FIELD
LOC .          : LOCATION
PROV.          : PROVINCE
CNTY.          : COUNTY
STAT.          : STATE
CTRY.          : COUNTRY
SRVC.          : SERVICE COMPANY
DATE.          : DATE
UWI .          : UNIQUE WELL ID
API .          : API NUMBER
~Curve Information -----------------------------------------
DEPT.F     : 
RILM.      : 
RILD.      : 
GR  .      : 
SP  .      : 
FRES.OHMM  : 
TMP .DEGF  : 
~Params ----------------------------------------------------
~Other -----------------------------------------------------
~ASCII -----------------------------------------------------
# ...
  194.50000    6.78830    6.57120   45.40500   75.38500    6.32900   62.73000
  195.00000    7.46740    7.26470   40.92300   75.37600    6.32100   62.73700
  195.50000    8.14670    8.18040   34.01500   75.50100    6.31400   62.74400
  196.00000    8.82600    9.27400   29.46400   75.45100    6.30600   62.75000
  196.50000    9.50530   10.34600   26.35300   74.89500    6.29800   62.75700
  197.00000   10.18500   11.02100   27.55400   73.36600    6.29100   62.76400
  197.50000   10.83000   11.68000   29.65300   72.15800    6.28300   62.77000
  198.00000   11.25400   12.32800   31.21000   71.09600    6.27500   62.77700
  198.50000   11.66800   12.72500   30.51200   70.00700    6.26700   62.78400
  199.00000   12.77500   13.90900   29.83800   68.92200    6.26000   62.79000
  199.50000   13.95600   15.08400   29.73500   67.85200    6.25200   62.79700
  200.00000   14.89500   16.25700   31.16600   66.80700    6.25000   62.79300
  200.50000   15.36400   17.41600   32.60100   65.76800    6.25200   62.79300
  201.00000   15.61000   17.83200   33.31400   65.36100    6.25400   62.79300
  201.50000   14.84000   17.52600   32.66100   64.08100    6.25600   62.79300
  202.00000   13.93900   16.85800   32.38600   62.82500    6.25800   62.79300
  202.50000   12.67000   15.58800   33.21500   62.26200    6.26000   62.79300
  203.00000   12.61700   14.27400   33.04800   61.65300    6.26200   62.79300
  203.50000   13.24000   13.99100   32.00800   61.04000    6.26400   62.79000
  204.00000   14.22700   14.19500   32.32800   60.66600    6.26600   62.78500
  204.50000   14.54500   15.40900   34.70000   60.36500    6.26800   62.78000
  205.00000   14.31600   16.62800   38.72100   60.33100    6.27000   62.77400
  205.50000   12.77700   17.01500   41.96200   60.59800    6.27200   62.76900
  206.00000   10.82900   16.22100   44.55800   61.49800    6.27400   62.76400
  206.50000    8.87700   14.41300   47.17200   61.78800    6.27600   62.76100
  207.00000    8.36370   12.58800   48.85500   61.31100    6.27900   62.75900
  207.50000    8.32230   11.32600   44.87100   61.59200    6.28300   62.75600
  208.00000    8.27800   10.86800   40.44500   61.78100    6.28600   62.75300
  208.50000    8.45160   10.97900   38.24300   61.85100    6.28900   62.75100
  209.00000    9.42020   11.92200   37.72800   61.92100    6.29300   62.74800
  209.50000   10.84800   13.40300   36.56900   61.99500    6.29700   62.73000
  210.00000   11.38600   14.32900   34.62000   61.66600    6.30400   62.70400
  210.50000   11.02700   14.54400   34.96600   61.23200    6.35900   62.67800
  211.00000   10.34500   13.67800   37.26900   60.79900    6.41800   62.65000
  211.50000    9.92370   12.81200   38.30500   60.36700    6.47600   62.62200
  212.00000    9.50000   12.03100   37.34300   60.33400    6.53500   62.59400
  212.50000    9.23720   11.50600   34.33000   60.33500    6.59300   62.56600
  213.00000    9.04050   10.92900   31.36600   60.61400    6.65200   62.53800
  213.50000    8.57360   10.21200   31.41700   60.91300    6.71000   62.51500
  214.00000    7.89500    9.24420   32.01000   61.20200    6.76900   62.49600
  214.50000    7.21670    8.49270   29.99600   61.42200    6.82700   62.47700
  215.00000    6.90660    7.83490   24.79200   61.64800    6.88600   62.45800
  215.50000    6.58430    7.23220   21.75800   62.24500    6.94400   62.44100
  216.00000    6.26490    6.89260   23.49800   62.68400    7.00200   62.44400
  216.50000    5.82640    6.55320   25.92400   62.11800    7.05200   62.44700
  217.00000    5.18560    6.21360   26.29900   61.55100    7.08600   62.45000
  217.50000    5.08380    5.87400   25.70800   60.96800    7.11800   62.45300
  218.00000    4.81250    5.53440   24.37900   61.55900    7.15300   62.45600
  218.50000    4.53220    5.27370   24.51100   62.35300    7.22600   62.45900
  219.00000    4.25540    5.10850   24.72400   63.32000    7.29900   62.46200
  219.50000    4.30070    4.94360   23.90000   64.28400    7.37200   62.46500
  220.00000    4.25660    4.94980   23.72800   65.24700    7.44600   62.46800
  220.50000    4.30600    4.97060   24.98900   66.21100    7.51900   62.47100
  221.00000    4.35200    4.99140   26.29000   67.17300    7.59200   62.47400
  221.50000    4.39810    5.01230   28.17600   68.13500    7.66500   62.47700
  222.00000    4.44410    5.03310   35.59300   69.90600    7.73800   62.48000
  222.50000    4.49010    5.05380   47.27700   72.64800    7.81100   62.48300
  223.00000    4.53610    5.09630   55.17600   76.23400    7.88400   62.48600
  223.50000    4.58210    5.20090   61.02200   77.66000    7.95700   62.48900
  224.00000    4.62780    5.30640   64.92600   77.91400    8.03000   62.49200
  224.50000    4.81640    5.49640   68.97200   78.18600    8.10300   62.49500
  225.00000    5.16140    5.74720   73.45400   78.46200    8.15500   62.49800
  225.50000    5.49260    5.99760   77.47300   79.37000    8.18200   62.50100
  226.00000    5.82030    6.24790   77.30800   80.06100    8.20900   62.50400
  226.50000    6.14820    6.49820   69.56700   79.97100    8.23600   62.50800
  227.00000    6.47650    6.74830   60.69800   79.87600    8.25600   62.51800
  227.50000    6.73900    7.00590   60.20800   79.67000    8.26000   62.52700
  228.00000    6.73650    7.07480   65.97600   79.37000    8.26000   62.53700
  228.50000    6.72110    7.14120   75.71300   79.07100    8.23800   62.54700
  229.00000    6.63540    7.25970   75.65300   78.76400    8.21600   62.55600
  229.50000    6.55230    7.12010   72.11400   78.82000    8.19400   62.56600
  230.00000    6.47540    6.74960   69.78600   78.93400    8.17200   62.57600
  230.50000    6.02070    6.26520   68.00100   77.91100    8.15000   62.58500
  231.00000    5.52540    5.78050   63.91600   75.92800    8.12800   62.59500
  231.50000    5.04770    5.28940   59.79900   74.05300    8.10600   62.61400
  232.00000    4.90730    4.90770   61.03800   71.21000    7.93500   62.63900
  232.50000    4.75890    4.54080   62.81100   68.87700    7.76200   62.66500
  233.00000    4.60980    4.31960   62.72900   67.78900    7.62600   62.69100
  233.50000    4.47600    4.22060   59.66800   66.85800    7.52800   62.71600
  234.00000    4.36940    4.12100   57.08300   65.80900    7.48700   62.74200
  234.50000    4.26280    4.05560   55.92900   65.93700    7.20600   62.76700
  235.00000    4.15620    4.00070   55.96100   67.17900    6.63400   62.79300
  235.50000    4.04960    3.94580   56.20900   68.38300    6.06200   62.84000
  236.00000    3.94300    3.89090   57.04300   68.83300    5.49000   62.88700
  236.50000    3.83650    3.83600   57.90900   68.57200    4.91800   62.94300
  237.00000    3.72990    3.78110   57.61100   67.84200    4.61600   63.00300
  237.50000    3.62330    3.72620   55.97100   65.42400    4.50500   63.06200
  238.00000    3.51670    3.67130   53.53300   62.27700    4.39500   63.12200
  238.50000    3.41010    3.61640   51.97800   58.96000    4.28500   63.18200
  239.00000    3.30350    3.56060   52.97200   57.11200    4.17500   63.21400
  239.50000    3.19690    3.45900   50.10600   55.91300    4.06500   63.24100
  240.00000    3.09030    3.32810   52.79400   55.05100    3.95400   63.26800
  240.50000    2.98370    3.19770   56.63600   55.04200    3.84400   63.29500
  241.00000    2.87710    3.06740   58.36500   54.99200    3.78900   63.32200
  241.50000    2.77050    2.93690   51.99800   54.61700    3.77400   63.34900
  242.00000    2.66410    2.80620   48.48000   54.28400    3.75900   63.36800
  242.50000    2.56580    2.69410   52.50700   52.69300    3.74300   63.37300
  243.00000    2.54940    2.63730   53.46100   50.65100    3.76900   63.37900
  243.50000    2.53160    2.58050   48.08800   47.42000    3.79900   63.38400
  244.00000    2.51370    2.52360   42.26600   44.21300    3.82900   63.38300
  244.50000    2.49580    2.46670   41.32400   43.14700    3.85900   63.38100
  245.00000    2.47790    2.40980   44.24200   44.52200    3.89300   63.37900
  245.50000    2.46000    2.35290   48.36100   47.77100    3.94200   63.37700
