~Version ---------------------------------------------------
VERS.   2.0 : CWLS log ASCII Standard -VERSION 2.0
WRAP.    NO : One line per depth step
DLM . SPACE : Column Data Section Delimiter
~Well ------------------------------------------------------
STRT.F    40.0 : START DEPTH
STOP.F   352.0 : STOP DEPTH
STEP.F     0.5 : STEP
NULL. -9999.25 : NULL VALUE
COMP.          : COMPANY
WELL.          : WELL
FLD .          : FIELD
LOC .          : LOCATION
PROV.          : PROVINCE
CNTY.          : COUNTY
STAT.          : STATE
CTRY.          : COUNTRY
SRVC.          : SERVICE COMPANY
DATE.          : DATE
UWI .          : UNIQUE WELL ID
API .          : API NUMBER
~Curve Information -----------------------------------------
DEPT.F     : 
RILM.      : 
RILD.      : 
GR  .      : 
SP  .      : 
FRES.OHMM  : 
TMP .DEGF  : 
~Params ----------------------------------------------------
~Other -----------------------------------------------------
~ASCII -----------------------------------------------------
# ...
  143.00000   14.76000   19.04900   44.37800   31.15200    7.98700   61.52600
  143.50000   14.70800   19.15300   45.57300   31.31000    7.98200   61.53400
  144.00000   14.76200   19.20200   44.77700   32.23500    7.97600   61.54200
  144.50000   14.69200   18.99500   41.96400   33.15700    7.97000   61.54900
  145.00000   14.56600   18.31300   42.34500   34.11800    7.96400   61.55700
  145.50000   14.44100   17.56600   44.13000   33.95600    7.95800   61.56400
  146.00000   13.88600   16.63900   44.17500   34.42000    7.95200   61.57200
  146.50000   12.99200   15.70900   44.51100   34.26100    7.94600   61.57900
  147.00000   11.62600   14.77700   46.45600   33.88000    7.94000   61.58700
  147.50000   10.33100   13.95800   50.24700   34.12400    7.93400   61.59500
  148.00000    9.22840   13.24300   55.59800   34.94500    7.92800   61.60200
  148.50000    8.14900   12.32300   60.45200   35.59600    7.92200   61.61000
  149.00000    8.27490   11.46900   63.96900   35.79100    7.91000   61.61700
  149.50000    8.48940   11.66700   64.37200   35.98700    7.89300   61.62500
  150.00000    9.18940   11.86200   64.57100   36.18200    7.87600   61.63200
  150.50000   10.18500   12.17700   65.09200   36.37600    7.85900   61.64000
  151.00000   10.07100   12.50000   68.03800   36.37700    7.84200   61.64700
  151.50000   10.11700   12.82300   70.60100   35.19300    7.82600   61.65500
  152.00000   10.16300   13.14600   70.32100   34.32500    7.80900   61.66300
  152.50000   10.22800   13.46800   68.18900   33.84700    7.79200   61.67000
  153.00000   11.35900   13.77700   66.47400   33.72500    7.77500   61.67800
  153.50000   12.92700   14.59200   62.19800   33.60900    7.75800   61.68500
  154.00000   14.46200   15.43100   60.15800   34.26100    7.74100   61.69300
  154.50000   15.48900   16.22500   61.36800   34.89500    7.72500   61.70000
  155.00000   15.08700   16.46300   64.63400   35.52100    7.70800   61.70800
  155.50000   14.41700   16.46600   64.74800   36.14700    7.69100   61.71600
  156.00000   13.52500   15.93000   61.24000   36.90300    7.67400   61.72300
  156.50000   12.46700   15.22300   55.86700   36.88700    7.65700   61.73100
  157.00000   11.42900   14.52100   52.50900   37.14500    7.64100   61.73800
  157.50000   10.70900   13.82000   55.21500   37.51400    7.62400   61.74600
  158.00000   10.27600   13.11800   58.77600   37.97900    7.60700   61.75300
  158.50000    9.78480   12.40500   61.94900   38.47700    7.59000   61.76100
  159.00000    9.29420   12.06600   61.35600   39.09200    7.57300   61.76900
  159.50000    8.95610   11.79100   59.44400   39.70200    7.55700   61.77600
  160.00000    8.63940   11.51600   58.69600   39.40800    7.54000   61.78400
  160.50000    8.31500   11.24000   60.72000   39.08800    7.52300   61.79100
  161.00000    8.19010   11.04100   64.03500   38.76700    7.50600   61.79900
  161.50000    8.52540   11.04200   65.73800   38.43200    7.48900   61.80600
  162.00000    8.89590   11.27400   66.58600   38.08800    7.47300   61.81400
  162.50000    9.21740   11.62000   66.66700   37.79800    7.45600   61.82200
  163.00000   10.05500   11.96700   64.46500   37.51300    7.43900   61.82900
  163.50000   10.75500   12.31300   59.48700   37.86900    7.42200   61.83700
  164.00000   11.75800   12.65900   58.00100   38.34400    7.40500   61.84400
  164.50000   11.85300   12.98800   56.39900   38.98800    7.38900   61.85200
  165.00000   11.57100   13.13300   54.19200   39.75600    7.37200   61.85900
  165.50000   11.03400   13.26800   52.38100   40.55000    7.35500   61.86700
  166.00000   10.30500   12.99100   52.70200   41.82900    7.33800   61.87500
  166.50000    9.57460   12.69500   53.71200   41.15100    7.32200   61.88200
  167.00000    9.65510   12.39800   53.21800   40.24600    7.30600   61.89000
  167.50000    9.96050   12.18000   50.90200   38.34900    7.28900   61.89700
  168.00000   11.13400   12.39000   49.56700   36.46000    7.27300   61.90500
  168.50000   11.89000   13.13500   49.23200   34.84900    7.25700   61.91200
  169.00000   12.21400   13.88600   50.27300   34.27300    7.24000   61.92000
  169.50000   12.41800   14.62500   49.96700   33.69200    7.22400   61.92800
  170.00000   12.48400   14.29300   49.09000   33.12000    7.20800   61.93500
  170.50000   12.08700   13.60400   46.31700   31.98800    7.19100   61.94300
  171.00000   11.69200   12.86100   43.73900   30.83700    7.17500   61.95000
  171.50000   11.29900   12.12000   43.57300   31.01200    7.15900   61.95800
  172.00000   10.89200   11.68100   45.82200   30.62500    7.14200   61.96500
  172.50000   10.47000   11.56500   47.32100   31.10200    7.12600   61.97300
  173.00000   10.04700   11.45000   46.90500   31.76500    7.11000   61.98100
  173.50000    9.62310   11.34100   46.49200   32.90900    7.09300   61.98800
  174.00000    9.24250   10.86400   48.74700   34.25300    7.07700   61.99600
  174.50000    8.87570   10.37400   50.17000   35.59400    7.06100   62.00300
  175.00000    8.70900    9.95890   50.16500   36.91000    7.04400   62.01100
  175.50000    8.76500    9.73680   45.68600   36.93600    7.02800   62.01800
  176.00000    8.81460    9.52890   41.40900   36.62800    7.01200   62.02600
  176.50000    8.67500    9.32160   40.49800   35.86300    6.99500   62.03400
  177.00000    8.21650    9.12200   42.29400   35.12500    6.97900   62.04100
  177.50000    7.74930    8.69460   43.77300   34.91800    6.96300   62.04900
  178.00000    7.28180    8.25970   42.79700   35.65500    6.94600   62.05600
  178.50000    6.81420    7.82390   39.33800   36.37700    6.93000   62.06400
  179.00000    6.34670    7.38640   33.60800   37.09900    6.91400   62.07100
  179.50000    5.94080    7.09690   29.97700   37.75300    6.89700   62.07900
  180.00000    5.79340    6.84580   29.92500   38.32100    6.88100   62.08700
  180.50000    5.41750    6.59530   32.43300   38.86200    6.86500   62.09900
  181.00000    5.20990    6.34880   34.18600   38.63300    6.84800   62.11100
  181.50000    5.20790    6.04950   33.16300   38.24000    6.81900   62.12400
  182.00000    5.20720    6.04210   32.14900   37.44100    6.78500   62.14500
  182.50000    5.40520    6.04330   32.14700   37.58200    6.75700   62.19700
  183.00000    5.63670    6.19540   32.44300   38.15100    6.73000   62.24900
  183.50000    5.69570    6.37840   32.56900   39.02700    6.70300   62.29700
  184.00000    5.75290    6.65060   33.64800   39.91100    6.67500   62.34500
  184.50000    6.00630    6.92160   36.04900   41.48000    6.64800   62.39300
  185.00000    6.28090    7.17090   41.73500   44.77900    6.62000   62.44100
  185.50000    6.39930    7.27840   48.94100   48.44600    6.59700   62.48700
  186.00000    6.36300    7.38750   52.78100   49.98600    6.58200   62.49800
  186.50000    6.44370    7.36090   50.68300   49.61600    6.56700   62.50900
  187.00000    6.54990    7.19740   46.99700   48.37400    6.55200   62.52000
  187.50000    6.51720    6.96760   45.89400   47.22800    6.53700   62.53100
  188.00000    6.38260    6.73670   48.81800   46.96300    6.52200   62.54200
  188.50000    6.24850    6.50240   49.68400   47.18400    6.49900   62.55600
  189.00000    6.11480    6.17530   47.75900   47.57600    6.47300   62.57800
  189.50000    5.87020    5.81770   47.22200   47.98800    6.44800   62.60100
  190.00000    5.50090    5.46070   49.78200   48.42600    6.42200   62.62400
  190.50000    5.12950    5.10620   51.81500   48.84700    6.39600   62.64600
  191.00000    4.75810    4.89220   50.45300   50.00200    6.38300   62.66900
  191.50000    4.65140    4.79390   49.09600   51.46200    6.37500   62.69000
  192.00000    4.65330    4.69690   48.75900   53.75700    6.36700   62.69700
  192.50000    4.66630    4.85110   49.92900   58.90700    6.36000   62.70400
  193.00000    5.14440    5.19810   51.47800   66.55100    6.35200   62.71000
  193.50000    5.61580    5.54430   50.71500   72.02900    6.34400   62.71700
  194.00000    6.11460    5.90110   48.08100   74.81300    6.33700   62.72400
