~Version ---------------------------------------------------
VERS.   2.0 : CWLS log ASCII Standard -VERSION 2.0
WRAP.    NO : One line per depth step
DLM . SPACE : Column Data Section Delimiter
~Well ------------------------------------------------------
STRT.F    40.0 : START DEPTH
STOP.F   352.0 : STOP DEPTH
STEP.F     0.5 : STEP
NULL. -9999.25 : NULL VALUE
COMP.          : COMPANY
WELL.          : WELL
FLD .          : FIELD
LOC .          : LOCATION
PROV.          : PROVINCE
CNTY.          : COUNTY
STAT.          : STATE
CTRY.          : COUNTRY
SRVC.          : SERVICE COMPANY
DATE.          : DATE
UWI .          : UNIQUE WELL ID
API .          : API NUMBER
~Curve Information -----------------------------------------
DEPT.F     : 
RILM.      : 
RILD.      : 
GR  .      : 
SP  .      : 
FRES.OHMM  : 
TMP .DEGF  : 
~Params ----------------------------------------------------
~Other -----------------------------------------------------
~ASCII -----------------------------------------------------
# ...
   91.50000   15.91700   20.14000   49.09800   18.70900    7.78700   61.36400
   92.00000   14.42800   19.65500   48.84900   16.85000    7.80100   61.35800
   92.50000   12.95200   19.16400   51.82700   14.99000    7.81600   61.35200
   93.00000   12.50700   19.09800   56.07700   13.08200    7.83000   61.34600
   93.50000   12.64900   19.12100   57.30200   11.17600    7.84400   61.34000
   94.00000   13.68700   20.63300   52.72100   10.27600    7.85800   61.33400
   94.50000   16.69100   22.85000   48.03600    9.63130    7.87200   61.32800
   95.00000   21.00700   26.04000   47.37800    9.63070    7.88600   61.32200
   95.50000   28.41000   31.30300   47.94000   10.14500    7.90000   61.31600
   96.00000   39.92500   37.27600   48.03400   10.97700    7.91400   61.31000
   96.50000   55.91600   67.33200   47.24300   12.00600    7.92800   61.30400
   97.00000   70.69300   96.03100   49.01700   13.24300    7.94200   61.29700
   97.50000   86.22700  101.78000   51.10600   14.50000    7.95800   61.29100
   98.00000  103.61000  105.74000   52.16100   14.95500    7.97600   61.28500
   98.50000  108.09000  108.12000   52.85400   15.30400    7.99400   61.28000
   99.00000  111.56000  110.39000   53.54400   15.65100    8.01200   61.27800
   99.50000  112.56000  112.94000   53.63500   16.00000    8.03000   61.27600
  100.00000  115.96000  105.80000   52.46300   16.35200    8.04800   61.27400
  100.50000  112.14000  100.35000   49.89000   16.29100    8.06600   61.27200
  101.00000  100.37000   95.62500   48.13800   15.10400    8.07300   61.27000
  101.50000   85.69200   49.93100   50.26000   13.91900    8.07700   61.26800
  102.00000   81.26500   95.71900   53.40100   13.00900    8.08100   61.26600
  102.50000   76.88400   95.66400   54.02600   13.24600    8.08600   61.26400
  103.00000   75.70700   95.62500   50.64100   13.46600    8.08700   61.26200
  103.50000   75.87200   95.62500   45.16300   12.44800    8.08700   61.26100
  104.00000   85.11000   95.69500   41.16700   11.03600    8.08700   61.25900
  104.50000   89.60000   95.62500   43.16400    9.36130    8.08700   61.25700
  105.00000   87.50000   49.93100   50.68700    7.43240    8.08700   61.25500
  105.50000   85.40600   47.32400   55.34000    7.41480    8.08700   61.25300
  106.00000   85.42200   46.05600   53.88800    7.94440    8.08700   61.25400
  106.50000   88.87500   45.42400   53.48800    7.56900    8.08700   61.25700
  107.00000   94.94900   45.73400   57.97200    5.97850    8.08700   61.26100
  107.50000   92.31400   46.05100   61.61400    4.45980    8.08700   61.26400
  108.00000   82.56100   46.59100   62.34900    3.44180    8.08700   61.26800
  108.50000   83.22500   47.51600   59.55900    2.46320    8.08700   61.27100
  109.00000   83.82600  100.00000   58.09100    1.89730    8.08900   61.27500
  109.50000   73.26500  103.12000   58.97000    2.05170    8.09100   61.27800
  110.00000   75.12700  100.52000   60.89000    1.75590    8.09400   61.28200
  110.50000   78.22500   95.76200   60.28100    1.17070    8.09700   61.28500
  111.00000   79.74400  102.19000   59.75600    0.61932    8.09300   61.28800
  111.50000   75.42500   45.57700   59.51000    0.19172    8.08800   61.29200
  112.00000   72.39900   41.64600   57.40500    0.95358    8.08300   61.29500
  112.50000   69.35500   40.29700   55.25100    1.95670    8.07800   61.29900
  113.00000   67.46500   40.07800   55.34700    2.95760    8.07300   61.30200
  113.50000   70.82300   40.47700   57.06000    3.85200    8.06700   61.30600
  114.00000   75.08700   40.96300   56.83800    4.19330    8.06200   61.30900
  114.50000   79.97000   41.45000   56.24900    4.14660    8.05700   61.31300
  115.00000   81.26300   41.93900   52.53400    3.79720    8.05200   61.31600
  115.50000   81.25200   42.18000   49.95500    3.81700    8.04700   61.32000
  116.00000   82.26400   41.52800   50.78300    5.05530    8.04200   61.32300
  116.50000   88.26300   40.50500   54.25500    5.54700    8.03700   61.32700
  117.00000   93.44600   40.35400   56.18900    5.65860    8.03200   61.33000
  117.50000   91.66700   40.51500   53.37600    5.78870    8.02700   61.33400
  118.00000   89.82500   42.12800   50.19200    5.95260    8.02200   61.33700
  118.50000   93.59200   44.52500   51.74300    6.46620    8.01700   61.34100
  119.00000   90.83400   47.77700   54.64000    7.24220    8.01200   61.34400
  119.50000   86.88300   99.73400   58.14300    8.01600    8.00700   61.34700
  120.00000   92.11700   99.18500   59.15300    8.77360    8.00200   61.35100
  120.50000   96.28600   89.59200   59.96200    8.11430    7.99900   61.35400
  121.00000   89.59100   57.45300   59.68400    7.44340    7.99500   61.35800
  121.50000   83.55900   41.13000   61.33900    8.38220    7.99100   61.36100
  122.00000   78.91400   37.97800   63.12700    9.14950    7.98800   61.36500
  122.50000   70.88100   35.88100   63.13000   10.26700    7.98400   61.36800
  123.00000   62.87300   34.52000   59.26700   11.52500    7.98000   61.37200
  123.50000   54.86600   33.15900   54.63200   12.99200    7.97600   61.37500
  124.00000   45.37100   32.53400   54.01000   13.65800    7.98300   61.37900
  124.50000   40.04600   31.99600   57.85800   14.29400    7.99200   61.38200
  125.00000   37.44800   30.71300   65.75800   14.94000    8.00000   61.38600
  125.50000   32.30800   29.04700   74.73200   16.05600    8.00900   61.38900
  126.00000   24.37100   26.81600   83.61100   17.69600    8.01700   61.39300
  126.50000   19.08100   24.64900   87.62600   18.76400    8.02600   61.39600
  127.00000   15.56800   22.70100   86.60100   19.22000    8.03400   61.40000
  127.50000   12.54800   21.19200   88.86400   19.67400    8.04300   61.40300
  128.00000   12.47400   20.90700   91.60800   20.28400    8.05100   61.40700
  128.50000   16.06700   21.58800   91.75000   21.09700    8.06000   61.41000
  129.00000   20.22200   23.01100   91.69100   22.19300    8.06800   61.41400
  129.50000   19.69400   24.47500   96.20400   21.90100    8.07700   61.41700
  130.00000   18.04800   24.92600   98.75500   21.90800    8.08500   61.42100
  130.50000   19.14600   24.67500   88.96100   21.15700    8.09400   61.42400
  131.00000   20.40800   24.61000   78.32400   20.32100    8.10200   61.42800
  131.50000   20.73800   24.90100   68.82400   19.50500    8.10300   61.43100
  132.00000   19.45600   24.60300   65.06800   18.76200    8.09700   61.43500
  132.50000   18.40500   23.91700   63.57900   18.66700    8.09100   61.43800
  133.00000   17.48600   22.77600   66.82300   18.58800    8.06400   61.42900
  133.50000   16.65400   21.63300   73.55500   18.86900    7.96300   61.41900
  134.00000   15.78900   20.48900   73.76800   19.14500    7.86200   61.46700
  134.50000   14.81600   19.43900   71.30300   19.42000    7.76100   61.51600
  135.00000   14.42000   18.64300   68.41400   19.69500    7.77300   61.56400
  135.50000   14.15100   18.39600   64.74200   20.04400    7.82500   61.59100
  136.00000   14.48600   18.64700   63.11900   21.08900    7.88300   61.57700
  136.50000   14.83600   18.89800   65.67500   22.39700    7.94100   61.56200
  137.00000   15.19700   19.11100   70.34700   23.79500    7.99900   61.54800
  137.50000   15.27700   19.18100   71.08400   25.22100    8.02100   61.53800
  138.00000   15.41000   19.34400   64.85000   27.06700    8.03100   61.52800
  138.50000   15.54300   20.30100   56.54100   28.95800    8.04100   61.51800
  139.00000   15.48700   21.51600   49.90300   30.32100    8.03500   61.50800
  139.50000   15.48600   22.61700   48.00000   31.52500    8.02900   61.49800
  140.00000   15.48600   22.63000   52.91900   32.10600    8.02300   61.48800
  140.50000   15.47800   21.96900   56.85100   31.90900    8.01700   61.48900
  141.00000   15.08100   20.84400   58.63000   31.70700    8.01100   61.49600
  141.50000   14.67800   19.71800   55.01900   31.50400    8.00500   61.50400
  142.00000   14.57000   18.82700   49.10700   31.33600    7.99900   61.51100
  142.50000   14.66600   18.94300   43.74600   31.24500    7.99300   61.51900
