~Version ---------------------------------------------------
VERS.   2.0 : CWLS log ASCII Standard -VERSION 2.0
WRAP.    NO : One line per depth step
DLM . SPACE : Column Data Section Delimiter
~Well ------------------------------------------------------
STRT.F     0.0 : START DEPTH
STOP.F   396.0 : STOP DEPTH
STEP.F     0.5 : STEP
NULL. -9999.25 : NULL VALUE
COMP.          : COMPANY
WELL.          : WELL
FLD .          : FIELD
LOC .          : LOCATION
PROV.          : PROVINCE
CNTY.          : COUNTY
STAT.          : STATE
CTRY.          : COUNTRY
SRVC.          : SERVICE COMPANY
DATE.          : DATE
UWI .          : UNIQUE WELL ID
API .          : API NUMBER
~Curve Information -----------------------------------------
DEPT.F     : 
RILD.      : 
RILM.      : 
GR  .      : 
FRES.OHMM  : 
TMP .DEGF  : 
~Params ----------------------------------------------------
~Other -----------------------------------------------------
~ASCII -----------------------------------------------------
    0.00000    0.51389    0.29167   81.18500   -9999.25   -9999.25
    0.50000    0.51509    0.31862   86.52000   -9999.25   -9999.25
    1.00000    0.51807    0.31657   88.09400   -9999.25   -9999.25
    1.50000    0.52106    0.31452   87.37400   -9999.25   -9999.25
    2.00000    0.52404    0.31248   88.98800   -9999.25   -9999.25
    2.50000    0.52603    0.31108   90.33800   -9999.25   -9999.25
    3.00000    0.52902    0.30906   91.15000   -9999.25   -9999.25
    3.50000    0.53200    0.30702   91.58000   -9999.25   -9999.25
    4.00000    0.53499    0.30497   89.25100   -9999.25   -9999.25
    4.50000    0.53799    0.30292   86.66300   -9999.25   -9999.25
    5.00000    0.54099    0.30087   84.79700   -9999.25   -9999.25
    5.50000    0.54165    0.29882   84.75900   -9999.25   -9999.25
    6.00000    0.54167    0.29677   89.61000   -9999.25   -9999.25
    6.50000    0.54167    0.29472   97.70400   -9999.25   -9999.25
    7.00000    0.54167    0.29265  103.46000   -9999.25   -9999.25
    7.50000    0.54168    0.29164  106.66000   -9999.25   -9999.25
    8.00000    0.54208    0.29166   98.76000   -9999.25   -9999.25
    8.50000    0.54445    0.29166   89.38600   -9999.25   -9999.25
    9.00000    0.54683    0.29166   89.69700   -9999.25   -9999.25
    9.50000    0.54920    0.29167   94.85700   -9999.25   -9999.25
   10.00000    0.55158    0.29167  101.82000   -9999.25   -9999.25
   10.50000    0.55395    0.29167  104.08000   -9999.25   -9999.25
   11.00000    0.55633    0.29167   92.02500   -9999.25   -9999.25
   11.50000    0.55870    0.29167   83.44000   -9999.25   -9999.25
   12.00000    0.56108    0.29167   85.76700   -9999.25   -9999.25
   12.50000    0.56345    0.29167   89.93300   -9999.25   -9999.25
   13.00000    0.56584    0.29167   94.04000   -9999.25   -9999.25
   13.50000    0.56824    0.29167   95.01100   -9999.25   -9999.25
   14.00000    0.56952    0.29167   95.32000   -9999.25   -9999.25
   14.50000    0.56947    0.29167   89.54800   -9999.25   -9999.25
   15.00000    0.56933    0.29167   80.63100   -9999.25   -9999.25
   15.50000    0.56355    0.29167   73.22800   -9999.25   -9999.25
   16.00000    0.54082    0.29167   72.71500   -9999.25   -9999.25
   16.50000    0.51820    0.29167   76.61300   -9999.25   -9999.25
   17.00000    0.49509    0.29167   80.78800   -9999.25   -9999.25
   17.50000    0.48084    0.29167   83.46400   -9999.25   -9999.25
   18.00000    0.47085    0.29167   82.86000   -9999.25   -9999.25
   18.50000    0.46103    0.29167   82.85100   -9999.25   -9999.25
   19.00000    0.45124    0.29167   83.96600   -9999.25   -9999.25
   19.50000    0.44146    0.29167   86.04100   -9999.25   -9999.25
   20.00000    0.43170    0.29167   97.29300   -9999.25   -9999.25
   20.50000    0.42197    0.29167  102.36000   -9999.25   -9999.25
   21.00000    0.41229    0.29167   99.73000   -9999.25   -9999.25
   21.50000    0.40410    0.29167   89.20500   -9999.25   -9999.25
   22.00000    0.43025    0.29167   77.80000   -9999.25   -9999.25
   22.50000    0.45632    0.29167   68.92600   -9999.25   -9999.25
   23.00000    0.48240    0.29167   66.44500   -9999.25   -9999.25
   23.50000    0.50854    0.29167   63.62100   -9999.25   -9999.25
   24.00000    0.53474    0.29167   62.04300   -9999.25   -9999.25
   24.50000    0.56113    0.29167   60.43800   -9999.25   -9999.25
   25.00000    0.57703    0.29167   56.91200   -9999.25   -9999.25
   25.50000    0.58857    0.29167   51.40700   -9999.25   -9999.25
   26.00000    0.59752    0.29167   51.01200    4.71100   65.48100
   26.50000    0.60474    0.29167   53.22900    4.70900   65.45400
   27.00000    0.62086    0.29167   58.34700    4.68800   65.42700
   27.50000    0.63692    0.29167   63.48300    4.63700   65.41500
   28.00000    0.65299    0.29167   66.22600    4.58700   65.43300
   28.50000    0.66904    0.29167   65.57600    4.51500   65.45000
   29.00000    0.68511    0.29167   61.06300    4.41800   65.46800
   29.50000    0.70123    0.29167   59.24200    4.32100   65.49000
   30.00000    0.73122    0.29167   63.58600    4.22500   65.51600
   30.50000    0.77316    0.29167   67.03100    4.12800   65.54200
   31.00000    0.81707    0.29167   68.38700    4.03100   65.53500
   31.50000    0.81230    0.29167   65.32900    3.93500   65.51800
   32.00000    0.80513    0.29167   65.05700    3.90200   65.50100
   32.50000    0.79799    0.29167   67.28200    3.90200   65.48500
   33.00000    0.79855    0.29167   66.87200    3.87500   65.46800
   33.50000    0.83752    0.29167   63.03200    3.77100   65.45100
   34.00000    0.87672    0.29167   58.81500    3.66800   65.43500
   34.50000    0.91587    0.29167   58.55900    3.56500   65.41800
   35.00000    0.95652    0.29167   58.40300    3.47400   65.40100
   35.50000    0.96197    0.29167   48.88400    3.46900   65.38500
   36.00000    0.96635    0.29167   45.37100    3.46500   65.37600
   36.50000    0.97066    0.29167   45.07600    3.46000   65.36900
   37.00000    0.97494    0.29167   49.86700    3.45500   65.36200
   37.50000    0.97917    0.29167   52.63300    3.43100   65.35600
   38.00000    0.98340    0.29167   54.13600    3.38500   65.34900
   38.50000    0.98764    0.29167   48.96900    3.33900   65.34200
   39.00000    0.99187    0.29167   47.63400    3.29300   65.32300
   39.50000    0.99610    0.29167   49.25900    3.24700   65.29200
   40.00000    1.00030    0.29167   50.95000    3.20100   65.26100
   40.50000    1.00460    0.29167   52.14600    3.15500   65.22900
   41.00000    1.00880    0.29167   55.26000    3.12700   65.19800
   41.50000    1.01300    0.29167   62.93400    3.11500   65.16700
   42.00000    1.01730    0.29167   71.73000    3.10400   65.13600
   42.50000    1.02150    0.29167   73.86900    3.09300   65.10500
   43.00000    1.02580    0.29167   73.52700    3.08100   65.08600
   43.50000    1.03010    0.29167   70.09600    3.07000   65.06900
   44.00000    1.03420    0.29167   65.99000    3.05800   65.05100
   44.50000    1.03790    0.29167   62.12900    3.04800   65.03400
   45.00000    1.02170    0.29167   58.90200    3.04500   65.01600
   45.50000    0.93257    0.29167   58.64000    3.04200   64.99900
   46.00000    0.84370    0.29167   57.61500    3.03800   64.98100
   46.50000    0.75522    0.29167   52.28100    3.03500   64.96400
   47.00000    0.72824    0.29167   49.76500    3.03200   64.94600
   47.50000    0.71750    0.29167   50.78300    3.02800   64.93400
   48.00000    0.70700    0.29167   51.76700    3.02500   64.93400
   48.50000    0.69659    0.29167   51.85300    3.02200   64.93400
   49.00000    0.68621    0.29167   54.27300    3.01800   64.93400
   49.50000    0.67580    0.29167   58.53700    3.01500   64.93400
   50.00000    0.66537    0.29167   62.79600    3.01200   64.93400
   50.50000    0.65494    0.29167   67.05800    3.00900   64.93400
   51.00000    0.64443    0.29167   71.31400    3.00500   64.93400
   51.50000    0.63394    0.29167   74.97400    3.00200   64.93400
   52.00000    0.62351    0.29167   71.84700    2.99900   64.93400
   52.50000    0.61346    0.29167   66.70200    2.99500   64.93400
   53.00000    0.60441    0.29167   63.43100    2.99200   64.93400
   53.50000    0.64339    0.29167   62.41300    2.98900   64.93400
   54.00000    0.67112    0.29167   60.81900    2.98500   64.93400
   54.50000    0.66198    0.29167   54.87100    2.98200   64.93400
   55.00000    0.65177    0.29167   53.16600    2.97900   64.93400
   55.50000    0.64112    0.29167   56.08900    2.97500   64.93400
   56.00000    0.63034    0.29167   58.46900    2.97200   64.93400
   56.50000    0.61952    0.29167   58.35400    2.96900   64.93400
   57.00000    0.60876    0.29167   61.63600    2.96500   64.93400
   57.50000    0.59771    0.29167   65.45100    2.96200   64.93400
   58.00000    0.59729    0.29167   65.96200    2.95900   64.93400
   58.50000    0.59725    0.29167   64.30800    2.95600   64.93400
   59.00000    0.59723    0.29167   64.44000    2.95500   64.93400
   59.50000    0.59722    0.29167   67.30300    2.95400   64.93400
