~Version ---------------------------------------------------
VERS.   2.0 : CWLS log ASCII Standard -VERSION 2.0
WRAP.    NO : One line per depth step
DLM . SPACE : Column Data Section Delimiter
~Well ------------------------------------------------------
STRT.F     0.0 : START DEPTH
STOP.F   396.0 : STOP DEPTH
STEP.F     0.5 : STEP
NULL. -9999.25 : NULL VALUE
COMP.          : COMPANY
WELL.          : WELL
FLD .          : FIELD
LOC .          : LOCATION
PROV.          : PROVINCE
CNTY.          : COUNTY
STAT.          : STATE
CTRY.          : COUNTRY
SRVC.          : SERVICE COMPANY
DATE.          : DATE
UWI .          : UNIQUE WELL ID
API .          : API NUMBER
~Curve Information -----------------------------------------
DEPT.F     : 
RILD.      : 
RILM.      : 
GR  .      : 
FRES.OHMM  : 
TMP .DEGF  : 
~Params ----------------------------------------------------
~Other -----------------------------------------------------
~ASCII -----------------------------------------------------
# ...
  240.00000    4.32280    5.92690   82.38800    0.23900   64.37800
  240.50000    4.48980    6.49700   85.61700    0.23800   64.38400
  241.00000    4.71220    7.04740   91.05700    0.23700   64.39100
  241.50000    4.94380    7.52790   93.93600    0.23600   64.39700
  242.00000    5.17440    7.99420   92.39700    0.23500   64.40300
  242.50000    5.32340    8.37390   91.94800    0.23300   64.41000
  243.00000    5.22720    8.70650   92.91900    0.23200   64.41600
  243.50000    4.88620    8.62240   90.71700    0.23100   64.42300
  244.00000    4.54840    8.08710   88.80100    0.23000   64.42900
  244.50000    4.20450    7.23470   88.26900    0.22900   64.43600
  245.00000    3.96650    6.40000   87.79700    0.22800   64.44200
  245.50000    3.97490    5.69490   86.79400    0.22700   64.44900
  246.00000    3.99410    5.27120   90.05300    0.22600   64.45500
  246.50000    4.00960    4.98580   93.35600    0.22500   64.46200
  247.00000    3.93430    4.89720  100.29000    0.22400   64.46800
  247.50000    3.86180    4.90660  107.60000    0.22300   64.47500
  248.00000    3.81320    5.05680  110.50000    0.22200   64.48100
  248.50000    3.80140    5.21240  100.75000    0.22100   64.48700
  249.00000    3.78910    5.37750   97.45200    0.22000   64.49400
  249.50000    3.77670    5.52450   96.60200    0.21900   64.50000
  250.00000    3.76410    5.53880  108.02000    0.21800   64.50700
  250.50000    3.75130    5.47580  115.92000    0.21800   64.51200
  251.00000    3.73770    5.39580  118.24000    0.21800   64.51600
  251.50000    3.76520    5.32500  116.49000    0.21800   64.52000
  252.00000    3.80380    5.41630  114.33000    0.21800   64.52500
  252.50000    3.86360    5.48280  114.34000    0.21800   64.52900
  253.00000    3.93810    5.45940  122.11000    0.21800   64.53400
  253.50000    4.01250    5.56310  128.87000    0.21800   64.53800
  254.00000    4.09310    5.77580  121.27000    0.21800   64.54300
  254.50000    4.12240    5.99050  110.45000    0.21700   64.54700
  255.00000    4.15230    6.16100  106.76000    0.21500   64.55100
  255.50000    4.18180    6.16580  109.05000    0.21300   64.55600
  256.00000    4.20500    6.17470  109.57000    0.21100   64.56000
  256.50000    4.14680    6.17560  106.11000    0.20900   64.56500
  257.00000    4.09270    6.15440  105.35000    0.20700   64.56900
  257.50000    4.03860    6.13110  106.23000    0.20400   64.57300
  258.00000    3.98450    6.02490  106.75000    0.20200   64.57800
  258.50000    3.93020    5.91830  106.58000    0.20000   64.58200
  259.00000    3.87520    5.54880  111.33000    0.19800   64.58700
  259.50000    3.81520    5.19130  116.74000    0.19600   64.59100
  260.00000    3.73680    4.83560  119.99000    0.19400   64.59500
  260.50000    3.66040    4.54140  120.19000    0.19200   64.60000
  261.00000    3.58400    4.39870  120.70000    0.18900   64.60400
  261.50000    3.50760    4.25040  125.49000    0.18700   64.61600
  262.00000    3.42850    4.23190  121.26000    0.18500   64.63000
  262.50000    3.50470    4.26670  117.83000    0.18300   64.64300
  263.00000    3.58360    4.34870  121.56000    0.18100   64.65700
  263.50000    3.61450    4.57460  128.37000    0.17900   64.67000
  264.00000    3.66170    4.80000  129.08000    0.17700   64.68400
  264.50000    3.68010    5.02420  126.65000    0.17400   64.69700
  265.00000    3.68140    5.08760  126.12000    0.17200   64.71100
  265.50000    3.73280    5.11330  124.16000    0.17000   64.72500
  266.00000    3.86430    5.18190  123.49000    0.16800   64.73800
  266.50000    3.99180    5.34230  114.81000    0.16600   64.75200
  267.00000    4.11840    5.35850  110.11000    0.16400   64.76500
  267.50000    4.20380    5.27490  107.37000    0.16200   64.77900
  268.00000    4.27330    5.35450   99.68900    0.16000   64.79200
  268.50000    4.34280    5.99970   96.01000    0.15700   64.80600
  269.00000    4.41230    6.59640  100.71000    0.15500   64.82000
  269.50000    4.48160    7.20930  106.70000    0.15300   64.83300
  270.00000    4.55050    7.25380  109.14000    0.15100   64.84800
  270.50000    4.59200    7.13080  103.96000    0.14900   64.86600
  271.00000    4.56630    7.02400   97.87400    0.14700   64.88300
  271.50000    4.54190    7.20980   91.74100    0.14500   64.90100
  272.00000    4.51550    7.38210   88.02500    0.14200   64.91900
  272.50000    4.45880    7.46340   88.05600    0.14000   64.93600
  273.00000    4.39700    7.22230   89.56800    0.13800   64.95400
  273.50000    4.25890    6.92540   89.08000    0.13600   64.97100
  274.00000    4.10390    6.66460   90.55400    0.13400   64.98900
  274.50000    3.94780    6.56360   89.19900    0.13200   65.00700
  275.00000    3.79150    6.33150   87.67300    0.13000   65.02400
  275.50000    3.63490    5.97820   85.98100    0.13100   65.04400
  276.00000    3.51640    5.62680   85.39500    0.13100   65.06800
  276.50000    3.45630    5.27580   90.07400    0.13200   65.09300
  277.00000    3.39620    4.92460   96.66900    0.13200   65.11700
  277.50000    3.32260    4.57240  106.18000    0.13300   65.14200
  278.00000    3.21270    4.28550  110.69000    0.13300   65.16700
  278.50000    3.10090    4.04240  103.14000    0.13400   65.19100
  279.00000    2.98760    3.93200   97.49400    0.13400   65.21600
  279.50000    2.88320    3.83490   94.88500    0.13500   65.24000
  280.00000    2.83930    3.80050  102.16000    0.13500   65.26500
  280.50000    2.82410    3.76340  107.88000    0.13600   65.28900
  281.00000    2.80930    3.72480  109.89000    0.13600   65.31400
  281.50000    2.79310    3.78350  105.72000    0.13700   65.33800
  282.00000    2.82380    3.80840  100.31000    0.13700   65.36300
  282.50000    2.84970    3.87330  104.55000    0.13800   65.38700
  283.00000    2.87500    3.96520  112.18000    0.13800   65.41200
  283.50000    2.90060    4.05620  116.94000    0.13900   65.43700
  284.00000    2.87380    4.14560  117.83000    0.13900   65.46100
  284.50000    2.84230    4.15940  113.13000    0.14000   65.48600
  285.00000    2.73400    3.98720  105.63000    0.14000   65.51000
  285.50000    2.70910    3.81850  102.48000    0.14100   65.53500
  286.00000    2.72770    3.78090  101.77000    0.14100   65.56800
  286.50000    2.74850    3.91010  104.42000    0.14200   65.60200
  287.00000    2.76940    4.05160  103.58000    0.14200   65.63700
  287.50000    2.79020    4.18040  104.71000    0.14300   65.67100
  288.00000    2.81090    4.28820  110.62000    0.14300   65.70500
  288.50000    2.83100    4.31390  116.95000    0.14400   65.74000
  289.00000    2.83010    4.34140  123.35000    0.14400   65.77400
  289.50000    2.79970    4.37300  129.04000    0.14500   65.80900
  290.00000    2.81850    4.35840  130.08000    0.14600   65.84300
  290.50000    2.81820    4.36920  119.96000    0.14700   65.87800
  291.00000    2.83940    4.32890  115.71000    0.14800   65.91200
  291.50000    2.86370    4.30590  117.97000    0.15000   65.94600
  292.00000    2.88830    4.28850  120.25000    0.15400   65.98100
  292.50000    2.91280    4.26970  118.10000    0.15700   66.01500
  293.00000    2.93570    4.28610  118.28000    0.16000   66.05000
  293.50000    3.06140    4.32810  121.75000    0.16300   66.08400
  294.00000    3.19080    4.46950  124.31000    0.16700   66.11900
  294.50000    3.31820    4.65140  126.77000    0.17000   66.15300
  295.00000    3.43400    4.83540  127.17000    0.17300   66.18700
  295.50000    3.45250    4.96710  122.80000    0.17600   66.22200
  296.00000    3.44550    5.06700  115.26000    0.18000   66.25600
  296.50000    3.43810    5.21000  107.94000    0.18300   66.29100
  297.00000    3.43000    5.22170  100.71000    0.18600   66.32500
  297.50000    3.40210    5.11980   95.14200    0.18900   66.35900
  298.00000    3.37370    5.04070   92.04900    0.19300   66.39400
  298.50000    3.34540    4.94810   93.44800    0.19600   66.42800
  299.00000    3.31720    4.85590   95.06800    0.19900   66.46300
  299.50000    3.28940    4.76390   95.92900    0.20200   66.49700
