~Version ---------------------------------------------------
VERS.   2.0 : CWLS log ASCII Standard -VERSION 2.0
WRAP.    NO : One line per depth step
DLM . SPACE : Column Data Section Delimiter
~Well ------------------------------------------------------
STRT.F     0.0 : START DEPTH
STOP.F   396.0 : STOP DEPTH
STEP.F     0.5 : STEP
NULL. -9999.25 : NULL VALUE
COMP.          : COMPANY
WELL.          : WELL
FLD .          : FIELD
LOC .          : LOCATION
PROV.          : PROVINCE
CNTY.          : COUNTY
STAT.          : STATE
CTRY.          : COUNTRY
SRVC.          : SERVICE COMPANY
DATE.          : DATE
UWI .          : UNIQUE WELL ID
API .          : API NUMBER
~Curve Information -----------------------------------------
DEPT.F     : 
RILD.      : 
RILM.      : 
GR  .      : 
FRES.OHMM  : 
TMP .DEGF  : 
~Params ----------------------------------------------------
~Other -----------------------------------------------------
~ASCII -----------------------------------------------------
# ...
  360.00000    5.51830    9.57890  103.71000    0.51200   71.79600
  360.50000    5.70620    9.57660  102.18000    0.50800   71.81700
  361.00000    5.96460   10.20300  101.47000    0.50300   71.83900
  361.50000    6.23180   13.56900   99.79800    0.49900   71.86000
  362.00000    6.50190   16.87300   96.86000    0.49500   71.88200
  362.50000    6.69160   19.40900   97.50800    0.49000   71.90300
  363.00000    6.81450   19.35500  100.59000    0.48600   71.92500
  363.50000    6.76430   19.39500  100.86000    0.48100   71.94600
  364.00000    6.61860   19.36600  101.06000    0.47700   71.96800
  364.50000    6.41780   19.65300   99.29600    0.47300   71.98900
  365.00000    6.21720   19.63200   97.13200    0.47100   72.01100
  365.50000    6.01860   19.62600   95.83000    0.46900   72.03200
  366.00000    6.03410   19.55000   96.09500    0.46700   72.05400
  366.50000    6.08840   19.46100   94.67000    0.46600   72.07500
  367.00000    6.14360   19.37200   91.03100    0.46400   72.09700
  367.50000    6.19860   19.28300   88.93700    0.46200   72.11800
  368.00000    6.18200   19.19600   92.47000    0.46000   72.14000
  368.50000    6.15160   19.16800   99.61400    0.45800   72.16000
  369.00000    6.13300   19.38800  100.95000    0.45700   72.17800
  369.50000    6.18040   19.60600   95.31400    0.45500   72.19600
  370.00000    6.22890   19.82400   91.42300    0.45300   72.21300
  370.50000    6.30490   19.87400   88.51500    0.45100   72.23100
  371.00000    6.28640   19.87500   85.80300    0.44900   72.24900
  371.50000    6.20140   19.87500   84.88100    0.44800   72.26600
  372.00000    6.11500   19.87500   85.49300    0.44600   72.28400
  372.50000    6.08600   19.87300   88.27400    0.44400   72.30200
  373.00000    6.11810   19.87000   89.78100    0.44100   72.31300
  373.50000    6.26820   19.85500   89.95000    0.43900   72.32000
  374.00000    6.41940   20.25200   88.13400    0.43600   72.32700
  374.50000    6.54360   20.56800   86.35500    0.43400   72.33300
  375.00000    6.54650   20.25400   85.33400    0.43100   72.34000
  375.50000    6.39940   19.93700   87.19000    0.42900   72.34600
  376.00000    6.32010   19.94500   90.56900    0.42700   72.35300
  376.50000    6.26100   20.02800   93.56900    0.42400   72.36000
  377.00000    6.20990   20.10900   90.90300    0.42200   72.36600
  377.50000    6.22190   19.73000   86.63000    0.41900   72.37300
  378.00000    6.23420   19.26900   89.42100    0.41700   72.37900
  378.50000    6.24660   19.08600   93.07200    0.41500   72.38600
  379.00000    6.25930   19.09700   96.20100    0.41200   72.39300
  379.50000    6.25970   19.56300   91.97200    0.41000   72.39900
  380.00000    6.25240   20.05400   90.91300    0.40700   72.40600
  380.50000    6.24500   19.82000   92.95800    0.40500   72.41200
  381.00000    6.23750   19.51000   96.45200    0.40300   72.41900
  381.50000    6.19340   19.19600   98.20400    0.40000   72.42600
  382.00000    6.14190   19.15400   98.23600    0.39800   72.43200
  382.50000    6.09820   19.45000   97.44200    0.39500   72.43900
  383.00000    6.13280   19.66900   97.67400    0.39300   72.44500
  383.50000    6.17260   19.88900  100.08000    0.39000   72.45200
  384.00000    6.21150   20.10600  102.71000    0.38800   72.45900
  384.50000    6.18500   19.75700   99.89200    0.38600   72.46600
  385.00000    6.03510   19.35400   95.73300    0.38300   72.47300
  385.50000    5.89060   18.96500   95.76300    0.38100   72.48000
  386.00000    5.72680   18.94600  100.57000    0.37900   72.48700
  386.50000    5.56470   18.98900  103.79000    0.37800   72.49400
  387.00000    5.52140   12.41100   99.85700    0.37700   72.50100
  387.50000    5.61130    9.48610   99.42800    0.37600   72.50800
  388.00000    5.80410    9.48610   99.38900    0.37500   72.51500
  388.50000    6.06730    9.81940   99.37200    0.37400   72.52100
  389.00000    6.36390   19.37500   99.36500    0.37300   72.52600
  389.50000    6.61740   19.37500   99.36600    0.37100   72.53100
  390.00000    6.64740   19.37500   99.36600   -9999.25   -9999.25
  390.50000    6.68400   19.37500   99.36600   -9999.25   -9999.25
  391.00000    6.64930   19.37500   99.36600   -9999.25   -9999.25
  391.50000    6.55180   15.39500   99.36600   -9999.25   -9999.25
  392.00000    6.24440    9.65280   99.36600   -9999.25   -9999.25
  392.50000    7.03650    9.62500   99.36600   -9999.25   -9999.25
  393.00000    9.01390    9.59720   99.36600   -9999.25   -9999.25
  393.50000   98.37500   25.12500   99.36600   -9999.25   -9999.25
  394.00000   98.37500   23.12500   99.36600   -9999.25   -9999.25
  394.50000   98.37500  100.38000   99.36600   -9999.25   -9999.25
  395.00000   98.37500  101.27000   99.36600   -9999.25   -9999.25
  395.50000   98.37500   99.83600   99.36600   -9999.25   -9999.25
  396.00000   98.37500  100.38000   99.36600   -9999.25   -9999.25
