~Version ---------------------------------------------------
VERS.   2.0 : CWLS log ASCII Standard -VERSION 2.0
WRAP.    NO : One line per depth step
DLM . SPACE : Column Data Section Delimiter
~Well ------------------------------------------------------
STRT.F     0.0 : START DEPTH
STOP.F   396.0 : STOP DEPTH
STEP.F     0.5 : STEP
NULL. -9999.25 : NULL VALUE
COMP.          : COMPANY
WELL.          : WELL
FLD .          : FIELD
LOC .          : LOCATION
PROV.          : PROVINCE
CNTY.          : COUNTY
STAT.          : STATE
CTRY.          : COUNTRY
SRVC.          : SERVICE COMPANY
DATE.          : DATE
UWI .          : UNIQUE WELL ID
API .          : API NUMBER
~Curve Information -----------------------------------------
DEPT.F     : 
RILD.      : 
RILM.      : 
GR  .      : 
FRES.OHMM  : 
TMP .DEGF  : 
~Params ----------------------------------------------------
~Other -----------------------------------------------------
~ASCII -----------------------------------------------------
# ...
  180.00000    1.33950    1.53300  122.06000    0.04900   63.01800
  180.50000    1.32330    1.50940  122.28000    0.05000   63.05200
  181.00000    1.30710    1.48610  123.75000    0.05200   63.08600
  181.50000    1.29090    1.46280  116.86000    0.05600   63.12000
  182.00000    1.27480    1.43900  107.49000    0.06100   63.15400
  182.50000    1.26240    1.42550  103.10000    0.06500   63.18800
  183.00000    1.25930    1.41660  102.42000    0.07000   63.22200
  183.50000    1.25600    1.40800  103.59000    0.08500   63.25600
  184.00000    1.25270    1.40490  104.13000    0.10100   63.29000
  184.50000    1.24930    1.41170  107.81000    0.11700   63.32400
  185.00000    1.24600    1.41830  110.96000    0.13200   63.45200
  185.50000    1.24260    1.42480  112.46000    0.14800   63.58500
  186.00000    1.23920    1.43010  105.26000    0.14600   63.65300
  186.50000    1.23590    1.42320   98.44700    0.14400   63.66700
  187.00000    1.23250    1.41670   91.86200    0.14300   63.68100
  187.50000    1.22920    1.41020   85.81200    0.14100   63.69400
  188.00000    1.22580    1.40320   88.98400    0.13900   63.70800
  188.50000    1.22240    1.40290   95.38200    0.13200   63.72100
  189.00000    1.21910    1.40270   99.61500    0.12600   63.73500
  189.50000    1.21570    1.39360  102.58000    0.12000   63.72700
  190.00000    1.21240    1.37030  107.04000    0.11400   63.67600
  190.50000    1.20900    1.34780  111.65000    0.10800   63.62600
  191.00000    1.20560    1.32520  116.05000    0.10200   63.57500
  191.50000    1.20230    1.31600  116.61000    0.10900   63.53600
  192.00000    1.19890    1.31100  114.64000    0.15600   63.54300
  192.50000    1.19560    1.30620  114.77000    0.21600   63.59700
  193.00000    1.19220    1.30130  113.22000    0.31500   63.74200
  193.50000    1.18880    1.29650  109.90000    0.42700   63.88700
  194.00000    1.18530    1.29170  107.02000    0.53900   64.03300
  194.50000    1.18170    1.28680  108.70000    0.62600   64.17800
  195.00000    1.18840    1.28190  110.55000    0.64700   64.24600
  195.50000    1.20330    1.27710  111.07000    0.66700   64.24800
  196.00000    1.21810    1.27230  102.04000    0.67400   64.24900
  196.50000    1.23260    1.26780   95.41700    0.67700   64.25100
  197.00000    1.24780    1.27500   91.75700    0.68000   64.25300
  197.50000    1.26200    1.32040   92.03400    0.68300   64.25400
  198.00000    1.27630    1.35940   94.17900    0.68600   64.25600
  198.50000    1.29070    1.39110   94.91400    0.68900   64.25800
  199.00000    1.30500    1.42260   96.70800    0.69200   64.25900
  199.50000    1.31910    1.41850   98.84100    0.69500   64.26100
  200.00000    1.33310    1.38860  101.22000    0.69200   64.26300
  200.50000    1.34350    1.35940  103.24000    0.68900   64.26400
  201.00000    1.27270    1.33030  100.69000    0.68600   64.26600
  201.50000    1.23100    1.30070   93.53500    0.68200   64.26800
  202.00000    1.22200    1.29180   92.31500    0.67900   64.26900
  202.50000    1.21280    1.29160   92.56300    0.67500   64.27100
  203.00000    1.19880    1.29160   92.58800    0.67000   64.27300
  203.50000    1.18050    1.28980   88.97400    0.66600   64.27500
  204.00000    1.16220    1.27940   85.40700    0.66100   64.27600
  204.50000    1.14390    1.26910   83.09200    0.65600   64.27800
  205.00000    1.12550    1.25600   83.05300    0.65100   64.28000
  205.50000    1.11730    1.24040   91.87600    0.64400   64.28100
  206.00000    1.10930    1.22480   99.33900    0.63400   64.28300
  206.50000    1.10120    1.20920  101.52000    0.62400   64.28500
  207.00000    1.09330    1.19370   98.78500    0.61400   64.28600
  207.50000    1.08530    1.17970   93.54500    0.60400   64.28600
  208.00000    1.07730    1.17420   88.28300    0.59400   64.28300
  208.50000    1.06980    1.16870   83.00500    0.58400   64.28100
  209.00000    1.07340    1.16330   80.86900    0.57300   64.27900
  209.50000    1.07720    1.15780   79.00100    0.56300   64.27700
  210.00000    1.08110    1.15230   80.64000    0.55300   64.27400
  210.50000    1.08490    1.14690   80.62700    0.54300   64.27200
  211.00000    1.08880    1.14140   80.67900    0.53300   64.27000
  211.50000    1.09260    1.13600   84.55000    0.52300   64.26800
  212.00000    1.09640    1.13050   90.21000    0.51300   64.26600
  212.50000    1.10390    1.12570   90.96200    0.50600   64.26300
  213.00000    1.11220    1.13990   81.17700    0.49800   64.26100
  213.50000    1.12050    1.15470   75.45500    0.49000   64.25900
  214.00000    1.12880    1.16960   74.95500    0.48200   64.25700
  214.50000    1.13710    1.18440   77.85200    0.47400   64.25400
  215.00000    1.14540    1.19930   80.52200    0.46600   64.25200
  215.50000    1.15380    1.21430   83.17800    0.45800   64.25000
  216.00000    1.16210    1.22940   85.81700    0.45000   64.24800
  216.50000    1.17040    1.22580   88.08600    0.44200   64.24500
  217.00000    1.17870    1.20480   83.69500    0.43200   64.24300
  217.50000    1.18700    1.18390   79.36300    0.42200   64.24100
  218.00000    1.19530    1.16290   75.37200    0.41100   64.23900
  218.50000    1.20370    1.15250   71.86600    0.40100   64.23600
  219.00000    1.20850    1.15260   71.30000    0.39000   64.23400
  219.50000    1.20850    1.15270   71.98500    0.38000   64.23200
  220.00000    1.20930    1.15310   73.37600    0.37000   64.23000
  220.50000    1.23500    1.16730   76.10900    0.35900   64.22800
  221.00000    1.26290    1.23510   81.57600    0.35100   64.22500
  221.50000    1.29010    1.30270   87.03300    0.34700   64.22300
  222.00000    1.31990    1.37020   87.31900    0.34400   64.22100
  222.50000    1.34960    1.43770   86.59600    0.34000   64.21900
  223.00000    1.38210    1.51090   91.93100    0.33600   64.21600
  223.50000    1.43070    1.58350   97.86300    0.33300   64.21800
  224.00000    1.47940    1.66320  103.86000    0.32900   64.22100
  224.50000    1.52810    1.74290  109.10000    0.32600   64.22400
  225.00000    1.57680    1.82260  110.39000    0.32200   64.22700
  225.50000    1.62550    1.90230  109.31000    0.31800   64.22900
  226.00000    1.67410    1.98190  103.09000    0.31500   64.23200
  226.50000    1.72280    2.06150  102.74000    0.31100   64.23500
  227.00000    1.77160    2.14130  108.39000    0.30800   64.23700
  227.50000    1.85040    2.24190  112.52000    0.30400   64.24000
  228.00000    1.95140    2.34700  115.72000    0.30000   64.24300
  228.50000    2.05230    2.45770  116.26000    0.29700   64.24600
  229.00000    2.15310    2.59640  114.24000    0.29300   64.24800
  229.50000    2.25380    2.78690  107.98000    0.28900   64.25100
  230.00000    2.35450    3.02450  106.39000    0.28500   64.25400
  230.50000    2.45500    3.26140  112.89000    0.28100   64.25700
  231.00000    2.55510    3.54550  119.25000    0.27700   64.26100
  231.50000    2.65290    3.85890  120.33000    0.27300   64.26800
  232.00000    2.77950    4.13940  106.53000    0.26900   64.27400
  232.50000    2.90570    4.28270   98.94200    0.26500   64.28100
  233.00000    3.03290    4.42020  101.32000    0.26100   64.28700
  233.50000    3.16030    4.56430  105.88000    0.25700   64.29400
  234.00000    3.28770    4.68760  109.56000    0.25400   64.30000
  234.50000    3.42430    4.74640  102.99000    0.25200   64.30700
  235.00000    3.48980    4.78610   97.53100    0.25100   64.31300
  235.50000    3.53300    4.78660   95.81700    0.24900   64.31900
  236.00000    3.49090    4.74850   95.50800    0.24700   64.32600
  236.50000    3.44990    4.71240   96.79800    0.24600   64.33200
  237.00000    3.40800    4.87690  102.20000    0.24500   64.33900
  237.50000    3.49050    5.06750  107.64000    0.24400   64.34500
  238.00000    3.65720    5.25820  107.06000    0.24300   64.35200
  238.50000    3.82360    5.39470  104.96000    0.24200   64.35800
  239.00000    3.99000    5.43930  101.02000    0.24100   64.36500
  239.50000    4.15640    5.64270   92.48700    0.24000   64.37100
