~Version ---------------------------------------------------
VERS.   2.0 : CWLS log ASCII Standard -VERSION 2.0
WRAP.    NO : One line per depth step
DLM . SPACE : Column Data Section Delimiter
~Well ------------------------------------------------------
STRT.F     0.0 : START DEPTH
STOP.F   396.0 : STOP DEPTH
STEP.F     0.5 : STEP
NULL. -9999.25 : NULL VALUE
COMP.          : COMPANY
WELL.          : WELL
FLD .          : FIELD
LOC .          : LOCATION
PROV.          : PROVINCE
CNTY.          : COUNTY
STAT.          : STATE
CTRY.          : COUNTRY
SRVC.          : SERVICE COMPANY
DATE.          : DATE
UWI .          : UNIQUE WELL ID
API .          : API NUMBER
~Curve Information -----------------------------------------
DEPT.F     : 
RILD.      : 
RILM.      : 
GR  .      : 
FRES.OHMM  : 
TMP .DEGF  : 
~Params ----------------------------------------------------
~Other -----------------------------------------------------
~ASCII -----------------------------------------------------
# ...
   60.00000    0.59722    0.29167   70.09700    2.95300   64.93400
   60.50000    0.59718    0.29167   72.87500    2.95200   64.93400
   61.00000    0.59714    0.29167   74.34800    2.95200   64.93400
   61.50000    0.59704    0.29167   70.48500    2.95100   64.93400
   62.00000    0.59696    0.29167   64.80900    2.95000   64.93300
   62.50000    0.59652    0.29167   61.77100    2.94900   64.93300
   63.00000    0.63423    0.29167   59.58000    2.94800   64.93300
   63.50000    0.66949    0.29167   59.15700    2.94700   64.93300
   64.00000    0.69211    0.29165   59.60100    2.94600   64.93300
   64.50000    0.67952    0.29161   62.47500    2.94500   64.93300
   65.00000    0.58012    0.29146   65.34500    2.94500   64.93300
   65.50000    0.48206    0.29159   69.01000    2.94400   64.93300
   66.00000    0.38148    0.29174   74.58800    2.94300   64.93300
   66.50000    0.29778    0.31964   80.04700    2.94200   64.93300
   67.00000    0.22694    0.34722   85.40100    2.94100   64.93300
   67.50000    0.38652    0.71925   88.37500    2.94000   64.93300
   68.00000    0.63439    1.04170   88.67700    2.93900   64.93300
   68.50000    1.66840    5.06940   87.72300    2.93900   64.93300
   69.00000    4.15890    8.29170   82.81100    2.94100   64.93300
   69.50000    7.93530   14.90000   76.90100    2.94700   64.93300
   70.00000    9.04170   19.62400   71.15700    2.95400   64.93300
   70.50000   19.62500   19.80100   68.15500    2.96100   64.91600
   71.00000   20.45800   19.96200   67.98700    2.96800   64.81200
   71.50000   21.70600   20.13000   72.45600    2.98300   64.70700
   72.00000   23.48800   22.64000   80.76000    3.00100   64.60300
   72.50000   25.26900   25.34900   91.04700    3.02000   64.49800
   73.00000   26.37500   28.05100  102.07000    3.03800   64.39400
   73.50000   27.62500   30.75400  109.03000    3.05600   64.28900
   74.00000   28.12500   32.32500  111.88000    3.07400   64.17200
   74.50000   27.63800   32.20000  106.71000    3.09200   64.05500
   75.00000   27.20900   32.07000  101.80000    3.11100   63.93700
   75.50000   26.77900   31.96500   98.93900    3.12900   63.82000
   76.00000   26.35000   31.89800   99.91300    3.14700   63.70300
   76.50000   25.92100   33.21400  101.15000    3.16500   63.58600
   77.00000   25.48900   34.42500  101.96000    3.18400   63.46800
   77.50000   25.37500   35.95000   96.80700    3.19100   63.35100
   78.00000   25.62500   36.85100   92.93800    3.19900   63.23400
   78.50000   25.80400   36.19400   92.27400    3.20600   63.13000
   79.00000   25.84600   35.46400   96.77300    3.21400   63.09800
   79.50000   25.79500   34.74300   99.69500    3.22100   63.06500
   80.00000   25.74300   34.17200   98.05100    3.22500   63.03300
   80.50000   25.68900   34.89700   96.40600    3.22800   63.00100
   81.00000   25.63300   35.56900  103.54000    3.23100   62.96800
   81.50000   25.77000   36.14100  107.30000    3.23500   62.95700
   82.00000   25.96000   36.01400  104.69000    3.23800   62.94600
   82.50000   26.17500   35.80700   97.54400    3.24100   62.93600
   83.00000   27.30200   38.78400   92.66600    3.24500   62.92500
   83.50000   27.83500   41.51100   92.39400    3.24800   62.91400
   84.00000   27.67500   43.87500   98.77200    3.25100   62.90400
   84.50000   27.84300   41.75000  103.95000    3.25500   62.89300
   85.00000   28.19100   39.37500  106.49000    3.25800   62.88300
   85.50000   28.52900   41.14300  104.65000    3.26100   62.87200
   86.00000   28.87000   43.87500  100.05000    3.26500   62.86100
   86.50000   29.08100   42.62500   97.49300    3.26800   62.85100
   87.00000   27.65500   41.18300   95.38000    3.27100   62.84000
   87.50000   26.54400   39.74000   97.34000    3.27500   62.82900
   88.00000   25.79500   38.20000   99.22400    3.27800   62.81900
   88.50000   25.63500   36.62500   99.01100    3.28100   62.80300
   89.00000   25.46700   34.35200   99.02800    3.28500   62.78400
   89.50000   25.05600   32.22200  100.47000    3.28800   62.76400
   90.00000   24.71000   30.37500  101.46000    3.29100   62.74500
   90.50000   24.38100   29.61900  100.40000    3.29500   62.72500
   91.00000   24.17300   28.93200  106.35000    3.29800   62.70600
   91.50000   24.61500   28.27300  112.98000    3.30100   62.68700
   92.00000   25.81200   27.86400  114.19000    3.30500   62.66700
   92.50000   27.01400   30.11200  108.75000    3.30800   62.64800
   93.00000   28.21000   32.49300   96.84700    3.31100   62.62800
   93.50000   29.37800   35.98200   89.56600    3.31500   62.60900
   94.00000   30.09000   41.26100   90.33400    3.31800   62.58900
   94.50000   28.64800   44.83900   92.24300    3.32100   62.57000
   95.00000   27.62300   40.96400   90.35800    3.32500   62.55000
   95.50000   26.57800   38.51800   86.21600    3.32800   62.53100
   96.00000   25.50900   37.98200   81.01100    3.33100   62.51100
   96.50000   25.12000   37.24600   75.47000    3.33500   62.49200
   97.00000   25.27100   36.10700   74.23500    3.33800   62.47200
   97.50000   25.35100   34.96900   77.96900    3.34100   62.45300
   98.00000   25.43100   33.83000   83.41200    3.34500   62.43400
   98.50000   25.52000   32.71000   88.62400    3.34800   62.41400
   99.00000   25.61300   31.60200   89.00900    3.35500   62.39500
   99.50000   25.44000   30.49400   83.51000    3.36800   62.37500
  100.00000   25.19500   30.02900   81.93500    3.38200   62.35600
  100.50000   24.94600   29.88500   78.16200    3.39500   62.33500
  101.00000   24.69300   29.75100   75.44100    3.40800   62.30400
  101.50000   24.42400   29.64500   72.74200    3.42200   62.27300
  102.00000   25.07500   29.76300   70.04400    3.43500   62.24200
  102.50000   26.09700   29.93900   67.30900    3.44900   62.21100
  103.00000   26.91000   31.94600   66.53800    3.46100   62.18000
  103.50000   26.86600   33.89900   71.33000    3.47400   62.14900
  104.00000   26.19400   35.05700   74.84900    3.48600   62.11800
  104.50000   25.46900   32.49900   76.02900    3.49800   62.08700
  105.00000   24.74400   30.60900   70.94500    3.51000   62.05600
  105.50000   24.01900   29.87800   69.77500    3.52200   62.02500
  106.00000   23.29400   29.51800   70.52200    3.53200   61.99400
  106.50000   22.56500   28.42700   71.24500    3.53800   61.96300
  107.00000   21.83700   26.84500   74.04600    3.54400   61.96600
  107.50000   21.10000   25.27300   76.54400    3.55000   61.96900
  108.00000   20.57400   23.67200   77.95300    3.54600   61.97200
  108.50000   19.90800   21.41000   74.24200    3.54300   61.97500
  109.00000   19.30300   17.76400   72.99100    3.53900   61.98500
  109.50000    9.81570   14.11800   74.20900    3.53600   62.00100
  110.00000   18.23800    9.98610   76.67100    3.53200   62.01700
  110.50000    9.05420    9.56080   82.53400    3.52400   62.03300
  111.00000    8.95390    9.22220   88.46600    3.51300   62.04800
  111.50000    9.01850    9.00930   92.23200    3.50200   62.06400
  112.00000    9.25630    8.98610   92.64700    3.49200   62.08000
  112.50000    9.57830    9.48780   89.78400    3.48100   62.09600
  113.00000    9.90030    9.93060   87.21500    3.47100   62.11400
  113.50000   12.63700   20.37500   89.58600    3.46000   62.13300
  114.00000   16.25100   21.21900   94.79500    3.44900   62.15300
  114.50000   19.62500   21.37500   97.95100    3.43900   62.17200
  115.00000   19.37500   21.00000   95.24700    3.42800   62.19200
  115.50000   19.45500   20.62500   88.65000    3.41800   62.21100
  116.00000   19.85700   21.01000   83.96800    3.40700   62.23100
  116.50000   20.12800   21.58500   84.27700    3.39600   62.25000
  117.00000   20.03600   22.14900   89.33700    3.38600   62.27000
  117.50000   19.94900   22.60100   94.91100    3.37500   62.28900
  118.00000   19.86300   22.34900   95.23300    3.36500   62.30900
  118.50000   19.77800   22.10200   88.44300    3.35400   62.32800
  119.00000   19.69400   21.38100   84.26400    3.32800   62.34800
  119.50000   19.59400   20.84200   87.97500    3.27100   62.38600
