~Version ---------------------------------------------------
VERS.   2.0 : CWLS log ASCII Standard -VERSION 2.0
WRAP.    NO : One line per depth step
DLM . SPACE : Column Data Section Delimiter
~Well ------------------------------------------------------
STRT.F     0.0 : START DEPTH
STOP.F   396.0 : STOP DEPTH
STEP.F     0.5 : STEP
NULL. -9999.25 : NULL VALUE
COMP.          : COMPANY
WELL.          : WELL
FLD .          : FIELD
LOC .          : LOCATION
PROV.          : PROVINCE
CNTY.          : COUNTY
STAT.          : STATE
CTRY.          : COUNTRY
SRVC.          : SERVICE COMPANY
DATE.          : DATE
UWI .          : UNIQUE WELL ID
API .          : API NUMBER
~Curve Information -----------------------------------------
DEPT.F     : 
RILD.      : 
RILM.      : 
GR  .      : 
FRES.OHMM  : 
TMP .DEGF  : 
~Params ----------------------------------------------------
~Other -----------------------------------------------------
~ASCII -----------------------------------------------------
# ...
  120.00000   19.45500   20.30900   93.05700    3.20500   62.43000
  120.50000   19.31500   19.78300   93.22300    3.13900   62.47300
  121.00000   19.17500   19.40500   93.16600    3.11400   62.51600
  121.50000   19.03400   19.61400   95.65800    3.10200   62.56000
  122.00000   18.88900   19.29600   98.58600    3.07300   62.59700
  122.50000   19.59700   18.83500  100.84000    3.01300   62.62100
  123.00000   20.41300   19.95700  101.70000    2.95300   62.64500
  123.50000   21.33400   21.24100  100.14000    2.89300   62.67000
  124.00000   21.23400   22.34000   95.77900    2.88000   62.69400
  124.50000   21.11000   21.70500   98.96300    2.87200   62.71800
  125.00000   20.70000   21.10800  107.21000    2.86400   62.74200
  125.50000   20.29100   20.18400  112.73000    2.85600   62.76600
  126.00000   19.72000   20.80300  106.45000    2.72900   62.79100
  126.50000   19.79200   20.47900  100.09000    2.56500   62.82300
  127.00000   19.18000   20.16000   99.29500    2.40100   62.91000
  127.50000    9.68580   19.28000  102.52000    2.23700   62.99700
  128.00000    8.90830   14.57400  106.59000    2.20200   63.08400
  128.50000    7.94580    9.06600  105.00000    2.18400   63.16300
  129.00000    7.10600    8.20040  102.93000    2.17500   63.17800
  129.50000    6.21230    7.37500   99.49500    2.16600   63.19300
  130.00000    5.77200    6.69440   95.72500    2.15700   63.20800
  130.50000    5.31160    5.96530   92.01600    2.14900   63.22400
  131.00000    4.93650    5.38690   89.37300    2.14000   63.23900
  131.50000    4.63840    4.94050   90.18800    2.13100   63.25500
  132.00000    4.33890    4.47300   94.35900    2.12200   63.27200
  132.50000    4.05940    3.99690   98.16900    2.11300   63.28800
  133.00000    3.89960    3.57010   98.84100    2.10400   63.30400
  133.50000    3.68090    3.37080   93.70900    2.09500   63.32000
  134.00000    3.44070    3.17320   90.11200    2.08600   63.33600
  134.50000    3.19280    2.97530   89.61300    2.07700   63.35200
  135.00000    2.92960    2.77710   91.42400    2.06800   63.36800
  135.50000    2.74550    2.57830   86.18700    2.05900   63.38400
  136.00000    2.55780    2.41830   82.49700    2.05000   63.40000
  136.50000    2.36940    2.27400   84.46000    2.04100   63.41600
  137.00000    2.18380    2.12980   87.27900    2.03200   63.43200
  137.50000    2.10590    1.98530   89.81200    2.02300   63.44800
  138.00000    2.03600    1.84020   87.39200    2.01400   63.46500
  138.50000    1.91350    1.69750   84.93800    2.00500   63.48100
  139.00000    1.80090    1.63300   84.30200    1.99600   63.49700
  139.50000    1.68440    1.58930   84.29200    1.98700   63.51300
  140.00000    1.63240    1.54360   79.96800    1.97800   63.52900
  140.50000    1.58010    1.49770   77.21700    1.96900   63.54500
  141.00000    1.52810    1.45900   76.61200    1.96000   63.56100
  141.50000    1.49200    1.42580   77.94700    1.95100   63.57700
  142.00000    1.46230    1.39230   81.72800    1.94200   63.59300
  142.50000    1.43250    1.35880   86.33700    1.93300   63.60900
  143.00000    1.40270    1.32530   89.71500    1.92400   63.62500
  143.50000    1.37300    1.29190   87.49900    1.91600   63.64100
  144.00000    1.34330    1.25870   83.28900    1.90700   63.65700
  144.50000    1.31390    1.24180   81.91100    1.89100   63.67400
  145.00000    1.29220    1.26500   83.29300    1.87300   63.69000
  145.50000    1.29940    1.28740   87.98500    1.85600   63.70800
  146.00000    1.30600    1.30970   89.78400    1.83800   63.74700
  146.50000    1.31250    1.33180   88.93300    1.82100   63.78600
  147.00000    1.31900    1.35400   90.10100    1.78500   63.82500
  147.50000    1.32540    1.37620   91.12600    1.72800   63.86300
  148.00000    1.33180    1.39850   88.53700    1.67200   63.90200
  148.50000    1.33820    1.42140   82.25700    1.62100   63.94100
  149.00000    1.34470    1.43180   81.20600    1.57600   63.96700
  149.50000    1.35110    1.43450   82.40700    1.53000   63.96300
  150.00000    1.35750    1.43700   79.52600    1.48500   63.95800
  150.50000    1.36390    1.43960   75.13200    1.43700   63.95400
  151.00000    1.37030    1.44210   75.15800    1.27400   63.86000
  151.50000    1.37670    1.44460   75.20500    1.04200   63.76300
  152.00000    1.38310    1.44720   75.22100    0.77900   63.66600
  152.50000    1.38950    1.44970   81.53200    0.55000   63.56900
  153.00000    1.39590    1.45230   90.14500    0.51200   63.47100
  153.50000    1.40220    1.45490   93.81300    0.51300   63.39700
  154.00000    1.39190    1.45780   87.41900    0.51500   63.39700
  154.50000    1.38030    1.45050   79.74800    0.51800   63.39700
  155.00000    1.36880    1.43730   81.82500    0.52000   63.39700
  155.50000    1.35710    1.42050   86.81200    0.52100   63.42100
  156.00000    1.34630    1.39560   92.26500    0.52300   63.52500
  156.50000    1.32630    1.37140   93.55100    0.52400   63.62900
  157.00000    1.30790    1.34720   91.11600    0.52600   63.63900
  157.50000    1.28950    1.32310   87.30400    0.52700   63.64500
  158.00000    1.27080    1.29910   90.58900    0.52900   63.65100
  158.50000    1.25410    1.27530   95.23200    0.53000   63.65700
  159.00000    1.23760    1.26990   96.49400    0.53200   63.66300
  159.50000    1.22100    1.20660   95.95100    0.53300   63.66900
  160.00000    1.20440    1.22120   98.99000    0.53500   63.67500
  160.50000    1.18740    1.23230  100.42000    0.53600   63.68100
  161.00000    1.17830    1.24260   99.02800    0.53800   63.68700
  161.50000    1.17370    1.25260   93.50000    0.51300   63.69300
  162.00000    1.16930    1.26320   91.01500    0.48300   63.69900
  162.50000    1.16490    1.25290   89.64300    0.45200   63.69900
  163.00000    1.16050    1.24050   88.78600    0.42200   63.68800
  163.50000    1.15600    1.22800   93.37600    0.40700   63.67800
  164.00000    1.15160    1.21550   96.73500    0.40000   63.66700
  164.50000    1.14720    1.20310   97.21000    0.39400   63.65600
  165.00000    1.14270    1.19090   92.39300    0.38700   63.64500
  165.50000    1.13830    1.18360   88.72800    0.38000   63.63500
  166.00000    1.13390    1.20230   85.07300    0.37300   63.62400
  166.50000    1.12960    1.22050   82.73000    0.36600   63.61300
  167.00000    1.12610    1.23800   84.51500    0.35900   63.60200
  167.50000    1.15410    1.25330   90.65100    0.35200   63.59100
  168.00000    1.18290    1.31370   96.84900    0.34500   63.58200
  168.50000    1.21170    1.39700  104.84000    0.33800   63.57300
  169.00000    1.24020    1.44600  110.66000    0.33100   63.56400
  169.50000    1.26710    1.46340  117.05000    0.32200   63.55500
  170.00000    1.27610    1.47060  112.93000    0.31400   63.54600
  170.50000    1.28580    1.47810  106.27000    0.29800   63.53700
  171.00000    1.29570    1.48730  108.40000    0.27500   63.52900
  171.50000    1.30560    1.45540  112.63000    0.25300   63.52000
  172.00000    1.31550    1.45760  109.72000    0.23100   63.51100
  172.50000    1.32940    1.45830  102.18000    0.22400   63.50200
  173.00000    1.34630    1.45920   90.91100    0.21600   63.49300
  173.50000    1.36310    1.48450   85.95200    0.20800   63.48400
  174.00000    1.37990    1.51050   92.08900    0.19900   63.47500
  174.50000    1.39680    1.53650  102.81000    0.19100   63.46600
  175.00000    1.41360    1.56260  109.02000    0.18300   63.45700
  175.50000    1.43040    1.58880  113.12000    0.14700   63.41000
  176.00000    1.44700    1.61510  117.01000    0.10600   63.32200
  176.50000    1.45390    1.64230  120.95000    0.06500   63.23500
  177.00000    1.43710    1.64310  121.50000    0.05300   63.14800
  177.50000    1.42070    1.62510  114.07000    0.04200   63.06100
  178.00000    1.40440    1.60700  112.80000    0.04300   63.02200
  178.50000    1.38810    1.58890  118.60000    0.04500   63.00600
  179.00000    1.37190    1.57070  123.97000    0.04600   62.99000
  179.50000    1.35570    1.55240  124.58000    0.04700   62.98400
