~Version ---------------------------------------------------
VERS.   2.0 : CWLS log ASCII Standard -VERSION 2.0
WRAP.    NO : One line per depth step
DLM . SPACE : Column Data Section Delimiter
~Well ------------------------------------------------------
STRT.F     0.0 : START DEPTH
STOP.F   396.0 : STOP DEPTH
STEP.F     0.5 : STEP
NULL. -9999.25 : NULL VALUE
COMP.          : COMPANY
WELL.          : WELL
FLD .          : FIELD
LOC .          : LOCATION
PROV.          : PROVINCE
CNTY.          : COUNTY
STAT.          : STATE
CTRY.          : COUNTRY
SRVC.          : SERVICE COMPANY
DATE.          : DATE
UWI .          : UNIQUE WELL ID
API .          : API NUMBER
~Curve Information -----------------------------------------
DEPT.F     : 
RILD.      : 
RILM.      : 
GR  .      : 
FRES.OHMM  : 
TMP .DEGF  : 
~Params ----------------------------------------------------
~Other -----------------------------------------------------
~ASCII -----------------------------------------------------
# ...
  300.00000    3.26850    4.67190   93.30400    0.20600   66.53200
  300.50000    3.34900    4.57670   91.65300    0.20900   66.56600
  301.00000    3.42390    4.58310   92.59800    0.21200   66.60000
  301.50000    3.49900    4.70080   94.68900    0.21500   66.63500
  302.00000    3.54950    4.86350  100.37000    0.21900   66.66900
  302.50000    3.56530    5.02750  106.46000    0.22200   66.70300
  303.00000    3.55220    5.27650  112.57000    0.22600   66.73400
  303.50000    3.50240    5.60300  118.71000    0.22900   66.76600
  304.00000    3.43400    5.94310  126.75000    0.23300   66.79700
  304.50000    3.36120    5.99440  122.49000    0.23700   66.82800
  305.00000    3.29130    5.93630  115.29000    0.24100   66.86000
  305.50000    3.23680    5.67130  112.15000    0.24400   66.89100
  306.00000    3.20310    5.42410  114.62000    0.24900   66.92200
  306.50000    3.16970    5.24490  117.13000    0.25400   66.95400
  307.00000    3.13640    5.06630  117.48000    0.25900   66.98500
  307.50000    3.10310    4.88790  112.27000    0.26300   67.01600
  308.00000    3.06970    4.71100  107.30000    0.26800   67.04800
  308.50000    3.03480    4.49690  103.59000    0.27300   67.07900
  309.00000    2.99120    4.27260  103.19000    0.27800   67.11100
  309.50000    2.94740    4.04970  104.83000    0.28300   67.14200
  310.00000    2.90190    3.84240  108.12000    0.28800   67.17300
  310.50000    2.82270    3.74310  110.83000    0.29700   67.20500
  311.00000    2.73930    3.63950  112.17000    0.30600   67.23600
  311.50000    2.68080    3.53510  114.05000    0.31500   67.26700
  312.00000    2.63230    3.40170  114.64000    0.32400   67.29900
  312.50000    2.58340    3.32210  114.30000    0.33300   67.33000
  313.00000    2.57650    3.24690  109.63000    0.34200   67.36100
  313.50000    2.58640    3.23620  107.83000    0.35100   67.39300
  314.00000    2.59250    3.18970  114.96000    0.36000   67.42400
  314.50000    2.46170    3.12260  122.63000    0.36800   67.45500
  315.00000    2.40470    2.98850  127.64000    0.37700   67.48700
  315.50000    2.34820    2.85360  119.63000    0.38600   67.51800
  316.00000    2.29160    2.71830  111.14000    0.39500   67.55000
  316.50000    2.24050    2.62200  108.24000    0.40400   67.58100
  317.00000    2.19470    2.56360  108.96000    0.41300   67.61200
  317.50000    2.14910    2.50500  109.25000    0.42200   67.64400
  318.00000    2.10390    2.44680  101.30000    0.43100   67.67500
  318.50000    2.07290    2.39840   98.38100    0.43900   67.70600
  319.00000    2.09520    2.39130  103.80000    0.44800   67.73800
  319.50000    2.11650    2.38310  109.77000    0.45700   67.76900
  320.00000    2.13770    2.37670  114.64000    0.46600   67.80300
  320.50000    2.16550    2.41290  121.04000    0.47500   67.84600
  321.00000    2.21110    2.44800  122.93000    0.48400   67.89000
  321.50000    2.25670    2.48330  122.09000    0.49300   67.93300
  322.00000    2.30240    2.51930  121.18000    0.50200   67.97700
  322.50000    2.34820    2.64000  122.06000    0.52000   68.02100
  323.00000    2.39460    2.75400  109.03000    0.54500   68.06400
  323.50000    2.45260    2.86800  102.88000    0.56900   68.10800
  324.00000    2.49290    2.98330  101.91000    0.59300   68.15200
  324.50000    2.50540    3.09490  113.35000    0.61800   68.19500
  325.00000    2.52870    3.25710  118.92000    0.64200   68.23900
  325.50000    2.58700    3.41800  115.80000    0.66700   68.28300
  326.00000    2.65040    3.58050  111.43000    0.69100   68.32700
  326.50000    2.73220    3.74340  106.56000    0.71500   68.39700
  327.00000    2.82280    3.90330  108.65000    0.74000   68.46600
  327.50000    2.91360    4.04080  111.94000    0.76500   68.52700
  328.00000    3.00920    4.15590  -59.03600    0.79000   68.55600
  328.50000    3.01310    4.18220  -42.23100    0.81400   68.58600
  329.00000    3.01320    4.04930  -22.39700    0.83900   68.61600
  329.50000    3.00470    3.88420   -8.89810    0.86400   68.64500
  330.00000    2.96660    3.72330   -7.54820    0.88800   68.67500
  330.50000    2.92910    3.58470   -7.24520    0.91300   68.70400
  331.00000    2.92280    3.48060  -17.98900    0.93800   68.73600
  331.50000    2.98810    3.40230  -36.80800    0.96300   68.78100
  332.00000    3.04620    3.42030  -48.29200    0.98700   68.82500
  332.50000    3.10410    3.44050  137.66000    1.01100   68.86100
  333.00000    3.16170    3.52350  131.23000    1.01700   68.88000
  333.50000    3.21890    3.73130  126.64000    1.02300   68.89900
  334.00000    3.28610    3.95410  126.64000    1.02900   68.91900
  334.50000    3.37600    4.23040  130.98000    1.03600   68.93800
  335.00000    3.46700    4.48790  133.29000    1.04200   68.95700
  335.50000    3.55820    4.72330  134.91000    1.04800   68.97600
  336.00000    3.64960    4.94380  136.63000    1.05500   68.99600
  336.50000    3.74100    5.12830  138.10000    1.05900   69.02300
  337.00000    3.82580    5.14240  134.80000    1.04400   69.06600
  337.50000    3.93850    5.15560  126.47000    0.98400   69.25000
  338.00000    3.94620    5.16920  117.24000    0.92400   69.47800
  338.50000    3.95570    5.16000  113.40000    0.88200   69.70700
  339.00000    3.96510    5.22450  111.97000    0.87400   69.90500
  339.50000    3.97440    5.41930  114.97000    0.86500   69.94000
  340.00000    3.98390    5.61190  116.98000    0.85700   69.97500
  340.50000    3.99340    5.59750  114.12000    0.84900   70.01000
  341.00000    4.00290    5.53010  100.33000    0.84000   70.04500
  341.50000    4.01230    5.46170   91.55100    0.83200   70.08700
  342.00000    4.00900    5.39580  100.81000    0.82400   70.13000
  342.50000    3.99200    5.26420  114.65000    0.81500   70.17200
  343.00000    3.97520    5.14220  124.12000    0.80700   70.21400
  343.50000    3.95830    5.08990  128.98000    0.79800   70.25600
  344.00000    3.94140    5.01220  120.60000    0.79000   70.29800
  344.50000    3.92430    4.91600  118.41000    0.78200   70.34000
  345.00000    3.90680    4.81790  120.69000    0.77300   70.38200
  345.50000    3.90040    4.81730  123.52000    0.75900   70.42400
  346.00000    3.96300    4.85270  123.77000    0.73900   70.48600
  346.50000    4.05990    4.88430  124.54000    0.71800   70.56600
  347.00000    4.15720    5.06360  126.86000    0.70400   70.64500
  347.50000    4.26270    5.28120  127.83000    0.69400   70.72400
  348.00000    4.45520    5.64130  115.72000    0.68400   70.80000
  348.50000    4.66050    6.09250  107.70000    0.67400   70.87400
  349.00000    4.95100    6.90310  107.22000    0.66400   70.94800
  349.50000    5.23290    7.69360  110.59000    0.65400   71.02200
  350.00000    5.42530    8.39570  105.44000    0.64400   71.09600
  350.50000    5.40640    8.42380   97.25200    0.63400   71.16100
  351.00000    5.33600    8.06710   93.65600    0.62400   71.19500
  351.50000    5.40820    7.79170  100.89000    0.61400   71.23000
  352.00000    5.72530    7.90280  107.01000    0.60400   71.26400
  352.50000    6.04380    8.46220  109.49000    0.59400   71.29800
  353.00000    6.36170   11.74100  108.14000    0.58400   71.33300
  353.50000    6.69410   15.78100  107.32000    0.57400   71.36700
  354.00000    6.73060   19.34200  106.09000    0.56400   71.40100
  354.50000    6.53810   19.38500  102.76000    0.56000   71.43600
  355.00000    6.35080   19.36500   99.90500    0.55600   71.47000
  355.50000    6.16450   19.36700  104.68000    0.55100   71.50400
  356.00000    5.97930   19.36600  109.39000    0.54700   71.53800
  356.50000    5.81250   19.37500  102.71000    0.54300   71.57300
  357.00000    5.71140   19.37500   97.86900    0.53800   71.60700
  357.50000    5.60810   19.37500   94.63700    0.53400   71.64100
  358.00000    5.50430   19.37500  103.83000    0.52900   71.67600
  358.50000    5.40290   14.33000  111.17000    0.52500   71.71000
  359.00000    5.35680    9.72350  114.20000    0.52100   71.74400
  359.50000    5.38000    9.79200  108.28000    0.51600   71.77400
