~Version
#MNEM .UNIT                VALUE  : DESCRIPTION                    
 VERS .                      2.0  : CWLS LOG ASCII STANDARD - VERSION 2.0 
 WRAP .                       NO  : ONE LINE PER DEPTH STEP        
~Well
#MNEM .UNIT           VALUE  : DESCRIPTION                    
 STRT  .m                0.0  : Start Depth                    
 STOP  .m              360.0  : Stop Depth                     
 STEP  .m                0.5  : Step                           
 NULL  .             -999.25  : Null Value                     
 COMP  .                      : Company                        
 WELL  .               MW-8D  : Well                           
 FLD   .                      : Field                          
 SEC   .                      : Section                        
 TOWN  .                      : Township (e.g. 42S)            
 RANG  .                      : Range  (e.g. 25E)              
 LOC   .                      : Location (Sec Town Range)      
 LOC1  .                      : Location 1 (quarter calls)     
 LOC2  .                      : Location 2 (footages)          
 PROV  .                      : Province                       
 CTRY  .                      : Country                        
 STAT  .                      : State                          
 CNTY  .                      : County                         
 API   .                      : API-Number                     
 UWI   .               MW-8D  : Unique Well ID                 
 SRVC  .                      : Service Company                
 LIC   .                      : Licence Number                 
 DATE  .                      : Date preferred format is MM/DD/YYYY 
 LATI  .DEG                   : Latitude                       
 LONG  .DEG                   : Longitude                      
 GDAT  .               NAD27  : Geodetic Datum                 
 X     .                      : X or East-West coordinate      
 Y     .                      : Y or North South coordinate    
 HZCS  .                 UTM  : Horizontal Co-ordinate System  
 UTM   .                      : UTM Location                   
 STUS  .                      : Well Status                    
~Parameter
#MNEM .UNIT           VALUE  : DESCRIPTION                    
 EGL   .F                     : Ground Level Elevation         
 EKB   .F                     : Kelly Bushing Elevation        
 EDF   .F                     : Derrick Floor Elevation        
 ERT   .F                     : Rotary Table Elevation         
 TDL   .F                     : Total Depth Logger             
 TDD   .F                     : Total Depth Driller            
 CSGL  .F                     : Casing Bottom Logger           
 CSGD  .F                     : Casing Bottom Driller          
 CSGS  .IN                    : Casing Size                    
 CSGW  .LB                    : Casing Weight                  
 BS    .IN                    : Bit Size                       
 DFT   .                      : Mud type                       
 MSS   .                      : Mud Sample Source              
 DFD   .gm/cc                 : Mud Density                    
 DFV   .s/qt                  : Mud Viscosity (Funnel)         
 DFL   .cc                    : Fluid Loss                     
 PH    .                      : PH                             
 RM    .OHM-M                 : Resistivity of Mud             
 MST   .DEG-F                 : Temperature of Mud             
 RMF   .OHM-M                 : Resistivity of Mud Filtrate    
 MFT   .DEG-F                 : Temperature of Mud Filtrate    
 RMC   .OHM-M                 : Resistivity of Mud Cake        
 MCST  .DEG-F                 : Temperature of Mud Cake        
 BHT   .DEG-F                 : Maximum Recorded Temperature   
 RMB   .OHM-M                 : Resitivity @ BHT               
 TIMC  .DATE                  : Date/Time Circulation Stopped  
 TIML  .DATE                  : Date/Time Logger Tagged Bottom 
 UNIT  .                      : Logging Unit Number            
 BASE  .                      : Home Base of Logging Unit      
 ENG   .                      : Recording Engineer             
 WIT   .                      : Witnessed By                   
~Curve
#MNEM .UNIT           VALUE  : DESCRIPTION                    
 DEPT  .F                     : Depth                          
 SP    .MV                    : Spontaneous Potential          
 GR    .API                   : Gamma Ray                      
 RILD  .OHM-M                 : Deep Induction Resistivity     
 RILM  .OHM-M                 : Medium Induction Resistivity   
 FRES  .OHM-M                 : Fluid Resistivity              
~ASCII  DEPT SP GR RILD RILM FRES
 0.0 -136.96 82.293 5.3047 5.0831 -999.25
 0.5 -136.96 70.239 21.062 13.525 -999.25
 1.0 -136.96 78.361 25.698 25.463 -999.25
 1.5 -136.96 63.322 28.937 30.966 -999.25
 2.0 -136.96 66.655 30.129 34.161 -999.25
 2.5 -136.96 66.522 31.572 36.475 -999.25
 3.0 -136.96 69.572 34.189 39.951 -999.25
 3.5 -39.296 59.431 35.046 30.825 -999.25
 4.0 40.748 21.129 31.049 22.473 -999.25
 4.5 37.205 28.022 26.793 21.304 -999.25
 5.0 29.98 49.028 3.563 7.32 -999.25
 5.5 35.517 53.958 1.129 3.428 -999.25
 6.0 32.719 56.463 38.008 17.641 -999.25
 6.5 26.138 56.527 47.5 53.189 -999.25
 7.0 22.907 50.394 45.377 58.331 -999.25
 7.5 24.742 58.404 43.982 59.835 -999.25
 8.0 29.448 57.359 37.727 49.046 -999.25
 8.5 31.024 52.109 33.948 48.806 -999.25
 9.0 30.042 52.297 31.168 43.728 -999.25
 9.5 29.051 56.688 33.292 47.299 -999.25
 10.0 27.939 54.171 34.069 49.665 -999.25
 10.5 28.574 61.45 32.634 47.857 -999.25
 11.0 29.151 51.579 31.265 43.846 -999.25
 11.5 25.334 54.356 30.386 47.79 -999.25
 12.0 20.144 54.316 30.725 51.789 -999.25
 12.5 16.8 54.764 31.843 54.848 -999.25
 13.0 23.854 51.139 32.369 51.634 -999.25
 13.5 11.779 53.221 30.222 47.052 -999.25
 14.0 -9.868 52.842 29.384 42.762 -999.25
 14.5 -43.198 47.544 32.743 44.885 -999.25
 15.0 -63.844 62.197 34.698 44.997 -999.25
 15.5 -68.777 54.959 32.976 44.373 -999.25
 16.0 -66.803 61.861 32.32 44.32 -999.25
 16.5 -55.365 56.012 29.516 43.839 -999.25
 17.0 -45.305 49.803 26.784 40.043 -999.25
 17.5 -34.782 46.976 24.728 34.994 -999.25
 18.0 -32.463 48.595 24.216 32.916 -999.25
 18.5 -28.105 53.779 23.713 32.533 -999.25
 19.0 -26.439 52.528 23.151 29.722 -999.25
 19.5 -22.172 59.398 22.777 28.188 -999.25
 20.0 -19.025 59.045 23.103 29.338 -999.25
 20.5 -20.239 53.848 23.356 33.184 -999.25
 21.0 -20.371 67.256 23.754 34.635 -999.25
 21.5 -24.209 82.069 23.579 38.43 -999.25
 22.0 -21.88 80.745 23.404 39.128 -999.25
 22.5 -20.296 71.035 22.711 38.19 -999.25
 23.0 -15.5 70.91 23.325 38.512 -999.25
 23.5 -21.148 80.42 23.711 39.755 -999.25
 24.0 -17.391 66.342 22.857 38.027 -999.25
 24.5 -13.505 64.803 22.234 32.667 -999.25
 25.0 -13.098 69.247 22.254 31.573 -999.25
 25.5 -11.375 74.077 23.012 31.19 -999.25
 26.0 -9.473 64.891 21.878 25.534 -999.25
 26.5 -5.487 76.345 9.007 16.732 -999.25
 27.0 -6.703 67.287 5.87 10.982 -999.25
 27.5 -0.864 72.035 5.34 8.769 -999.25
 28.0 7.009 65.59 5.329 8.373 -999.25
 28.5 13.865 58.948 5.166 8.057 -999.25
 29.0 20.888 71.887 5.157 7.778 -999.25
 29.5 28.386 71.218 4.938 7.464 -999.25
 30.0 36.669 67.609 4.755 7.127 -999.25
 30.5 37.929 74.395 4.608 6.868 -999.25
 31.0 36.619 61.006 4.593 6.984 -999.25
 31.5 46.744 60.902 5.151 7.981 -999.25
 32.0 47.246 58.658 5.77 9.302 -999.25
 32.5 47.862 52.951 6.193 10.504 -999.25
 33.0 45.185 56.162 6.361 10.948 -999.25
 33.5 46.404 62.205 6.238 11.396 -999.25
 34.0 49.528 61.4 6.91 12.753 -999.25
 34.5 42.561 67.739 9.247 15.939 -999.25
 35.0 47.153 63.375 12.91 19.368 -999.25
 35.5 47.407 54.145 19.598 21.197 -999.25
 36.0 44.539 55.226 19.353 22.327 -999.25
 36.5 43.744 59.615 19.352 21.907 -999.25
 37.0 53.992 63.137 9.448 18.258 -999.25
 37.5 47.916 61.07 7.805 14.268 -999.25
 38.0 53.238 66.989 6.966 11.742 -999.25
 38.5 49.056 65.757 6.298 10.252 -999.25
 39.0 51.407 60.579 5.3 8.446 -999.25
 39.5 47.092 64.573 4.602 6.81 -999.25
 40.0 44.245 62.515 4.036 5.731 -999.25
 40.5 44.799 72.907 3.381 4.681 -999.25
 41.0 45.176 56.253 2.935 3.937 -999.25
 41.5 47.221 73.232 2.701 3.419 -999.25
 42.0 44.335 61.113 2.602 3.099 -999.25
 42.5 42.999 69.234 2.367 2.761 -999.25
 43.0 36.528 69.435 2.108 2.291 -999.25
 43.5 31.186 67.483 1.812 2.064 -999.25
 44.0 28.555 66.5 1.694 1.905 -999.25
 44.5 25.417 63.488 1.781 1.929 -999.25
 45.0 14.889 61.258 1.869 2.002 -999.25
 45.5 5.903 63.792 1.853 1.989 -999.25
 46.0 19.504 55.739 1.786 1.884 -999.25
 46.5 13.775 58.059 1.634 1.701 -999.25
 47.0 7.464 59.839 1.587 1.623 -999.25
 47.5 5.353 48.118 1.538 1.586 -999.25
 48.0 4.05 40.12 1.489 1.558 -999.25
 48.5 1.609 36.378 1.44 1.542 -999.25
 49.0 -2.464 33.246 1.38 1.484 -999.25
 49.5 -6.864 36.301 1.344 1.459 -999.25
 50.0 -11.027 30.65 1.484 1.595 -999.25
 50.5 -16.281 32.012 1.579 1.718 -999.25
 51.0 -24.387 39.85 1.554 1.729 -999.25
 51.5 -33.666 38.204 1.61 1.683 -999.25
 52.0 -44.408 29.456 1.4 1.554 -999.25
 52.5 -56.806 45.674 1.225 1.338 -999.25
 53.0 -66.942 33.229 1.205 1.284 -999.25
 53.5 -76.844 40.884 1.186 1.279 -999.25
 54.0 -95.243 37.525 1.185 1.273 -999.25
 54.5 -95.944 37.682 1.198 1.268 -999.25
 55.0 -106.803 40.644 1.192 1.262 -999.25
 55.5 -116.67 42.996 1.172 1.257 -999.25
 56.0 -122.728 44.958 1.159 1.25 -999.25
 56.5 -123.803 55.064 1.146 1.244 -999.25
 57.0 -122.404 68.257 1.134 1.238 -999.25
 57.5 -121.003 59.561 1.119 1.242 -999.25
 58.0 -118.452 47.337 1.117 1.26 -999.25
 58.5 -116.353 43.772 1.201 1.299 -999.25
 59.0 -115.14 51.763 1.191 1.314 -999.25
 59.5 -113.931 55.542 1.18 1.261 -999.25
 60.0 -111.666 52.656 1.177 1.304 -999.25
 60.5 -109.195 50.968 1.24 1.339 -999.25
 61.0 -107.308 54.243 1.195 1.326 -999.25
 61.5 -105.537 54.965 1.248 1.322 -999.25
 62.0 -103.577 58.004 1.222 1.333 -999.25
 62.5 -101.259 45.957 1.221 1.34 -999.25
 63.0 -102.138 49.859 1.234 1.316 -999.25
 63.5 -98.143 60.913 1.33 1.374 -999.25
 64.0 -94.662 59.34 1.178 1.34 -999.25
 64.5 -94.938 66.675 1.089 1.256 -999.25
 65.0 -96.446 64.67 0.981 1.174 -999.25
 65.5 -90.534 72.114 1.047 1.143 -999.25
 66.0 -86.336 67.739 1.193 1.243 -999.25
 66.5 -78.868 65.424 1.35 1.381 -999.25
 67.0 -70.775 56.561 1.396 1.481 -999.25
 67.5 -66.567 54.524 1.495 1.575 -999.25
 68.0 -63.613 56.36 1.388 1.511 -999.25
 68.5 -63.759 54.94 1.429 1.523 -999.25
 69.0 -61.703 62.736 1.334 1.497 -999.25
 69.5 -67.703 64.466 1.588 1.608 -999.25
 70.0 -66.145 64.307 1.924 1.782 -999.25
 70.5 -62.957 65.831 1.813 1.865 -999.25
 71.0 -64.0 69.562 1.557 1.661 -999.25
 71.5 -60.592 64.75 1.538 1.6 -999.25
 72.0 -54.174 69.113 1.849 1.787 -999.25
 72.5 -53.816 67.595 2.392 2.096 -999.25
 73.0 -54.741 71.852 2.993 2.481 -999.25
 73.5 -55.981 68.142 3.51 2.851 -999.25
 74.0 -54.847 69.943 4.067 3.2 -999.25
 74.5 -52.111 75.481 5.238 3.45 -999.25
 75.0 -51.604 73.152 5.668 3.833 -999.25
 75.5 -50.95 69.192 5.29 3.89 -999.25
 76.0 -51.92 69.433 4.854 3.864 -999.25
 76.5 -52.407 63.361 4.928 3.727 -999.25
 77.0 -50.224 83.614 5.207 3.723 -999.25
 77.5 -45.169 75.609 4.895 3.664 -999.25
 78.0 -41.375 65.609 4.929 3.588 -999.25
 78.5 -41.12 75.626 4.415 3.495 -999.25
 79.0 -37.843 75.457 3.921 3.351 -999.25
 79.5 -33.021 69.74 4.375 3.366 -999.25
 80.0 -28.221 62.605 4.458 3.443 -999.25
 80.5 -28.15 57.337 4.492 3.52 -999.25
 81.0 -33.229 52.572 4.78 3.597 -999.25
 81.5 -37.636 52.288 5.089 3.728 -999.25
 82.0 -38.205 53.068 5.098 3.673 -999.25
 82.5 -36.608 59.19 4.798 3.503 -999.25
 83.0 -35.011 54.917 4.115 3.336 -999.25
 83.5 -32.676 61.109 3.532 3.078 -999.25
 84.0 -32.618 55.329 3.556 3.061 -999.25
 84.5 -31.123 61.05 3.671 3.062 -999.25
 85.0 -27.787 59.874 3.797 3.112 -999.25
 85.5 -22.091 46.323 3.67 3.127 -999.25
 86.0 -22.944 59.133 3.635 3.132 -999.25
 86.5 -27.125 78.421 3.53 3.104 -999.25
 87.0 -27.503 78.918 3.468 3.1 -999.25
 87.5 -26.817 73.328 3.879 3.324 -999.25
 88.0 -24.501 77.356 4.809 3.548 -999.25
 88.5 -13.384 81.121 4.969 3.737 -999.25
 89.0 -2.161 68.824 4.917 3.68 -999.25
 89.5 -0.57 65.465 4.851 3.816 -999.25
 90.0 -3.25 56.291 4.612 4.006 -999.25
 90.5 -1.293 62.289 5.761 4.097 -999.25
 91.0 2.883 61.962 5.719 3.72 -999.25
 91.5 4.229 61.666 4.941 3.522 -999.25
 92.0 5.54 58.68 5.453 3.883 -999.25
 92.5 6.81 59.641 6.23 4.389 -999.25
 93.0 7.889 59.641 6.987 5.194 -999.25
 93.5 8.321 59.641 7.722 5.158 -999.25
 94.0 8.753 -999.25 7.821 5.126 -999.25
 94.5 9.185 -999.25 7.712 4.92 -999.25
 95.0 9.617 -999.25 7.555 4.932 -999.25
 95.5 9.943 -999.25 7.178 4.55 -999.25
 96.0 9.656 -999.25 6.887 4.564 -999.25
 96.5 9.347 -999.25 7.312 4.75 -999.25
 97.0 9.038 -999.25 6.868 4.279 -999.25
 97.5 8.729 -999.25 6.017 3.94 -999.25
 98.0 8.42 -999.25 4.996 3.62 -999.25
