~Version ---------------------------------------------------
VERS. 2.0 : CWLS log ASCII Standard -VERSION 2.0
WRAP.  NO : One Line Per Depth Step
~Well ------------------------------------------------------
STRT.FT                                     0.0 : START DEPTH
STOP.FT                                   352.0 : STOP DEPTH
STEP.FT                                     0.5 : STEP
NULL.                                   -999.25 : NULL VALUE
COMP.                  COMPANY CASCADE DRILLING : COMPANY
WELL.                                     MW-8D : WELL
FLD .                                   SALINAS : FIELD
LOC . 325 MONTE RD|GPS N 360 43 36 W 1210 47 15 : LOCATION
CNTY.                                  MONTEREY : COUNTY
STAT.                                        CA : STATE
CTRY.                                       USA : COUNTRY
SRVC.                                           : SERVICE COMPANY
DATE.                                           : DATE
API .                                     MW-8D : API NUMBER
UWI .                                     MW-8D : UWI NUMBER
TVD .                                        NO : TVD flag
WSTA.                                       LOC : Well status
~Curve Information -----------------------------------------
DEPT.FT                : Depth in Feet
SP  .MV   01 010 01 01 : Spontaneous Potential
GR  .GAPI 35 310 01 01 : Gamma Ray
RILM.OHMM 05 120 44 01 : Raw Ilm Conductivity
RILD.OHMM 05 120 46 01 : Raw Ild Conductivity
FRES.OHM-M             : 
~Params ----------------------------------------------------
DATE. 4/20/2015 : Date As Month-Day-Year
RUN .       ONE : Run Number
PDAT.        GL : Permanent Datum
EPD .FT     0.0 : Elevation Of Perm. Datum
LMF .        GL : Log Measured From
DMF .        GL : Drilling Measured From
TD  .FT   352.0 : Total Depth
WSTA.       LOC : 
EGL .FT     0.0 : Elevation Of Ground Level
~Other -----------------------------------------------------
<DescLogPlotStart>   NEURALOG PLOT DEFINITION
PLOTDEFVERSION: 3
LASFILE: D:\nds\projects\LD-stan-11-15-2016 rush project\las\MPWSP_MW8D_DIL.las
DEPTHSCALE: 240.000000
RESOLUTION: 300
DEPTHLABELFREQ: 100.000000
HEAVYGRIDFREQ: 100.000000
MEDIUMGRIDFREQ: 50.000000
LIGHTGRIDFREQ: 10.000000
STARTTRACK:
LEFTX: 0.500000 inch
RIGHTX: 1.750000 inch
SCALETYPE: Linear
NUMCHARTDIVISIONS: 10
CURVE: SP    -140.000000 60.000000  (0,0,255)      Solid             2     N
CURVE: GR    20.000000  120.000000 (0,131,131)    Dot               2     Y
BACKUP: -80.000000 20.000000  (0,131,131)    Dot               2
ENDTRACK:
STARTTRACK:
LEFTX: 2.250000 inch
RIGHTX: 3.500000 inch
SCALETYPE: Linear
NUMCHARTDIVISIONS: 10
CURVE: RILM  0.000000   10.000000  (255,0,255)    Solid             2     Y
BACKUP: 10.000000  100.000000 (255,0,255)    Solid             2
CURVE: RILD  0.000000   10.000000  (255,0,0)      Dot               2     Y
BACKUP: 0.000000   100.000000 (255,0,0)      Dot               2
ENDTRACK:
<DescLogPlotEnd>
~ASCII -----------------------------------------------------
# ...
  240.00000  -56.13533   66.00869    3.15680    2.59892    0.00100
  240.50000  -56.30174   63.60160    3.31611    2.71485    0.00100
  241.00000  -56.05464   67.06998    3.46807    2.82118    0.00100
  241.50000  -55.79294   70.86294    3.61476    2.92736    0.00100
  242.00000  -55.53117   70.79383    3.73803    3.03355    0.00100
  242.50000  -55.26965   70.25237    3.90064    3.13974    0.00100
  243.00000  -54.52308   69.70139    4.19392    3.24590    0.00100
  243.50000  -53.55746   71.17849    4.50605    3.34449    0.00100
  244.00000  -52.78515   73.29086    4.92914    3.38846    0.00100
  244.50000  -51.98640   75.88901    5.29508    3.46086    0.00100
  245.00000  -51.80119   78.33745    5.46407    3.61146    0.00100
  245.50000  -51.70796   77.04824    5.56797    3.72188    0.00100
  246.00000  -51.61551   73.47537    5.67255    3.82082    0.00100
  246.50000  -51.52305   70.87563    5.64224    3.91769    0.00100
  247.00000  -51.43059   70.55841    5.45026    3.93623    0.00100
  247.50000  -51.33988   70.35286    5.32035    3.90361    0.00100
  248.00000  -50.38112   67.49783    5.24544    3.87062    0.00100
  248.50000  -50.95366   67.39159    5.10494    3.86427    0.00100
  249.00000  -51.52571   69.38085    4.93060    3.86428    0.00100
  249.50000  -52.10064   69.45629    4.81931    3.86443    0.00100
  250.00000  -52.23100   67.41256    4.76127    3.84107    0.00100
  250.50000  -51.98081   65.36055    4.79183    3.77175    0.00100
  251.00000  -52.42238   63.29308    4.93252    3.72616    0.00100
  251.50000  -52.88907   65.83012    5.10604    3.72576    0.00100
  252.00000  -51.92716   76.67945    5.24738    3.72577    0.00100
  252.50000  -50.58038   83.28650    5.22613    3.72581    0.00100
  253.00000  -49.15774   84.60908    5.14792    3.71623    0.00100
  253.50000  -47.74309   80.59217    5.04560    3.69549    0.00100
  254.00000  -46.32205   76.54466    4.92094    3.67474    0.00100
  254.50000  -44.14338   74.77720    4.87170    3.65399    0.00100
  255.00000  -43.13161   74.35358    4.89199    3.63324    0.00100
  255.50000  -42.16212   70.49788    4.91220    3.61160    0.00100
  256.00000  -41.19056   64.46599    4.93308    3.58295    0.00100
  256.50000  -40.29195   63.39765    4.86162    3.55432    0.00100
  257.00000  -40.70805   70.15365    4.64867    3.52568    0.00100
  257.50000  -41.12364   75.31518    4.43469    3.49952    0.00100
  258.00000  -41.08611   78.69251    4.22077    3.45520    0.00100
  258.50000  -39.86412   80.08257    4.01451    3.41114    0.00100
  259.00000  -38.39067   78.20435    3.92017    3.36714    0.00100
  259.50000  -36.92088   70.83079    3.92331    3.32316    0.00100
  260.00000  -35.45128   67.63946    4.09877    3.32685    0.00100
  260.50000  -33.98168   69.64454    4.25627    3.35042    0.00100
  261.00000  -32.51208   69.79021    4.43862    3.37396    0.00100
  261.50000  -31.04248   68.39818    4.54310    3.39748    0.00100
  262.00000  -29.57280   66.23200    4.50950    3.42101    0.00100
  262.50000  -28.12553   62.35045    4.45441    3.44454    0.00100
  263.00000  -28.51011   59.05071    4.39421    3.46807    0.00100
  263.50000  -28.00218   58.29825    4.42645    3.49160    0.00100
  264.00000  -27.80279   57.53571    4.47725    3.51513    0.00100
  264.50000  -29.41353   56.61465    4.54916    3.53866    0.00100
  265.00000  -30.94954   55.39932    4.62121    3.56218    0.00100
  265.50000  -32.47243   53.12628    4.71473    3.58571    0.00100
  266.00000  -33.99615   52.01112    4.84579    3.60919    0.00100
  266.50000  -35.52098   52.17778    4.97937    3.64862    0.00100
  267.00000  -36.95186   52.72894    5.04716    3.69308    0.00100
  267.50000  -37.83408   52.16160    5.10112    3.73764    0.00100
  268.00000  -38.23931   51.89495    5.13234    3.77951    0.00100
  268.50000  -38.55650   52.38848    5.12059    3.72845    0.00100
  269.00000  -38.23384   52.87511    5.10250    3.67643    0.00100
  269.50000  -37.74716   56.15467    5.03936    3.62051    0.00100
  270.00000  -37.26008   60.63745    4.97689    3.55677    0.00100
  270.50000  -36.77298   60.31326    4.85717    3.51355    0.00100
  271.00000  -36.28587   57.01140    4.68188    3.48407    0.00100
  271.50000  -35.79877   53.54279    4.50758    3.45476    0.00100
  272.00000  -35.31166   53.52939    4.27045    3.38523    0.00100
  272.50000  -34.82456   55.76870    4.01918    3.30673    0.00100
  273.00000  -34.33782   59.69538    3.78539    3.22822    0.00100
  273.50000  -33.84873   62.56789    3.59898    3.14963    0.00100
  274.00000  -32.54688   60.95441    3.52479    3.07013    0.00100
  274.50000  -31.63000   56.64648    3.47800    3.06100    0.00100
  275.00000  -32.07766   55.39140    3.51405    3.06094    0.00100
  275.50000  -32.53406   55.38606    3.54949    3.06094    0.00100
  276.00000  -32.99396   55.07829    3.58481    3.06094    0.00100
  276.50000  -32.02394   58.89545    3.62012    3.06094    0.00100
  277.00000  -31.40456   60.60013    3.65544    3.06094    0.00100
  277.50000  -30.79175   61.57842    3.69009    3.06417    0.00100
  278.00000  -30.11833   62.51190    3.73396    3.08157    0.00100
  278.50000  -29.23387   62.47011    3.76710    3.09887    0.00100
  279.00000  -27.28945   58.98155    3.80740    3.11617    0.00100
  279.50000  -25.27097   53.47438    3.76335    3.13355    0.00100
  280.00000  -23.25169   47.97821    3.71719    3.13921    0.00100
  280.50000  -22.10727   46.27383    3.67162    3.12713    0.00100
  281.00000  -21.52031   48.15060    3.61572    3.11686    0.00100
  281.50000  -21.81096   52.65333    3.62493    3.12335    0.00100
  282.00000  -22.32039   57.07585    3.63293    3.12966    0.00100
  282.50000  -24.37259   63.85899    3.64112    3.13595    0.00100
  283.00000  -25.96203   72.30965    3.60565    3.14224    0.00100
  283.50000  -27.04766   77.41277    3.55826    3.12221    0.00100
  284.00000  -27.18047   79.13714    3.51084    3.09144    0.00100
  284.50000  -27.32625   81.47502    3.46346    3.06074    0.00100
  285.00000  -27.47439   81.24222    3.42521    3.03955    0.00100
  285.50000  -27.50695   78.56674    3.47488    3.10870    0.00100
  286.00000  -27.33376   75.39904    3.52339    3.17710    0.00100
  286.50000  -27.15848   74.67411    3.67074    3.24539    0.00100
  287.00000  -26.91403   73.27926    3.83757    3.31367    0.00100
  287.50000  -26.24999   73.58854    4.12390    3.38196    0.00100
  288.00000  -25.59977   74.51812    4.43485    3.45024    0.00100
  288.50000  -24.95250   76.59065    4.71123    3.51852    0.00100
  289.00000  -23.89828   78.38004    4.93895    3.58681    0.00100
  289.50000  -21.74755   80.15729    4.95354    3.65512    0.00100
  290.00000  -17.58576   80.52812    4.96239    3.72328    0.00100
  290.50000  -11.66525   81.36551    4.97216    3.74207    0.00100
  291.00000   -8.08587   80.83112    4.92271    3.72114    0.00100
  291.50000   -5.10547   75.29120    4.86548    3.70033    0.00100
  292.00000   -2.12178   68.73792    4.91819    3.67961    0.00100
  292.50000    0.14986   68.96570    4.96397    3.69104    0.00100
  293.00000    0.47607   70.08112    4.97868    3.73181    0.00100
  293.50000   -0.21266   66.51548    4.87767    3.79813    0.00100
  294.00000   -1.53599   62.62113    4.77723    3.86485    0.00100
  294.50000   -2.85244   59.15669    4.67688    3.93170    0.00100
  295.00000   -3.26104   58.19451    4.58232    3.98682    0.00100
  295.50000   -3.24297   54.74308    4.63625    4.02165    0.00100
  296.00000   -2.63609   53.46401    4.79299    4.05625    0.00100
  296.50000   -2.01033   58.16805    5.32047    4.09105    0.00100
  297.00000   -1.14592   63.13341    5.85134    4.09839    0.00100
  297.50000    0.14837   66.16743    6.17375    3.99776    0.00100
  298.00000    1.44337   64.49384    6.08018    3.86589    0.00100
  298.50000    2.73840   62.03465    5.75589    3.73458    0.00100
  299.00000    4.02891   61.36090    5.43072    3.60456    0.00100
  299.50000    4.30658   61.77159    5.10423    3.53107    0.00100
