~Version ---------------------------------------------------
VERS. 2.0 : CWLS log ASCII Standard -VERSION 2.0
WRAP.  NO : One Line Per Depth Step
~Well ------------------------------------------------------
STRT.FT                                     0.0 : START DEPTH
STOP.FT                                   352.0 : STOP DEPTH
STEP.FT                                     0.5 : STEP
NULL.                                   -999.25 : NULL VALUE
COMP.                  COMPANY CASCADE DRILLING : COMPANY
WELL.                                     MW-8D : WELL
FLD .                                   SALINAS : FIELD
LOC . 325 MONTE RD|GPS N 360 43 36 W 1210 47 15 : LOCATION
CNTY.                                  MONTEREY : COUNTY
STAT.                                        CA : STATE
CTRY.                                       USA : COUNTRY
SRVC.                                           : SERVICE COMPANY
DATE.                                           : DATE
API .                                     MW-8D : API NUMBER
UWI .                                     MW-8D : UWI NUMBER
TVD .                                        NO : TVD flag
WSTA.                                       LOC : Well status
~Curve Information -----------------------------------------
DEPT.FT                : Depth in Feet
SP  .MV   01 010 01 01 : Spontaneous Potential
GR  .GAPI 35 310 01 01 : Gamma Ray
RILM.OHMM 05 120 44 01 : Raw Ilm Conductivity
RILD.OHMM 05 120 46 01 : Raw Ild Conductivity
FRES.OHM-M             : 
~Params ----------------------------------------------------
DATE. 4/20/2015 : Date As Month-Day-Year
RUN .       ONE : Run Number
PDAT.        GL : Permanent Datum
EPD .FT     0.0 : Elevation Of Perm. Datum
LMF .        GL : Log Measured From
DMF .        GL : Drilling Measured From
TD  .FT   352.0 : Total Depth
WSTA.       LOC : 
EGL .FT     0.0 : Elevation Of Ground Level
~Other -----------------------------------------------------
<DescLogPlotStart>   NEURALOG PLOT DEFINITION
PLOTDEFVERSION: 3
LASFILE: D:\nds\projects\LD-stan-11-15-2016 rush project\las\MPWSP_MW8D_DIL.las
DEPTHSCALE: 240.000000
RESOLUTION: 300
DEPTHLABELFREQ: 100.000000
HEAVYGRIDFREQ: 100.000000
MEDIUMGRIDFREQ: 50.000000
LIGHTGRIDFREQ: 10.000000
STARTTRACK:
LEFTX: 0.500000 inch
RIGHTX: 1.750000 inch
SCALETYPE: Linear
NUMCHARTDIVISIONS: 10
CURVE: SP    -140.000000 60.000000  (0,0,255)      Solid             2     N
CURVE: GR    20.000000  120.000000 (0,131,131)    Dot               2     Y
BACKUP: -80.000000 20.000000  (0,131,131)    Dot               2
ENDTRACK:
STARTTRACK:
LEFTX: 2.250000 inch
RIGHTX: 3.500000 inch
SCALETYPE: Linear
NUMCHARTDIVISIONS: 10
CURVE: RILM  0.000000   10.000000  (255,0,255)    Solid             2     Y
BACKUP: 10.000000  100.000000 (255,0,255)    Solid             2
CURVE: RILD  0.000000   10.000000  (255,0,0)      Dot               2     Y
BACKUP: 0.000000   100.000000 (255,0,0)      Dot               2
ENDTRACK:
<DescLogPlotEnd>
~ASCII -----------------------------------------------------
# ...
  120.00000   42.73209   58.61027   19.35429   21.64699    3.65900
  120.50000   44.46874   59.62302   17.80554   20.43217    3.69300
  121.00000   50.38015   62.30922    9.84037   19.21267    3.72700
  121.50000   54.99933   63.37081    9.33685   17.99425    3.76000
  122.00000   55.50655   61.69490    8.82692   16.77583    3.79400
  122.50000   49.78290   60.20732    8.35437   15.55750    3.82800
  123.00000   47.87508   60.98385    7.83266   14.33868    3.86200
  123.50000   48.49524   62.30273    7.40870   13.26267    3.89600
  124.00000   52.60373   64.06656    7.19969   12.60092    3.92900
  124.50000   54.27025   66.23025    7.01798   11.93646    3.96300
  125.00000   51.27712   68.44938    6.86604   11.36701    3.99700
  125.50000   49.82530   70.67076    6.71536   10.96738    4.03100
  126.00000   48.94885   69.81320    6.45902   10.57100    4.06500
  126.50000   49.11930   63.32758    6.20116   10.06091    4.09900
  127.00000   49.90626   56.59675    5.92883    9.49541    4.13200
  127.50000   50.69100   56.96243    5.59928    8.94545    4.16600
  128.00000   51.48243   60.95249    5.26929    8.39574    4.20000
  128.50000   51.31598   62.62554    5.02414    7.84552    4.31300
  129.00000   49.38612   62.97776    4.81579    7.28387    4.51800
  129.50000   47.45383   64.44001    4.63223    6.87290    4.72300
  130.00000   45.48730   65.16953    4.46864    6.52789    4.92800
  130.50000   44.25266   62.97054    4.29797    6.20486    5.13300
  131.00000   44.25209   61.57122    4.12406    5.88177    5.33800
  131.50000   44.23475   63.58439    3.93503    5.55867    5.54300
  132.00000   45.64514   68.06974    3.71194    5.23559    5.74800
  132.50000   46.49924   73.39497    3.49374    4.91253    5.95300
  133.00000   44.23323   72.76393    3.34311    4.60363    6.15800
  133.50000   41.90214   64.69801    3.17858    4.33988    6.36200
  134.00000   41.89371   55.81779    3.00862    4.10141    6.56700
  134.50000   45.07838   56.00823    2.93715    3.94147    6.77200
  135.00000   48.75369   64.49340    2.86621    3.78173    6.97700
  135.50000   48.62418   71.53890    2.79465    3.62236    7.18200
  136.00000   47.91924   73.78388    2.72302    3.46400    7.38700
  136.50000   45.66251   72.01368    2.65142    3.31865    7.59200
  137.00000   45.36357   66.95048    2.61759    3.22015    7.79700
  137.50000   45.39012   62.32699    2.61755    3.12158    8.00200
  138.00000   43.60721   60.26926    2.59069    3.08294    8.20700
  138.50000   42.47643   61.54659    2.51581    3.03585    8.41100
  139.00000   41.57751   66.26585    2.43569    2.89203    8.61600
  139.50000   43.21247   69.68025    2.35660    2.74155    8.82100
  140.00000   41.08656   69.15302    2.27758    2.59110    9.02600
  140.50000   37.48864   68.00472    2.19857    2.44066    9.21500
  141.00000   36.53167   69.25752    2.11955    2.30224    9.34200
  141.50000   36.50032   70.43311    2.04048    2.23299    9.46900
  142.00000   34.11265   69.04475    1.94805    2.16362    9.59600
  142.50000   31.81371   67.37925    1.85182    2.09417    9.72300
  143.00000   30.36753   67.61721    1.75897    2.02463    9.84900
  143.50000   28.47592   68.84321    1.71743    1.97650    9.97600
  144.00000   28.69052   68.53721    1.67900    1.93482   10.10300
  144.50000   28.50137   65.67805    1.70016    1.89302   10.23000
  145.00000   28.30905   62.90204    1.72701    1.88051   10.35700
  145.50000   27.02881   63.07122    1.75390    1.90464   10.47200
  146.00000   25.40654   63.49131    1.78078    1.92888   10.42900
  146.50000   24.20985   63.91105    1.81107    1.95310   10.38600
  147.00000   20.98116   63.85868    1.84228    1.97732   10.34300
  147.50000   16.61214   61.65672    1.87019    2.00155   10.29900
  148.00000   10.37430   60.20694    1.86664    2.00391   10.25600
  148.50000    5.25438   61.16124    1.86111    1.99777   10.21300
  149.00000    3.87139   62.84971    1.85562    1.99164   10.17000
  149.50000    7.52794   64.54569    1.85018    1.98552   10.12600
  150.00000   12.65060   64.93001    1.84473    1.97402   10.08300
  150.50000   18.33517   61.29041    1.80530    1.93044   10.04000
  151.00000   19.73283   54.65400    1.78231    1.87487    9.99700
  151.50000   18.33983   51.17053    1.71747    1.81913    9.95400
  152.00000   16.32834   55.57432    1.65283    1.76339    9.91000
  152.50000   13.99746   58.25858    1.63605    1.70761    9.86700
  153.00000   12.11972   56.56421    1.62309    1.65217    9.82400
  153.50000   10.22903   56.68787    1.60849    1.63779    9.78100
  154.00000    8.34827   59.26552    1.59351    1.62668    9.72700
  154.50000    6.13056   60.70419    1.57852    1.61555    9.64300
  155.00000    4.64231   58.12134    1.56353    1.60442    9.55800
  155.50000    5.05795   51.73400    1.54853    1.59329    9.47400
  156.00000    5.49138   46.41383    1.53354    1.58216    9.39000
  156.50000    5.02646   43.17579    1.51855    1.57101    9.30600
  157.00000    4.31763   40.03739    1.50356    1.56278    9.22200
  157.50000    4.03896   40.12266    1.48856    1.55784    9.13800
  158.00000    4.30466   41.53205    1.47357    1.55290    9.05400
  158.50000    3.82367   39.60128    1.45858    1.54795    8.97000
  159.00000    1.87886   36.74136    1.44359    1.54302    8.88500
  159.50000    0.76586   35.23765    1.42861    1.53825    8.80100
  160.00000   -0.25763   34.09874    1.40971    1.51792    8.71700
  160.50000   -1.47489   33.84670    1.39024    1.49547    8.63300
  161.00000   -3.36587   32.69741    1.37077    1.47301    8.54900
  161.50000   -5.25955   33.04077    1.35126    1.45045    8.46500
  162.00000   -6.20417   35.12758    1.31538    1.42738    8.38100
  162.50000   -7.02627   36.59048    1.35047    1.46703    8.29700
  163.00000   -8.29616   34.53170    1.39370    1.51027    8.21200
  163.50000   -9.60524   31.38647    1.43698    1.55354    8.12800
  164.00000  -10.91514   30.36874    1.48026    1.59243    8.04400
  164.50000  -12.23002   33.67926    1.52357    1.62973    7.96000
  165.00000  -13.51012   35.53571    1.56704    1.66702    7.87600
  165.50000  -15.32449   32.74704    1.58536    1.70433    7.79200
  166.00000  -17.93826   30.73698    1.56751    1.74162    7.70800
  166.50000  -20.43619   31.85573    1.54932    1.75173    7.62400
  167.00000  -22.60898   36.64626    1.54314    1.73779    7.54000
  167.50000  -25.36620   41.61636    1.55985    1.72392    7.45500
  168.00000  -28.31348   42.96969    1.57670    1.71006    7.37100
  168.50000  -31.25883   39.51892    1.59358    1.69623    7.28700
  169.00000  -33.85394   38.10037    1.61080    1.68239    7.20300
  169.50000  -36.42273   37.49337    1.58616    1.65891    7.11900
  170.00000  -39.53174   33.18408    1.50201    1.62702    7.03500
  170.50000  -43.56996   29.25480    1.41732    1.56754    6.95100
  171.00000  -47.57573   30.21345    1.33250    1.50150    6.86700
  171.50000  -51.83757   38.94974    1.29508    1.43522    6.78200
  172.00000  -55.27610   45.79737    1.22802    1.37034    6.60400
  172.50000  -58.42005   45.56255    1.22270    1.30534    6.28300
  173.00000  -61.56142   40.38554    1.21656    1.28686    5.96100
  173.50000  -64.70426   34.28173    1.21036    1.28523    5.64000
  174.00000  -67.61381   32.90784    1.20416    1.28358    5.31900
  174.50000  -69.31536   34.06509    1.19796    1.28193    4.99800
  175.00000  -72.80111   37.85087    1.19176    1.28028    4.67700
  175.50000  -76.55212   40.81292    1.18555    1.27864    4.35600
  176.00000  -82.13173   42.16907    1.17936    1.27699    4.03500
  176.50000  -88.23137   40.02865    1.17947    1.27534    3.71400
  177.00000  -94.31549   37.90057    1.18365    1.27369    3.42800
  177.50000  -97.15437   36.75281    1.18781    1.27204    3.36800
  178.00000  -95.51426   38.85573    1.19197    1.27039    3.30900
  178.50000  -93.95369   38.74378    1.19612    1.26874    3.24900
  179.00000  -97.20273   37.00674    1.20029    1.26709    3.18900
  179.50000 -100.52826   36.80320    1.20458    1.26544    3.13000
