~Version ---------------------------------------------------
VERS. 2.0 : CWLS log ASCII Standard -VERSION 2.0
WRAP.  NO : One Line Per Depth Step
~Well ------------------------------------------------------
STRT.FT                                     0.0 : START DEPTH
STOP.FT                                   352.0 : STOP DEPTH
STEP.FT                                     0.5 : STEP
NULL.                                   -999.25 : NULL VALUE
COMP.                  COMPANY CASCADE DRILLING : COMPANY
WELL.                                     MW-8D : WELL
FLD .                                   SALINAS : FIELD
LOC . 325 MONTE RD|GPS N 360 43 36 W 1210 47 15 : LOCATION
CNTY.                                  MONTEREY : COUNTY
STAT.                                        CA : STATE
CTRY.                                       USA : COUNTRY
SRVC.                                           : SERVICE COMPANY
DATE.                                           : DATE
API .                                     MW-8D : API NUMBER
UWI .                                     MW-8D : UWI NUMBER
TVD .                                        NO : TVD flag
WSTA.                                       LOC : Well status
~Curve Information -----------------------------------------
DEPT.FT                : Depth in Feet
SP  .MV   01 010 01 01 : Spontaneous Potential
GR  .GAPI 35 310 01 01 : Gamma Ray
RILM.OHMM 05 120 44 01 : Raw Ilm Conductivity
RILD.OHMM 05 120 46 01 : Raw Ild Conductivity
FRES.OHM-M             : 
~Params ----------------------------------------------------
DATE. 4/20/2015 : Date As Month-Day-Year
RUN .       ONE : Run Number
PDAT.        GL : Permanent Datum
EPD .FT     0.0 : Elevation Of Perm. Datum
LMF .        GL : Log Measured From
DMF .        GL : Drilling Measured From
TD  .FT   352.0 : Total Depth
WSTA.       LOC : 
EGL .FT     0.0 : Elevation Of Ground Level
~Other -----------------------------------------------------
<DescLogPlotStart>   NEURALOG PLOT DEFINITION
PLOTDEFVERSION: 3
LASFILE: D:\nds\projects\LD-stan-11-15-2016 rush project\las\MPWSP_MW8D_DIL.las
DEPTHSCALE: 240.000000
RESOLUTION: 300
DEPTHLABELFREQ: 100.000000
HEAVYGRIDFREQ: 100.000000
MEDIUMGRIDFREQ: 50.000000
LIGHTGRIDFREQ: 10.000000
STARTTRACK:
LEFTX: 0.500000 inch
RIGHTX: 1.750000 inch
SCALETYPE: Linear
NUMCHARTDIVISIONS: 10
CURVE: SP    -140.000000 60.000000  (0,0,255)      Solid             2     N
CURVE: GR    20.000000  120.000000 (0,131,131)    Dot               2     Y
BACKUP: -80.000000 20.000000  (0,131,131)    Dot               2
ENDTRACK:
STARTTRACK:
LEFTX: 2.250000 inch
RIGHTX: 3.500000 inch
SCALETYPE: Linear
NUMCHARTDIVISIONS: 10
CURVE: RILM  0.000000   10.000000  (255,0,255)    Solid             2     Y
BACKUP: 10.000000  100.000000 (255,0,255)    Solid             2
CURVE: RILD  0.000000   10.000000  (255,0,0)      Dot               2     Y
BACKUP: 0.000000   100.000000 (255,0,0)      Dot               2
ENDTRACK:
<DescLogPlotEnd>
~ASCII -----------------------------------------------------
# ...
  180.00000 -103.84700   38.43042    1.19855    1.26380    3.07000
  180.50000 -107.14648   40.90317    1.19114    1.26215    3.01000
  181.00000 -110.52597   43.91158    1.18372    1.26053    2.95100
  181.50000 -113.88191   46.47565    1.17673    1.25865    2.89100
  182.00000 -116.26924   43.59717    1.17284    1.25680    2.83100
  182.50000 -118.60802   40.08941    1.16892    1.25495    2.77200
  183.00000 -120.57033   40.20183    1.16500    1.25309    2.71200
  183.50000 -122.21747   43.35172    1.16108    1.25124    2.65300
  184.00000 -123.33542   46.88867    1.15716    1.24938    2.59300
  184.50000 -123.80702   50.35860    1.15324    1.24753    2.53300
  185.00000 -124.11636   51.91876    1.14932    1.24567    2.47400
  185.50000 -123.69107   56.18161    1.14540    1.24382    2.41400
  186.00000 -123.26332   62.12824    1.14148    1.24196    2.35400
  186.50000 -122.83583   67.22560    1.13756    1.24011    2.29500
  187.00000 -122.40834   68.29925    1.13364    1.23825    2.23500
  187.50000 -121.98085   65.83563    1.12972    1.23640    2.17500
  188.00000 -121.55335   62.34593    1.12581    1.23442    2.11600
  188.50000 -121.12585   60.01655    1.12180    1.23457    2.05600
  189.00000 -120.69837   58.48064    1.11286    1.26029    1.99600
  189.50000 -120.10365   53.24015    1.10374    1.26039    1.93700
  190.00000 -119.05844   48.66734    1.09409    1.26039    1.87700
  190.50000 -118.01428   46.36524    1.13300    1.26039    1.81700
  191.00000 -117.02255   45.88501    1.17454    1.26038    1.75800
  191.50000 -116.66552   44.43002    1.20419    1.26959    1.69800
  192.00000 -116.29775   43.66179    1.20088    1.30419    1.63800
  192.50000 -115.92894   41.81917    1.19763    1.31587    1.57900
  193.00000 -115.56012   44.68138    1.19438    1.31582    1.51900
  193.50000 -115.19146   51.05993    1.19114    1.31599    1.46000
  194.00000 -114.82779   56.16001    1.18789    1.30118    1.40000
  194.50000 -114.53658   56.08424    1.18464    1.28435    1.34000
  195.00000 -114.17744   55.61392    1.18140    1.26750    1.28100
  195.50000 -113.58808   55.43822    1.17815    1.25056    1.22100
  196.00000 -112.94435   56.97986    1.17728    1.23307    1.18900
  196.50000 -112.19093   56.37943    1.17728    1.27423    1.17200
  197.00000 -111.43847   51.05459    1.17718    1.31707    1.15500
  197.50000 -110.68609   47.41113    1.19512    1.32406    1.13700
  198.00000 -109.93353   48.09706    1.21735    1.33170    1.12000
  198.50000 -109.18037   51.02641    1.23961    1.33942    1.10200
  199.00000 -108.52888   55.25834    1.25596    1.34056    1.08500
  199.50000 -107.98970   57.69808    1.18546    1.33426    1.06800
  200.00000 -107.45025   54.81512    1.19119    1.32796    1.05000
  200.50000 -106.91063   52.63278    1.20712    1.32167    1.03300
  201.00000 -106.37101   53.23529    1.22310    1.31593    1.01500
  201.50000 -105.83134   53.93077    1.23908    1.31960    0.99800
  202.00000 -105.29147   55.83780    1.25494    1.32319    0.98100
  202.50000 -104.55700   61.36594    1.25023    1.32677    0.96300
  203.00000 -103.42026   63.05978    1.23475    1.33036    0.94600
  203.50000 -103.61455   56.91993    1.21940    1.33394    0.92800
  204.00000 -103.33274   50.18302    1.21240    1.33752    0.91100
  204.50000 -102.13237   44.72747    1.22808    1.34114    0.89400
  205.00000 -101.22331   45.46648    1.22152    1.34068    0.87600
  205.50000 -101.58719   50.13701    1.21480    1.33241    0.85900
  206.00000 -101.95296   52.28596    1.20808    1.32409    0.84100
  206.50000 -102.17982   50.46891    1.22167    1.31593    0.82400
  207.00000 -102.06627   48.88574    1.25323    1.31580    0.80700
  207.50000 -100.79516   51.50368    1.28473    1.31969    0.78900
  208.00000  -99.54945   56.73071    1.31615    1.35293    0.77200
  208.50000  -97.43989   63.00389    1.33741    1.38554    0.75400
  209.00000  -96.76570   68.04056    1.28217    1.38525    0.73700
  209.50000  -96.60771   64.54860    1.22793    1.36200    0.72000
  210.00000  -94.55419   59.05071    1.17518    1.33845    0.70200
  210.50000  -93.62012   58.71202    1.15874    1.31297    0.68500
  211.00000  -93.46784   60.10965    1.13880    1.28752    0.66800
  211.50000  -94.66769   65.80067    1.10442    1.26208    0.65000
  212.00000  -95.84646   69.62235    1.03878    1.23664    0.63300
  212.50000  -97.03747   67.99435    0.97308    1.21120    0.61500
  213.00000  -97.02740   65.14770    0.97051    1.18568    0.59800
  213.50000  -95.88784   64.21000    0.99081    1.16193    0.58100
  214.00000  -94.76571   64.10262    1.01108    1.13879    0.56300
  214.50000  -92.56750   68.21011    1.03135    1.12710    0.54600
  215.00000  -89.99234   73.15394    1.05162    1.14694    0.52800
  215.50000  -89.06253   71.96904    1.08082    1.16670    0.51100
  216.00000  -88.16932   68.26803    1.13471    1.19719    0.49400
  216.50000  -86.49742   67.70652    1.18858    1.23978    0.47600
  217.00000  -84.26125   68.14486    1.24259    1.28241    0.43600
  217.50000  -82.19641   67.15550    1.29001    1.32502    0.39500
  218.00000  -79.75857   65.35051    1.33459    1.36766    0.35400
  218.50000  -77.23555   65.55729    1.37926    1.40653    0.31200
  219.00000  -74.71229   61.95396    1.42447    1.43502    0.27100
  219.50000  -72.18865   56.95316    1.37279    1.46353    0.22900
  220.00000  -69.94961   56.32625    1.40955    1.49204    0.18800
  220.50000  -68.93926   58.21076    1.44816    1.52056    0.14700
  221.00000  -67.75854   57.16840    1.48687    1.54910    0.10500
  221.50000  -66.45641   54.27429    1.49594    1.57773    0.06400
  222.00000  -65.15589   53.86530    1.46254    1.57846    0.02200
  222.50000  -63.97998   56.32296    1.42884    1.54768    0.00100
  223.00000  -63.67466   57.11850    1.39511    1.51682    0.00100
  223.50000  -63.36126   53.24984    1.36126    1.48544    0.00100
  224.00000  -63.05110   51.17993    1.36627    1.49839    0.00100
  224.50000  -63.39002   54.07082    1.41509    1.51567    0.00100
  225.00000  -64.16751   55.90989    1.44447    1.53049    0.00100
  225.50000  -63.13186   56.74106    1.39219    1.52824    0.00100
  226.00000  -62.14389   60.07532    1.35442    1.51085    0.00100
  226.50000  -61.55730   63.59536    1.32729    1.49334    0.00100
  227.00000  -63.62984   64.01630    1.37768    1.49987    0.00100
  227.50000  -65.65295   63.32867    1.48193    1.55271    0.00100
  228.00000  -67.66166   64.37309    1.58425    1.60576    0.00100
  228.50000  -68.69951   66.74602    1.67451    1.65881    0.00100
  229.00000  -67.41788   65.97822    1.76134    1.71185    0.00100
  229.50000  -66.66162   64.52735    1.89726    1.76483    0.00100
  230.00000  -65.03134   63.82583    1.98164    1.82014    0.00100
  230.50000  -63.38338   63.65499    1.97880    1.88975    0.00100
  231.00000  -62.60855   64.41822    1.86920    1.87247    0.00100
  231.50000  -63.18926   66.77747    1.77618    1.86046    0.00100
  232.00000  -63.77902   69.12912    1.68307    1.77023    0.00100
  232.50000  -64.36196   70.89079    1.58987    1.69343    0.00100
  233.00000  -63.95340   69.38064    1.55183    1.65573    0.00100
  233.50000  -62.93327   68.46409    1.53378    1.61782    0.00100
  234.00000  -61.94476   69.18001    1.51595    1.59300    0.00100
  234.50000  -60.95696   65.17314    1.53254    1.59271    0.00100
  235.00000  -58.65909   62.47580    1.57079    1.63757    0.00100
  235.50000  -56.10002   64.55011    1.64573    1.69871    0.00100
  236.00000  -54.64073   68.87862    1.77542    1.75981    0.00100
  236.50000  -53.57888   69.41852    1.94180    1.82087    0.00100
  237.00000  -53.77146   67.98123    2.10803    1.89287    0.00100
  237.50000  -53.96295   67.49963    2.27412    2.01087    0.00100
  238.00000  -53.76317   67.62920    2.43704    2.12852    0.00100
  238.50000  -52.76498   68.36683    2.62626    2.24612    0.00100
  239.00000  -53.35671   71.45839    2.81309    2.36372    0.00100
  239.50000  -54.74123   71.86808    2.99379    2.48132    0.00100
