~Version ---------------------------------------------------
VERS. 2.0 : CWLS log ASCII Standard -VERSION 2.0
WRAP.  NO : One Line Per Depth Step
~Well ------------------------------------------------------
STRT.FT                                     0.0 : START DEPTH
STOP.FT                                   352.0 : STOP DEPTH
STEP.FT                                     0.5 : STEP
NULL.                                   -999.25 : NULL VALUE
COMP.                  COMPANY CASCADE DRILLING : COMPANY
WELL.                                     MW-8D : WELL
FLD .                                   SALINAS : FIELD
LOC . 325 MONTE RD|GPS N 360 43 36 W 1210 47 15 : LOCATION
CNTY.                                  MONTEREY : COUNTY
STAT.                                        CA : STATE
CTRY.                                       USA : COUNTRY
SRVC.                                           : SERVICE COMPANY
DATE.                                           : DATE
API .                                     MW-8D : API NUMBER
UWI .                                     MW-8D : UWI NUMBER
TVD .                                        NO : TVD flag
WSTA.                                       LOC : Well status
~Curve Information -----------------------------------------
DEPT.FT                : Depth in Feet
SP  .MV   01 010 01 01 : Spontaneous Potential
GR  .GAPI 35 310 01 01 : Gamma Ray
RILM.OHMM 05 120 44 01 : Raw Ilm Conductivity
RILD.OHMM 05 120 46 01 : Raw Ild Conductivity
FRES.OHM-M             : 
~Params ----------------------------------------------------
DATE. 4/20/2015 : Date As Month-Day-Year
RUN .       ONE : Run Number
PDAT.        GL : Permanent Datum
EPD .FT     0.0 : Elevation Of Perm. Datum
LMF .        GL : Log Measured From
DMF .        GL : Drilling Measured From
TD  .FT   352.0 : Total Depth
WSTA.       LOC : 
EGL .FT     0.0 : Elevation Of Ground Level
~Other -----------------------------------------------------
<DescLogPlotStart>   NEURALOG PLOT DEFINITION
PLOTDEFVERSION: 3
LASFILE: D:\nds\projects\LD-stan-11-15-2016 rush project\las\MPWSP_MW8D_DIL.las
DEPTHSCALE: 240.000000
RESOLUTION: 300
DEPTHLABELFREQ: 100.000000
HEAVYGRIDFREQ: 100.000000
MEDIUMGRIDFREQ: 50.000000
LIGHTGRIDFREQ: 10.000000
STARTTRACK:
LEFTX: 0.500000 inch
RIGHTX: 1.750000 inch
SCALETYPE: Linear
NUMCHARTDIVISIONS: 10
CURVE: SP    -140.000000 60.000000  (0,0,255)      Solid             2     N
CURVE: GR    20.000000  120.000000 (0,131,131)    Dot               2     Y
BACKUP: -80.000000 20.000000  (0,131,131)    Dot               2
ENDTRACK:
STARTTRACK:
LEFTX: 2.250000 inch
RIGHTX: 3.500000 inch
SCALETYPE: Linear
NUMCHARTDIVISIONS: 10
CURVE: RILM  0.000000   10.000000  (255,0,255)    Solid             2     Y
BACKUP: 10.000000  100.000000 (255,0,255)    Solid             2
CURVE: RILD  0.000000   10.000000  (255,0,0)      Dot               2     Y
BACKUP: 0.000000   100.000000 (255,0,0)      Dot               2
ENDTRACK:
<DescLogPlotEnd>
~ASCII -----------------------------------------------------
# ...
  300.00000    4.03980   61.81847    4.91429    3.50322    0.00100
  300.50000    4.51902   61.43458    4.98154    3.55201    0.00100
  301.00000    4.89273   60.19733    5.12516    3.66987    0.00100
  301.50000    5.27910   59.17976    5.28418    3.79668    0.00100
  302.00000    5.66611   58.43726    5.53465    3.92420    0.00100
  302.50000    6.05313   59.75512    5.77826    4.00056    0.00100
  303.00000    6.44015   59.64226    6.04006    4.19791    0.00100
  303.50000    6.82716   59.64088    6.23949    4.39873    0.00100
  304.00000    7.21428   59.64088    6.41135    4.65596    0.00100
  304.50000    7.60139   59.64088    6.58428    4.91075    0.00100
  305.00000    7.85787   59.64088    6.91045    5.16501    0.00100
  305.50000    7.98931   59.64088    7.23490    5.28920    0.00100
  306.00000    8.12091   59.64088    7.55968    5.27942    0.00100
  306.50000    8.25263   59.64088    7.74205    5.19651    0.00100
  307.00000    8.38434   59.64088    7.70324    5.12196    0.00100
  307.50000    8.51605   59.64088    7.62408    5.05709    0.00100
  308.00000    8.64776    -999.25    7.65571    5.10161    0.00100
  308.50000    8.77947    -999.25    7.86291    5.13254    0.00100
  309.00000    8.91118    -999.25    8.01179    5.07158    0.00100
  309.50000    9.04290    -999.25    7.97218    4.99456    0.00100
  310.00000    9.17461    -999.25    7.72858    4.91866    0.00100
  310.50000    9.30632    -999.25    7.52269    4.93392    0.00100
  311.00000    9.43803    -999.25    7.54541    4.95141    0.00100
  311.50000    9.56974    -999.25    7.56647    4.96946    0.00100
  312.00000    9.70145    -999.25    7.53516    4.86614    0.00100
  312.50000    9.83318    -999.25    7.42303    4.73289    0.00100
  313.00000    9.96515    -999.25    7.27277    4.59931    0.00100
  313.50000    9.93103    -999.25    7.12550    4.52241    0.00100
  314.00000    9.83677    -999.25    7.05850    4.50851    0.00100
  314.50000    9.74259    -999.25    6.93971    4.50076    0.00100
  315.00000    9.64842    -999.25    6.88283    4.56901    0.00100
  315.50000    9.55424    -999.25    7.05137    4.66298    0.00100
  316.00000    9.46007    -999.25    7.26995    4.76706    0.00100
  316.50000    9.36590    -999.25    7.32520    4.77982    0.00100
  317.00000    9.27172    -999.25    7.26077    4.63078    0.00100
  317.50000    9.17755    -999.25    7.18879    4.48079    0.00100
  318.00000    9.08338    -999.25    7.01098    4.33401    0.00100
  318.50000    8.98920    -999.25    6.71477    4.21961    0.00100
  319.00000    8.89503    -999.25    6.40545    4.11182    0.00100
  319.50000    8.80085    -999.25    6.18310    4.01442    0.00100
  320.00000    8.70668    -999.25    5.96574    3.91696    0.00100
  320.50000    8.61251    -999.25    5.66646    3.81945    0.00100
  321.00000    8.51833    -999.25    5.34834    3.72194    0.00100
  321.50000    8.42416    -999.25    5.01146    3.62447    0.00100
  322.00000    8.32998    -999.25    4.67418    3.53036    0.00100
  322.50000    8.23581    -999.25    4.43049    3.45893    0.00100
  323.00000    8.14164    -999.25    4.23677    3.38947    0.00100
  323.50000    8.04746    -999.25    4.09180    3.32004    0.00100
  324.00000    7.95329    -999.25    3.99816    3.25049    0.00100
  324.50000    7.85912    -999.25    3.82717    3.17982    0.00100
  325.00000    7.76494    -999.25    3.81333    3.19515    0.00100
  325.50000    7.67077    -999.25    3.78117    3.22209    0.00100
  326.00000    7.57659    -999.25    3.83142    3.24909    0.00100
  326.50000    7.48242    -999.25    3.91778    3.27610    0.00100
  327.00000    7.38825    -999.25    3.89338    3.30310    0.00100
  327.50000    7.29407    -999.25    3.87061    3.33011    0.00100
  328.00000    7.19990    -999.25    3.95671    3.35745    0.00100
  328.50000    7.10573    -999.25    4.18289    3.41198    0.00100
  329.00000    7.01155    -999.25    4.47055    3.52537    0.00100
  329.50000    6.91738    -999.25    4.83125    3.64306    0.00100
  330.00000    6.82319    -999.25    5.19502    3.76195    0.00100
  330.50000    6.72907    -999.25    5.55532    3.93959    0.00100
  331.00000    6.65992    -999.25    5.91552    4.13134    0.00100
  331.50000    6.61287    -999.25    6.27573    4.32300    0.00100
  332.00000    6.56580    -999.25    6.63605    4.49909    0.00100
  332.50000    6.51871    -999.25    6.99779    4.65977    0.00100
  333.00000    6.47162    -999.25    7.05258    4.82045    0.00100
  333.50000    6.42454    -999.25    7.02558    4.98111    0.00100
  334.00000    6.37745    -999.25    7.16557    5.14245    0.00100
  334.50000    6.33036    -999.25    7.57530    5.36367    0.00100
  335.00000    6.28327    -999.25    7.84851    5.59548    0.00100
  335.50000    6.23619    -999.25    8.11857    5.76243    0.00100
  336.00000    6.18910    -999.25    8.38867    5.87950    0.00100
  336.50000    6.14201    -999.25    8.51303    5.99713    0.00100
  337.00000    6.09493    -999.25    8.58236    6.10567    0.00100
  337.50000    6.04784    -999.25    8.68315    6.20601    0.00100
  338.00000    6.00075    -999.25    8.84709    6.30633    0.00100
  338.50000    5.95367    -999.25    8.98813    6.40659    0.00100
  339.00000    5.90658    -999.25    9.10365    6.50029    0.00100
  339.50000    5.85949    -999.25    9.21576    6.61731    0.00100
  340.00000    5.81241    -999.25    9.25825    6.70957    0.00100
  340.50000    5.76532    -999.25    9.30231    6.69966    0.00100
  341.00000    5.71823    -999.25    9.34651    6.71266    0.00100
  341.50000    5.67115    -999.25    9.39058    6.75416    0.00100
  342.00000    5.62406    -999.25    9.33582    6.79822    0.00100
  342.50000    5.57697    -999.25    9.23551    6.83513    0.00100
  343.00000    5.52988    -999.25    9.13454    6.84766    0.00100
  343.50000    5.48280    -999.25    9.14905    6.82889    0.00100
  344.00000    5.43571    -999.25    9.35615    6.80992    0.00100
  344.50000    5.38862    -999.25    9.56428    6.82722    0.00100
  345.00000    5.34154    -999.25    9.60415    6.85822    0.00100
  345.50000    5.29445    -999.25    9.57266    6.88912    0.00100
  346.00000    5.24736    -999.25    9.54705    6.92051    0.00100
  346.50000    5.20028    -999.25    9.61831    6.88986    0.00100
  347.00000    5.15319    -999.25    9.60291    6.76284    0.00100
  347.50000    5.10609    -999.25    9.42172    6.63515    0.00100
  348.00000    5.05882    -999.25    9.21518    6.50698    0.00100
  348.50000    5.02789    -999.25    8.94122    6.44709    0.00100
  349.00000    5.02763    -999.25    8.77172    8.73672    0.00100
  349.50000    5.02762    -999.25    8.33150   16.25061    0.00100
  350.00000    5.02762    -999.25   20.17309  102.45900    0.00100
  350.50000    5.02762    -999.25   99.37673   98.73816    0.00100
  351.00000    5.02762    -999.25   99.37673   99.03047    0.00100
  351.50000    5.02762    -999.25   99.37673   99.03047    0.00100
  352.00000    5.02762    -999.25   99.37673   99.03047    0.00100
