~Version ---------------------------------------------------
VERS. 2.0 : CWLS log ASCII Standard -VERSION 2.0
WRAP.  NO : One Line Per Depth Step
~Well ------------------------------------------------------
STRT.FT                                     0.0 : START DEPTH
STOP.FT                                   352.0 : STOP DEPTH
STEP.FT                                     0.5 : STEP
NULL.                                   -999.25 : NULL VALUE
COMP.                  COMPANY CASCADE DRILLING : COMPANY
WELL.                                     MW-8D : WELL
FLD .                                   SALINAS : FIELD
LOC . 325 MONTE RD|GPS N 360 43 36 W 1210 47 15 : LOCATION
CNTY.                                  MONTEREY : COUNTY
STAT.                                        CA : STATE
CTRY.                                       USA : COUNTRY
SRVC.                                           : SERVICE COMPANY
DATE.                                           : DATE
API .                                     MW-8D : API NUMBER
UWI .                                     MW-8D : UWI NUMBER
TVD .                                        NO : TVD flag
WSTA.                                       LOC : Well status
~Curve Information -----------------------------------------
DEPT.FT                : Depth in Feet
SP  .MV   01 010 01 01 : Spontaneous Potential
GR  .GAPI 35 310 01 01 : Gamma Ray
RILM.OHMM 05 120 44 01 : Raw Ilm Conductivity
RILD.OHMM 05 120 46 01 : Raw Ild Conductivity
FRES.OHM-M             : 
~Params ----------------------------------------------------
DATE. 4/20/2015 : Date As Month-Day-Year
RUN .       ONE : Run Number
PDAT.        GL : Permanent Datum
EPD .FT     0.0 : Elevation Of Perm. Datum
LMF .        GL : Log Measured From
DMF .        GL : Drilling Measured From
TD  .FT   352.0 : Total Depth
WSTA.       LOC : 
EGL .FT     0.0 : Elevation Of Ground Level
~Other -----------------------------------------------------
<DescLogPlotStart>   NEURALOG PLOT DEFINITION
PLOTDEFVERSION: 3
LASFILE: D:\nds\projects\LD-stan-11-15-2016 rush project\las\MPWSP_MW8D_DIL.las
DEPTHSCALE: 240.000000
RESOLUTION: 300
DEPTHLABELFREQ: 100.000000
HEAVYGRIDFREQ: 100.000000
MEDIUMGRIDFREQ: 50.000000
LIGHTGRIDFREQ: 10.000000
STARTTRACK:
LEFTX: 0.500000 inch
RIGHTX: 1.750000 inch
SCALETYPE: Linear
NUMCHARTDIVISIONS: 10
CURVE: SP    -140.000000 60.000000  (0,0,255)      Solid             2     N
CURVE: GR    20.000000  120.000000 (0,131,131)    Dot               2     Y
BACKUP: -80.000000 20.000000  (0,131,131)    Dot               2
ENDTRACK:
STARTTRACK:
LEFTX: 2.250000 inch
RIGHTX: 3.500000 inch
SCALETYPE: Linear
NUMCHARTDIVISIONS: 10
CURVE: RILM  0.000000   10.000000  (255,0,255)    Solid             2     Y
BACKUP: 10.000000  100.000000 (255,0,255)    Solid             2
CURVE: RILD  0.000000   10.000000  (255,0,0)      Dot               2     Y
BACKUP: 0.000000   100.000000 (255,0,0)      Dot               2
ENDTRACK:
<DescLogPlotEnd>
~ASCII -----------------------------------------------------
    0.00000 -136.96133   82.29282    5.30471    5.08310    -999.25
    0.50000 -136.96133   81.46409    7.27405    6.31729    -999.25
    1.00000 -136.96133   75.40639   12.67652    8.31760    -999.25
    1.50000 -136.96133   71.14588   20.60451   12.38723    -999.25
    2.00000 -136.96133   67.91681   22.23207   16.43767    -999.25
    2.50000 -136.96133   71.54888   23.80245   20.58172    -999.25
    3.00000 -136.96133   80.42729   25.24019   24.34427    -999.25
    3.50000 -136.96133   76.74893   26.05552   26.33558    -999.25
    4.00000 -136.96133   69.06486   26.87511   28.09941    -999.25
    4.50000 -136.96133   64.50125   27.69828   29.86968    -999.25
    5.00000 -136.96133   63.10245   29.16796   31.17122    -999.25
    5.50000 -136.96133   63.47806   30.06929   32.13257    -999.25
    6.00000 -136.96133   66.51168   30.74359   33.09928    -999.25
    6.50000 -136.96133   66.77138   30.13778   34.06648    -999.25
    7.00000 -136.96133   65.83398   30.06852   34.83909    -999.25
    7.50000 -136.96133   65.30662   30.07745   35.45954    -999.25
    8.00000 -136.96133   64.99617   31.12633   36.07514    -999.25
    8.50000 -136.96133   68.77071   32.22954   37.06535    -999.25
    9.00000 -136.96133   72.11121   33.30326   38.34640    -999.25
    9.50000 -136.96133   70.71237   33.65708   39.32608    -999.25
   10.00000 -136.96133   69.04754   34.43362   40.23833    -999.25
   10.50000 -136.97464   66.30530   34.38754   38.76018    -999.25
   11.00000 -130.71092   64.17912   34.68931   34.85931    -999.25
   11.50000  -36.06666   59.26260   35.05856   30.68327    -999.25
   12.00000   34.41865   47.30802   34.21170   27.92428    -999.25
   12.50000   41.78014   32.67548   32.12254   25.16159    -999.25
   13.00000   40.94289   22.81187   31.18634   22.54489    -999.25
   13.50000   40.15340   15.99035   30.62965   22.25182    -999.25
   14.00000   39.36718   17.08900   29.18706   21.87409    -999.25
   14.50000   38.58252   26.03247   27.69252   21.49687    -999.25
   15.00000   35.97145   29.80380   25.98651   21.13054    -999.25
   15.50000   33.55094   35.88148   21.30859   21.19114    -999.25
   16.00000   30.80792   43.87590   10.18401   10.84164    -999.25
   16.50000   29.78439   50.24865    1.99384    6.48532    -999.25
   17.00000   29.45300   54.15468    1.05991    4.09175    -999.25
   17.50000   31.39999   54.60905    0.84803    3.26029    -999.25
   18.00000   35.30063   53.82994    1.01028    3.38406    -999.25
   18.50000   37.72278   55.26553    2.34430    3.87675    -999.25
   19.00000   37.53067   55.41473   20.11011    6.18149    -999.25
   19.50000   34.01685   55.75154   34.41219   11.21884    -999.25
   20.00000   30.51049   57.67284   44.13019   28.57064   23.88700
   20.50000   28.51406   59.31519   44.98831   49.44598   23.80300
   21.00000   26.99918   57.38271   46.65463   52.69165   23.71800
   21.50000   25.67711   56.06847   47.95311   53.45502   23.63400
   22.00000   24.37973   54.52762   47.57686   54.32687   23.55800
   22.50000   23.93262   51.04895   46.87321   56.39825   23.56400
   23.00000   22.83239   50.34565   45.26690   58.47256   23.56900
   23.50000   23.09316   54.42979   44.09884   60.50594   23.57400
   24.00000   23.52037   58.64065   44.32963   60.52315   23.57900
   24.50000   24.18386   58.75367   44.33381   60.57320   23.58500
   25.00000   26.80908   57.10740   42.67770   57.10345   23.59000
   25.50000   28.35273   55.60332   41.03591   53.17464   23.59500
   26.00000   29.20413   56.96315   38.83148   49.70905   23.60000
   26.50000   29.69912   57.76571   36.59258   48.36592   23.60500
   27.00000   30.14337   55.49859   35.53378   48.80488   23.61100
   27.50000   30.58622   52.66018   34.64412   49.42426   23.61600
   28.00000   31.15169   51.94916   33.74519   48.62594   23.62100
   28.50000   30.76175   52.42560   32.54691   46.81449   23.62600
   29.00000   30.41820   52.30034   31.31510   45.00024   23.63100
   29.50000   30.06245   52.19949   31.12894   43.68756   23.62100
   30.00000   29.70566   53.96932   31.83918   44.41992   23.57300
   30.50000   29.34757   56.59766   32.46094   45.46937   23.52500
   31.00000   28.97658   57.08332   33.08255   46.87027   23.47800
   31.50000   29.19657   55.90570   33.70425   48.14789   23.43000
   32.00000   28.61258   54.08911   34.51911   48.99874   23.38200
   32.50000   28.13287   52.98782   34.31363   49.72690   23.33400
   33.00000   27.81845   54.89710   33.91808   49.62575   23.23800
   33.50000   27.88216   58.35221   33.51417   49.53635   23.09100
   34.00000   28.24752   62.16337   33.05218   49.41023   22.94500
   34.50000   28.61163   61.36714   32.58598   47.67532   22.79800
   35.00000   28.63957   56.61708   32.11892   45.93259   22.65200
   35.50000   28.36041   52.18508   31.69146   44.19175   22.50500
   36.00000   28.99326   50.80059   31.32901   43.79771   22.35800
   36.50000   29.88227   55.14810   30.96808   44.05983   22.21200
   37.00000   29.36200   58.23363   30.60754   45.83189   22.02400
   37.50000   26.60758   55.12939   30.33694   47.56087   21.68500
   38.00000   23.84093   53.44457   30.44283   48.05881   21.34600
   38.50000   21.65867   53.62808   30.54654   48.54910   21.00700
   39.00000   21.34320   54.02124   30.65004   50.25926   20.66700
   39.50000   19.71995   54.42050   30.75244   52.32988   20.41000
   40.00000   18.39017   54.15759   30.98401   54.39519   20.28900
   40.50000   17.50992   53.14007   31.40865   54.74830   20.05600
   41.00000   16.80274   54.71571   31.83492   54.87097   19.90800
   41.50000   16.59357   57.09458   32.26112   53.75643   19.88700
   42.00000   19.99300   55.26244   32.78286   52.82438   19.86600
   42.50000   23.48987   52.00610   32.50160   52.05672   19.84600
   43.00000   24.69786   49.13361   32.06288   50.65915   19.82500
   43.50000   23.54826   48.62174   31.47010   49.26213   19.80400
   44.00000   15.81975   51.43097   30.68168   47.86472   19.78400
   44.50000    8.87368   54.50938   29.89109   46.46813   19.76300
   45.00000    2.62233   56.02073   29.09367   45.02995   19.70300
   45.50000   -3.64295   53.60067   29.19885   43.73634   19.53600
   46.00000  -10.85821   52.72100   29.41274   42.60798   19.36800
   46.50000  -20.79832   53.82743   30.47294   43.38205   19.20100
   47.00000  -31.49522   52.78905   31.53154   44.10396   19.03300
   47.50000  -41.94922   47.86843   32.58995   44.82416   18.86500
   48.00000  -50.58483   45.60648   33.64791   45.25024   18.69800
   48.50000  -57.57069   51.76189   34.57962   45.14794   18.53000
   49.00000  -63.14984   60.29875   34.65938   45.04164   18.51900
   49.50000  -64.78421   64.76572   34.74951   44.93536   18.51900
   50.00000  -66.50147   60.75587   34.50441   44.82883   18.51900
   50.50000  -68.22417   55.89666   33.61047   44.68400   18.51900
   51.00000  -69.00821   54.56771   32.71242   44.24259   18.51900
   51.50000  -68.99172   54.41861   31.86392   43.66166   18.51900
   52.00000  -69.39828   57.51336   32.58201   43.88571   18.51900
   52.50000  -66.76910   61.91924   32.31678   44.32600   18.51900
   53.00000  -63.08036   61.25358   31.66355   44.68073   18.51900
   53.50000  -59.42309   57.06248   30.70322   44.33873   18.50400
   54.00000  -56.33670   56.03027   29.76735   43.95987   18.45900
   54.50000  -52.70995   55.96294   28.83062   43.50976   18.41500
   55.00000  -51.13944   52.42278   27.97187   42.46754   18.37000
   55.50000  -47.32420   49.57196   27.20594   40.94684   18.32500
   56.00000  -43.64588   49.99410   26.43728   39.30036   18.28000
   56.50000  -40.07970   52.70483   25.66771   37.65309   18.23500
   57.00000  -36.51018   51.04582   24.89946   36.00452   18.19100
   57.50000  -34.42535   46.13753   24.69333   34.78540   18.14600
   58.00000  -33.79309   45.35813   24.53995   34.97912   18.10100
   58.50000  -33.15891   47.03641   24.38648   33.63103   18.05600
   59.00000  -32.52431   48.49296   24.23300   32.87301   18.01200
   59.50000  -31.97632   49.41564   24.07952   33.25667   17.96700
