~Version ---------------------------------------------------
VERS. 2.0 : CWLS log ASCII Standard -VERSION 2.0
WRAP.  NO : One Line Per Depth Step
~Well ------------------------------------------------------
STRT.FT                                     0.0 : START DEPTH
STOP.FT                                   352.0 : STOP DEPTH
STEP.FT                                     0.5 : STEP
NULL.                                   -999.25 : NULL VALUE
COMP.                  COMPANY CASCADE DRILLING : COMPANY
WELL.                                     MW-8D : WELL
FLD .                                   SALINAS : FIELD
LOC . 325 MONTE RD|GPS N 360 43 36 W 1210 47 15 : LOCATION
CNTY.                                  MONTEREY : COUNTY
STAT.                                        CA : STATE
CTRY.                                       USA : COUNTRY
SRVC.                                           : SERVICE COMPANY
DATE.                                           : DATE
API .                                     MW-8D : API NUMBER
UWI .                                     MW-8D : UWI NUMBER
TVD .                                        NO : TVD flag
WSTA.                                       LOC : Well status
~Curve Information -----------------------------------------
DEPT.FT                : Depth in Feet
SP  .MV   01 010 01 01 : Spontaneous Potential
GR  .GAPI 35 310 01 01 : Gamma Ray
RILM.OHMM 05 120 44 01 : Raw Ilm Conductivity
RILD.OHMM 05 120 46 01 : Raw Ild Conductivity
FRES.OHM-M             : 
~Params ----------------------------------------------------
DATE. 4/20/2015 : Date As Month-Day-Year
RUN .       ONE : Run Number
PDAT.        GL : Permanent Datum
EPD .FT     0.0 : Elevation Of Perm. Datum
LMF .        GL : Log Measured From
DMF .        GL : Drilling Measured From
TD  .FT   352.0 : Total Depth
WSTA.       LOC : 
EGL .FT     0.0 : Elevation Of Ground Level
~Other -----------------------------------------------------
<DescLogPlotStart>   NEURALOG PLOT DEFINITION
PLOTDEFVERSION: 3
LASFILE: D:\nds\projects\LD-stan-11-15-2016 rush project\las\MPWSP_MW8D_DIL.las
DEPTHSCALE: 240.000000
RESOLUTION: 300
DEPTHLABELFREQ: 100.000000
HEAVYGRIDFREQ: 100.000000
MEDIUMGRIDFREQ: 50.000000
LIGHTGRIDFREQ: 10.000000
STARTTRACK:
LEFTX: 0.500000 inch
RIGHTX: 1.750000 inch
SCALETYPE: Linear
NUMCHARTDIVISIONS: 10
CURVE: SP    -140.000000 60.000000  (0,0,255)      Solid             2     N
CURVE: GR    20.000000  120.000000 (0,131,131)    Dot               2     Y
BACKUP: -80.000000 20.000000  (0,131,131)    Dot               2
ENDTRACK:
STARTTRACK:
LEFTX: 2.250000 inch
RIGHTX: 3.500000 inch
SCALETYPE: Linear
NUMCHARTDIVISIONS: 10
CURVE: RILM  0.000000   10.000000  (255,0,255)    Solid             2     Y
BACKUP: 10.000000  100.000000 (255,0,255)    Solid             2
CURVE: RILD  0.000000   10.000000  (255,0,0)      Dot               2     Y
BACKUP: 0.000000   100.000000 (255,0,0)      Dot               2
ENDTRACK:
<DescLogPlotEnd>
~ASCII -----------------------------------------------------
# ...
   60.00000  -30.50134   51.02359   23.92604   33.63215   17.92200
   60.50000  -28.09602   52.84674   23.77256   32.87206   17.87700
   61.00000  -28.11987   55.22294   23.61909   32.00831   17.83300
   61.50000  -28.10327   54.70078   23.46539   31.14382   17.78800
   62.00000  -27.33468   52.04937   23.30393   30.27986   17.74300
   62.50000  -26.00061   52.75937   23.07632   29.44879   17.69800
   63.00000  -22.79823   57.77621   22.85180   29.02843   17.65400
   63.50000  -22.43836   61.19335   22.62299   28.59979   17.60900
   64.00000  -22.15981   59.31259   22.78507   28.16562   17.56600
   64.50000  -21.53005   55.87646   23.06574   28.67875   17.53500
   65.00000  -20.42802   57.42165   23.33068   28.49741   17.50400
   65.50000  -19.29175   59.67854   23.14674   28.96670   17.47200
   66.00000  -18.15627   56.98469   22.95796   30.54237   17.44100
   66.50000  -18.31091   51.92933   22.93964   32.12223   17.41000
   67.00000  -19.62064   51.63585   23.21455   33.01381   17.37900
   67.50000  -20.82541   55.93389   23.49127   33.34638   17.34800
   68.00000  -21.92298   59.63787   23.76868   33.68024   17.31700
   68.50000  -21.82328   63.68093   23.79651   34.00984   17.28600
   69.00000  -19.99545   68.16762   23.74311   34.79423   17.25500
   69.50000  -21.23190   75.56750   23.68976   36.16991   17.11300
   70.00000  -22.79620   82.10617   23.63641   37.55167   16.74900
   70.50000  -24.24699   82.02454   23.58306   38.39165   16.38500
   71.00000  -23.75414   82.58887   23.52970   38.88615   16.02200
   71.50000  -23.27916   85.09237   23.47635   39.38498   15.65800
   72.00000  -21.54602   82.93164   23.42313   39.23372   15.37600
   72.50000  -22.47338   76.79458   23.37135   38.93748   15.31800
   73.00000  -21.60357   73.45223   23.16081   38.64108   15.26100
   73.50000  -20.93568   72.00211   22.73381   38.34494   15.23600
   74.00000  -19.93391   70.48305   22.69718   38.10200   15.27700
   74.50000  -18.27241   70.87829   22.86106   38.24531   15.31700
   75.00000  -16.73898   71.92195   23.02399   38.38412   15.35700
   75.50000  -15.38916   70.81316   23.35149   38.52268   15.39700
   76.00000  -15.60649   73.41030   23.79374   38.69829   15.43700
   76.50000  -17.23396   79.78195   24.00190   39.16366   15.47700
   77.00000  -21.16057   81.68000   23.75916   39.62582   15.51700
   77.50000  -21.13652   75.38104   23.51345   40.27462   15.55700
   78.00000  -19.35888   69.08194   23.26775   39.73060   15.59800
   78.50000  -17.86533   65.44895   23.02176   38.62923   15.63800
   79.00000  -16.87696   67.30006   22.67843   37.37565   15.67800
   79.50000  -15.89792   68.85174   22.31846   35.67044   15.71800
   80.00000  -14.82321   65.87424   22.27074   33.96656   15.72600
   80.50000  -13.09419   64.46235   22.22316   32.26063   15.72600
   81.00000  -11.76019   66.47399   22.17527   31.46420   15.72600
   81.50000  -12.54507   67.37523   22.12731   31.51843   15.72600
   82.00000  -13.12629   68.94056   22.22954   31.57105   15.72600
   82.50000  -12.49389   76.32080   22.79113   31.62292   15.58900
   83.00000  -11.87816   81.73309   22.92465   31.67330   15.45200
   83.50000  -11.55403   76.82879   23.01801   31.55091   15.31500
   84.00000  -11.00129   68.29457   22.99923   30.43295   15.17800
   84.50000  -10.42907   65.49642   22.62468   29.33044   15.04100
   85.00000  -10.13540   63.83477   22.25207   27.19730   14.90400
   85.50000   -9.04020   65.57934   21.63381   24.44865   14.76700
   86.00000   -8.06988   67.84941   20.77652   21.70696   14.63000
   86.50000   -6.69618   72.34451    9.79217   18.98144   14.49300
   87.00000   -5.32551   76.87793    8.90265   16.43184   14.35600
   87.50000   -5.35678   77.29205    7.74792   13.91967   14.21900
   88.00000   -5.98517   72.13809    6.63906   12.02327   14.08200
   88.50000   -6.61454   67.20854    5.92796   11.19502   13.94500
   89.00000   -7.15874   67.64227    5.57173    9.90439   13.80800
   89.50000   -4.53531   72.99042    5.41287    9.38096   13.67100
   90.00000   -1.51367   73.60231    5.33612    8.87041   13.53400
   90.50000   -0.06345   70.10378    5.34426    8.64320   13.39700
   91.00000    2.28453   64.57884    5.35237    8.54427   13.26000
   91.50000    5.42848   63.14335    5.35911    8.44525   13.12300
   92.00000    7.60780   66.51618    5.31772    8.34622   12.98600
   92.50000    8.48908   66.85971    5.25373    8.24714   12.84900
   93.00000   10.65216   60.07575    5.17777    8.14634   12.71200
   93.50000   13.85511   58.90632    5.16631    8.05773   12.57500
   94.00000   15.56239   63.92276    5.16620    7.97237   12.43800
   94.50000   18.79966   68.43307    5.16620    7.88785   12.30200
   95.00000   20.04935   71.92200    5.16592    7.80328   12.16500
   95.50000   22.94523   71.80448    5.13507    7.71506   12.02800
   96.00000   26.27594   70.35713    5.08878    7.61748   11.85300
   96.50000   27.11620   70.80972    5.01714    7.51986   11.57300
   97.00000   29.34931   71.52670    4.87885    7.42224   10.88900
   97.50000   32.26416   69.97105    4.81243    7.32464   10.00100
   98.00000   35.24341   67.27722    4.78115    7.21913    9.11400
   98.50000   36.92143   67.66792    4.74973    7.11084    8.22700
   99.00000   36.56412   69.96703    4.71829    7.00244    7.41700
   99.50000   36.49701   72.23767    4.67815    6.92705    7.11100
  100.00000   37.95694   74.52191    4.61426    6.86731    6.80500
  100.50000   37.75017   73.57493    4.56581    6.87115    6.49900
  101.00000   35.93782   66.83110    4.53140    6.88983    6.21400
  101.50000   35.99362   61.85008    4.57092    6.90664    5.93900
  102.00000   37.51261   59.80227    4.62382    7.09348    5.66400
  102.50000   42.22919   60.76502    4.76741    7.30428    5.38900
  103.00000   47.01162   62.49042    4.99137    7.70436    5.11500
  103.50000   46.62477   60.19822    5.22191    8.10484    4.84000
  104.00000   45.66005   59.49225    5.46223    8.50502    4.56500
  104.50000   46.09476   60.91857    5.67987    8.90559    4.29000
  105.00000   47.27705   58.59721    5.77204    9.31280    4.14700
  105.50000   48.45972   55.19409    5.86437    9.56718    4.12000
  106.00000   48.92617   52.57068    6.00210    9.83028    4.09300
  106.50000   48.07945   52.58050    6.15363   10.47123    4.06600
  107.00000   47.22558   54.03362    6.30709   10.60230    4.03900
  107.50000   45.82234   55.91171    6.43943   10.73839    4.01200
  108.00000   44.97877   57.25259    6.40477   10.87498    3.98500
  108.50000   45.36309   55.21556    6.32297   11.01158    3.95700
  109.00000   45.65028   56.44845    6.24100   11.14818    3.93000
  109.50000   46.06537   59.71961    6.16630   11.28479    3.90300
  110.00000   46.48007   62.76630    6.25397   11.42104    3.87600
  110.50000   46.89447   64.22583    6.38912   11.61797    3.84900
  111.00000   48.05714   63.40203    6.57222   11.99444    3.82200
  111.50000   49.56132   61.56173    6.87483   12.68137    3.79400
  112.00000   49.21744   59.91294    7.23195   13.41591    3.76700
  112.50000   43.95418   61.69404    7.71423   14.38493    3.74000
  113.00000   42.02343   66.48345    8.19163   15.51166    3.71300
  113.50000   43.44201   69.79477   10.97572   16.63772    3.68600
  114.00000   45.25074   68.36978   14.55938   17.76387    3.65900
  114.50000   47.05706   64.42496   18.62075   18.88981    3.63100
  115.00000   47.20556   62.82589    9.95845   19.61717    3.60400
  115.50000   44.20828   60.90144   19.59834   20.15431    3.57700
  116.00000   44.66443   56.90646   19.59834   20.69180    3.55000
  116.50000   47.58326   53.96995   19.59845   21.22871    3.52300
  117.00000   47.57654   51.79828   19.48332   21.63977    3.49600
  117.50000   46.20852   51.38457   19.27190   21.94831    3.51700
  118.00000   44.47754   54.17187   19.27359   22.25766    3.54500
  118.50000   44.75195   58.91798   19.62671   22.56668    3.57400
  119.00000   46.79460   62.39186   19.35272   22.37557    3.60200
  119.50000   44.75606   60.61988   19.34929   22.16704    3.63100
