~Version Information
 VERS.                2.0:  CWLS LOG ASCII STANDARD -VERSION 2.0
 WRAP.                 NO:  ONE LINE PER DEPTH STEP
~WELL INFORMATION BLOCK
#MNEM.UNIT       DATA		            DESCRIPTION OF MNEMONIC
#---------    -------------            ------------------------
 STRT.FT  0.800                          :START DEPTH
 STOP.FT  1867.700                       :STOP DEPTH
 STEP.FT  0.100                          :STEP    UP_HOLE  
 NULL.    0                              :NULL VALUE
 COMP.                             USGS  :COMPANY
 WELL.                             DMW1  :WELL
 FLD .      MARINA COAST WATER DISTRICT  :FIELD
 LOC .    None  None  None               :LOCATION
 CNTY.                        MONTERY ?  :COUNTY
 STAT.                     CA            :STATE
 SRVC.    PORTLAND OR                    :SERVICE COMPANY
 DATE.   11/17/00                        :LOG DATE
 UWI .                       	         :UNIQUE WELL ID
 LIC .                                   :LICENSE NUMBER
~Curve Information Block
#MNEM.UNIT      API CODE     Curve Description
#---------    -------------  ------------------------
 DEPT     .FT        00 001 00 00          :  1  DEPTH   
 GAM(NAT) .API-GR    00 310 00 00          :  2             GAM(NAT)
 COND     .MMHO/M    00 000 00 00          :  3                 COND
 RES      .OHM-M     00 000 00 00          :  4                  RES
 TEMP     .DEG F     00 660 00 00          :  5                 TEMP
 AP-COND  .MMHO/M    00 000 00 00          :  6              AP-COND
 TEMP     .CPS       00 660 00 00          :  7                 TEMP
 AP-COND  .CPS       00 000 00 00          :  8              AP-COND
 TENSION  .POUNDS    00 000 00 00          :  9              TENSION
 TIME     .MINUTES   00 000 00 00          : 10                 TIME
~Parameter Information Block
#MNEM.UNIT   Information     Description
#---------- ---------------  ------------------------
~Other Information
#MNEM.UNIT  Information      Description
#---------- ---------------  ------------------------
 FILE.      ORIGINAL           File Type
 FIID.      9511A              File Type Identifier
 VERS.      1.0                System Version
 SER .      1                  System Serial Number
 TRUK.      0.50000            Truck Calibration Number
 TOOL.         989             Tool Serial Number
 TIME.      20:51:             Time
 LAT .          None           Latitude
 LON .          None           Longitude
 LMF .       TOC-PVC           Log Measured From
 DMF .          None           Driller Measured From
 PD  .           TOC           Permanent Data
 PDEV.          None           Elevation Permanent Data
 EKB .M         None           Elevation Kelly Bushing
 ELEV.DF        None           Elevation DF
 EGL .M         None           Elevation Ground Level
 DRDP.          None           Driller's Depth
 CASD.         3               Casing Diameter
 CASB.          1870           Casing Bottom
 CASX.           PVC           Casing Type
 CAST.         0               Casing Thickness
 TNOC.          None           Time Circulation Stopped
 LOGU.       CENT              Logging Unit
 RECB.          KKNUTSON       Recorded By
 OSR1.          None           Other Services
 OSR2.          None           Other Services
 OSR3.          None           Other Services
 BS  .MM           6           Bit Size
 MST .                         Mean Surface Temperature
 TGRD.        0                Temperature Gradiant
 MAGN.             0           Magnetic Declination
 MDEN.      2.71               Density Matrix
 MATR.       Dolomite          Neutron Matrix
 DTMT.            54           Delta T Matrix
 DTFL.                         Delta T Fluid
 MUDS.               0         Mud Sample Source
 MRS .           0             Mud Resistivity
 MTP .           0             Mud Temperature
 MFRS.                         Resistivity Mud Filtrate
 MFTP.                         Temperature Mud Filtrate
 MCRS.         0               Resistivity Mud Cake
 MCTP.                         Temperature Mud Cake
 FTYP.             0           Fluid Type
 FD  .K/M3                     Fluid Density
 DFV .S                        Fluid Viscosity
 FPH .                         Fuild PH
 ELCO.        2500             Electron Cutoff
# -------------------------- 
~A DEPTH  GAM(NAT) COND     RES      TEMP  AP-COND  TEMP  AP-COND  TENSION  TIME    
# ...
 246.700     67.8    731.5      1.4  5327.8   635.2  28030.0 125666.7     7.0  0.30000 
 246.800     64.4    733.4      1.4  5328.5   636.8  28033.3 125846.7     9.9  0.30000 
 246.900     78.0    734.7      1.4  5328.5   637.9  28033.3 125976.7     9.9  0.30000 
 247.000     64.4    734.6      1.4  5329.2   637.8  28036.7 125963.3     8.6  0.30000 
 247.100     23.7    735.0      1.4  5328.5   638.1  28033.3 126000.0    11.5  0.30000 
 247.200     71.2    734.2      1.4  5328.5   637.5  28033.3 125926.7    12.4  0.30000 
 247.300    105.2    732.8      1.4  5329.2   636.3  28036.7 125796.7     9.8  0.30000 
 247.400     44.1    733.5      1.4  5328.5   636.9  28033.3 125860.0     7.8  0.30000 
 247.500     78.0    732.4      1.4  5328.5   636.0  28033.3 125756.7     7.9  0.30000 
 247.600     76.3    730.5      1.4  5329.2   634.3  28036.7 125566.7     8.6  0.30000 
 247.700     81.4    730.0      1.4  5328.5   634.0  28033.3 125526.7     7.5  0.30000 
 247.800     47.5    726.3      1.4  5328.5   630.8  28033.3 125170.0     6.9  0.20000 
 247.900     61.1    725.5      1.4  5329.2   630.1  28036.7 125093.3     6.8  0.30000 
 248.000     81.4    722.7      1.4  5328.9   627.8  28035.0 124825.0     6.7  0.30000 
 248.100     61.1    720.6      1.4  5328.5   625.9  28033.3 124616.7     7.6  0.30000 
 248.200     57.7    716.6      1.4  5329.2   622.5  28036.7 124233.3     8.3  0.30000 
 248.300     81.4    713.8      1.4  5329.2   620.2  28036.7 123970.0     7.7  0.30000 
 248.400     61.1    708.6      1.4  5329.2   615.8  28036.7 123463.3     7.1  0.30000 
 248.500     54.3    705.3      1.4  5329.2   613.0  28036.7 123150.0     5.8  0.30000 
 248.600     71.2    699.2      1.4  5329.9   607.7  28040.0 122556.7     4.8  0.30000 
 248.700     50.9    694.3      1.4  5329.2   603.7  28036.7 122093.3     5.3  0.30000 
 248.800     45.8    686.4      1.5  5328.5   597.0  28033.3 121333.3     5.7  0.30000 
 248.900     71.2    681.2      1.5  5329.2   592.5  28036.7 120826.7     5.0  0.30000 
 249.000     44.1    672.7      1.5  5329.9   585.2  28040.0 120006.7     6.3  0.30000 
 249.100     30.5    666.0      1.5  5329.2   579.6  28036.7 119363.3     8.2  0.30000 
 249.200     71.2    656.7      1.5  5329.9   571.6  28040.0 118466.7     7.6  0.30000 
 249.300     50.9    649.0      1.5  5329.9   565.1  28040.0 117726.7     6.8  0.30000 
 249.400     78.0    638.5      1.6  5328.5   556.2  28033.3 116716.7     9.0  0.30000 
 249.500     74.6    628.1      1.6  5329.9   547.4  28040.0 115716.7    10.2  0.30000 
 249.600     40.7    615.4      1.6  5329.9   536.5  28040.0 114486.7     6.5  0.30000 
 249.700     57.7    605.5      1.7  5329.9   528.0  28040.0 113526.7     4.0  0.30000 
 249.800     61.1    594.0      1.7  5329.9   518.3  28040.0 112416.7     4.0  0.30000 
 249.900     33.9    582.5      1.7  5329.9   508.5  28040.0 111310.0     4.0  0.30000 
 250.000     74.6    571.1      1.8  5329.9   498.7  28040.0 110206.7     4.1  0.30000 
 250.100     88.2    561.2      1.8  5329.9   490.3  28040.0 109253.3     3.7  0.30000 
 250.200     50.9    549.4      1.8  5329.9   480.2  28040.0 108110.0     4.9  0.30000 
 250.300     91.6    538.6      1.9  5329.9   471.0  28040.0 107060.0     4.8  0.30000 
 250.400     78.0    528.6      1.9  5329.9   462.4  28040.0 106093.3     5.8  0.30000 
 250.500     64.4    515.6      1.9  5329.9   451.3  28040.0 104833.3     6.3  0.30000 
 250.600     47.5    504.7      2.0  5329.9   442.0  28040.0 103780.0     5.5  0.30000 
 250.700     66.1    496.1      2.0  5330.6   434.7  28043.3 102946.7     5.0  0.30000 
 250.800     64.4    486.0      2.1  5329.9   426.0  28040.0 101963.3     4.3  0.32000 
 250.900     81.4    477.4      2.1  5330.6   418.6  28043.3 101130.0     3.4  0.33000 
 251.000     64.4    467.4      2.1  5329.9   410.1  28040.0 100163.3     3.0  0.33000 
 251.100     84.8    461.8      2.2  5330.6   405.2  28043.3 99613.3      3.6  0.22000 
 251.200     67.8    454.9      2.2  5330.6   399.3  28043.3 98943.3      4.7  0.30000 
 251.300     56.0    448.3      2.2  5330.6   393.7  28043.3 98306.7      5.2  0.30000 
 251.400     84.0    444.2      2.3  5330.6   390.2  28043.3 97910.0      4.2  0.30000 
 251.500     56.0    438.5      2.3  5330.6   385.3  28043.3 97356.7      5.9  0.30000 
 251.600     78.0    434.8      2.3  5329.9   382.1  28040.0 96996.7      6.4  0.30000 
 251.700     61.1    432.3      2.3  5330.6   380.0  28043.3 96753.3      6.9  0.30000 
 251.800     78.0    428.5      2.3  5330.6   376.7  28043.3 96383.3      4.0  0.20000 
 251.900     61.1    424.4      2.4  5330.6   373.2  28043.3 95980.0      3.6  0.30000 
 252.000     50.9    421.6      2.4  5331.0   370.7  28045.0 95705.0      6.3  0.30000 
 252.100    108.5    420.3      2.4  5330.6   369.6  28043.3 95580.0      4.3  0.30000 
 252.200     61.1    416.4      2.4  5331.3   366.3  28046.7 95203.3      8.4  0.30000 
 252.300     64.4    415.5      2.4  5330.6   365.5  28043.3 95110.0     11.2  0.30000 
 252.400     50.9    409.7      2.4  5331.3   360.6  28046.7 94553.3     10.1  0.30000 
 252.500     64.4    407.0      2.5  5330.6   358.3  28043.3 94290.0      4.8  0.20000 
 252.600     57.7    402.2      2.5  5330.6   354.1  28043.3 93823.3      2.8  0.30000 
 252.700     50.9    398.7      2.5  5331.0   351.1  28045.0 93480.0      2.3  0.30000 
 252.800     88.2    393.1      2.5  5330.6   346.3  28043.3 92936.7      0.6  0.30000 
 252.900     56.0    388.4      2.6  5331.3   342.3  28046.7 92476.7      0.2  0.30000 
 253.000     88.2    381.6      2.6  5331.3   336.3  28046.7 91806.7      0.2  0.20000 
 253.100     54.3    374.3      2.7  5331.3   330.0  28046.7 91093.3      0.8  0.30000 
 253.200    106.8    369.0      2.7  5331.0   325.6  28045.0 90585.0      3.6  0.30000 
 253.300     44.1    361.8      2.8  5332.0   319.3  28050.0 89876.7      3.4  0.30000 
 253.400     67.8    356.6      2.8  5331.3   314.8  28046.7 89370.0      5.0  0.30000 
 253.500     57.7    349.9      2.9  5331.3   309.0  28046.7 88713.3      7.4  0.20000 
 253.600     57.7    342.8      2.9  5331.3   302.9  28046.7 88020.0      6.3  0.30000 
 253.700     67.8    339.0      2.9  5332.0   299.7  28050.0 87650.0      5.5  0.30000 
 253.800     50.9    333.3      3.0  5330.6   294.7  28043.3 87093.3      9.7  0.30000 
 253.900     71.2    328.6      3.0  5332.0   290.6  28050.0 86626.7      9.0  0.30000 
 254.000     81.4    324.9      3.1  5331.3   287.5  28046.7 86270.0      7.0  0.20000 
 254.100    101.8    319.9      3.1  5332.0   283.1  28050.0 85780.0      7.1  0.30000 
 254.200     78.0    318.7      3.1  5332.0   282.1  28050.0 85660.0      7.6  0.30000 
 254.300     54.3    316.3      3.2  5331.3   280.0  28046.7 85423.3      4.8  0.30000 
 254.400     81.4    313.6      3.2  5330.6   277.7  28043.3 85160.0      6.4  0.20000 
 254.500     84.8    312.3      3.2  5332.0   276.6  28050.0 85033.3      8.9  0.30000 
 254.600     74.6    311.1      3.2  5332.0   275.6  28050.0 84920.0      7.7  0.30000 
 254.700     98.4    309.4      3.2  5332.0   274.0  28050.0 84746.7      8.5  0.30000 
 254.800     86.5    308.6      3.2  5332.0   273.3  28050.0 84666.7      9.4  0.30000 
 254.900     78.0    308.4      3.2  5332.0   273.2  28050.0 84653.3     10.4  0.20000 
 255.000     76.3    309.3      3.2  5332.0   274.0  28050.0 84740.0     11.4  0.30000 
 255.100     58.5    308.1      3.2  5332.0   273.0  28050.0 84625.0      9.6  0.30000 
 255.200     64.4    308.0      3.2  5332.0   272.8  28050.0 84610.0      9.6  0.31000 
 255.300     88.2    308.9      3.2  5332.0   273.6  28050.0 84703.3      8.3  0.33000 
 255.400    105.2    309.5      3.2  5332.7   274.1  28053.3 84760.0      8.0  0.33000 
 255.500     50.9    309.4      3.2  5332.0   274.1  28050.0 84753.3      7.1  0.22000 
 255.600     30.5    310.8      3.2  5332.7   275.2  28053.3 84883.3      7.0  0.31000 
 255.700     74.6    309.7      3.2  5333.1   274.3  28055.0 84775.0      5.0  0.20000 
