~Version Information
 VERS.                2.0:  CWLS LOG ASCII STANDARD -VERSION 2.0
 WRAP.                 NO:  ONE LINE PER DEPTH STEP
~WELL INFORMATION BLOCK
#MNEM.UNIT       DATA		            DESCRIPTION OF MNEMONIC
#---------    -------------            ------------------------
 STRT.FT  0.800                          :START DEPTH
 STOP.FT  1867.700                       :STOP DEPTH
 STEP.FT  0.100                          :STEP    UP_HOLE  
 NULL.    0                              :NULL VALUE
 COMP.                             USGS  :COMPANY
 WELL.                             DMW1  :WELL
 FLD .      MARINA COAST WATER DISTRICT  :FIELD
 LOC .    None  None  None               :LOCATION
 CNTY.                        MONTERY ?  :COUNTY
 STAT.                     CA            :STATE
 SRVC.    PORTLAND OR                    :SERVICE COMPANY
 DATE.   11/17/00                        :LOG DATE
 UWI .                       	         :UNIQUE WELL ID
 LIC .                                   :LICENSE NUMBER
~Curve Information Block
#MNEM.UNIT      API CODE     Curve Description
#---------    -------------  ------------------------
 DEPT     .FT        00 001 00 00          :  1  DEPTH   
 GAM(NAT) .API-GR    00 310 00 00          :  2             GAM(NAT)
 COND     .MMHO/M    00 000 00 00          :  3                 COND
 RES      .OHM-M     00 000 00 00          :  4                  RES
 TEMP     .DEG F     00 660 00 00          :  5                 TEMP
 AP-COND  .MMHO/M    00 000 00 00          :  6              AP-COND
 TEMP     .CPS       00 660 00 00          :  7                 TEMP
 AP-COND  .CPS       00 000 00 00          :  8              AP-COND
 TENSION  .POUNDS    00 000 00 00          :  9              TENSION
 TIME     .MINUTES   00 000 00 00          : 10                 TIME
~Parameter Information Block
#MNEM.UNIT   Information     Description
#---------- ---------------  ------------------------
~Other Information
#MNEM.UNIT  Information      Description
#---------- ---------------  ------------------------
 FILE.      ORIGINAL           File Type
 FIID.      9511A              File Type Identifier
 VERS.      1.0                System Version
 SER .      1                  System Serial Number
 TRUK.      0.50000            Truck Calibration Number
 TOOL.         989             Tool Serial Number
 TIME.      20:51:             Time
 LAT .          None           Latitude
 LON .          None           Longitude
 LMF .       TOC-PVC           Log Measured From
 DMF .          None           Driller Measured From
 PD  .           TOC           Permanent Data
 PDEV.          None           Elevation Permanent Data
 EKB .M         None           Elevation Kelly Bushing
 ELEV.DF        None           Elevation DF
 EGL .M         None           Elevation Ground Level
 DRDP.          None           Driller's Depth
 CASD.         3               Casing Diameter
 CASB.          1870           Casing Bottom
 CASX.           PVC           Casing Type
 CAST.         0               Casing Thickness
 TNOC.          None           Time Circulation Stopped
 LOGU.       CENT              Logging Unit
 RECB.          KKNUTSON       Recorded By
 OSR1.          None           Other Services
 OSR2.          None           Other Services
 OSR3.          None           Other Services
 BS  .MM           6           Bit Size
 MST .                         Mean Surface Temperature
 TGRD.        0                Temperature Gradiant
 MAGN.             0           Magnetic Declination
 MDEN.      2.71               Density Matrix
 MATR.       Dolomite          Neutron Matrix
 DTMT.            54           Delta T Matrix
 DTFL.                         Delta T Fluid
 MUDS.               0         Mud Sample Source
 MRS .           0             Mud Resistivity
 MTP .           0             Mud Temperature
 MFRS.                         Resistivity Mud Filtrate
 MFTP.                         Temperature Mud Filtrate
 MCRS.         0               Resistivity Mud Cake
 MCTP.                         Temperature Mud Cake
 FTYP.             0           Fluid Type
 FD  .K/M3                     Fluid Density
 DFV .S                        Fluid Viscosity
 FPH .                         Fuild PH
 ELCO.        2500             Electron Cutoff
# -------------------------- 
~A DEPTH  GAM(NAT) COND     RES      TEMP  AP-COND  TEMP  AP-COND  TENSION  TIME    
   0.800      0.0      0.0      0.0   0.0      0.0   0.0      0.0      9.8  0.00000 
   0.900     43.7      0.0      0.0   0.0      0.0   0.0      0.0      9.8  0.00000 
   1.000     55.6      0.0      0.0   0.0      0.0   0.0      0.0      9.8  0.00000 
   1.100     56.7      0.0      0.0   0.0      0.0   0.0      0.0      9.8  0.00000 
   1.200     56.8      0.0      0.0   0.0      0.0   0.0      0.0      9.8  0.00000 
   1.300     59.4      0.0      0.0   0.0      0.0   0.0      0.0      9.8  0.00000 
   1.400     57.7      0.0      0.0   0.0      0.0   0.0      0.0      9.8  0.00000 
   1.500     64.4      0.0      0.0   0.0      0.0   0.0      0.0      9.8  0.00000 
   1.600     61.9      0.0      0.0   0.0      0.0   0.0      0.0      9.8  0.00000 
   1.700     57.0      0.0      0.0   0.0      0.0   0.0      0.0      9.8  0.00000 
   1.800     58.0      0.0      0.0   0.0      0.0   0.0      0.0      9.8  0.00000 
   1.900     60.0      0.0      0.0   0.0      0.0   0.0      0.0      9.8  0.00000 
   2.000     56.4      0.0      0.0   0.0      0.0   0.0      0.0      9.8  0.00000 
   2.100     56.3      0.0      0.0   0.0      0.0   0.0      0.0      9.8  0.00000 
   2.200     56.2      0.0      0.0   0.0      0.0   0.0      0.0      9.8  0.00000 
   2.300     54.6      0.0      0.0   0.0      0.0   0.0      0.0      9.8  0.00000 
   2.400     69.4      0.0      0.0   0.0      0.0   0.0      0.0      9.8  0.00000 
   2.500     50.9      0.0      0.0   0.0      0.0   0.0      0.0      9.8  0.00000 
   2.600     53.9      0.0      0.0   0.0      0.0   0.0      0.0      9.8  0.00000 
   2.700     59.2      0.0      0.0   0.0      0.0   0.0      0.0      9.8  0.00000 
   2.800     62.6      0.0      0.0   0.0      0.0   0.0      0.0      9.8  0.00000 
   2.900     62.1      0.0      0.0   0.0      0.0   0.0      0.0      9.8  0.00000 
   3.000     71.2      0.0      0.0   0.0      0.0   0.0      0.0      9.8  0.00000 
   3.100     47.5      0.0      0.0   0.0      0.0   0.0      0.0      9.8  0.00000 
   3.200     49.2      0.0      0.0   0.0      0.0   0.0      0.0      9.8  0.00000 
   3.300     67.2      0.0      0.0   0.0      0.0   0.0      0.0      9.8  0.00000 
   3.400     67.2      0.0      0.0   0.0      0.0   0.0      0.0      9.8  0.00000 
   3.500     59.0      0.0      0.0   0.0      0.0   0.0      0.0      9.8  0.00000 
   3.600     40.7      0.0      0.0   0.0      0.0   0.0      0.0      9.8  0.00000 
   3.700     48.8      0.0      0.0   0.0      0.0   0.0      0.0      9.8  0.00000 
   3.800     42.7      0.0      0.0   0.0      0.0   0.0      0.0      9.8  0.00000 
   3.900     57.7      0.0      0.0   0.0      0.0   0.0      0.0      9.8  0.00000 
   4.000     42.7      0.0      0.0   0.0      0.0   0.0      0.0      9.8  0.00000 
   4.100     46.8      0.0      0.0   0.0      0.0   0.0      0.0      9.8  0.00000 
   4.200     48.8      0.0      0.0   0.0      0.0   0.0      0.0      9.8  0.00000 
   4.300     59.0      0.0      0.0   0.0      0.0   0.0      0.0      9.8  0.00000 
   4.400     57.0      0.0      0.0   0.0      0.0   0.0      0.0      9.8  0.00000 
   4.500     46.8      0.0      0.0   0.0      0.0   0.0      0.0      9.8  0.00000 
   4.600     54.3      0.0      0.0   0.0      0.0   0.0      0.0      9.8  0.00000 
   4.700     38.7      0.0      0.0   0.0      0.0   0.0      0.0      9.8  0.00000 
   4.800     61.1      0.0      0.0   0.0      0.0   0.0      0.0      9.8  0.00000 
   4.900     56.0      0.0      0.0   0.0      0.0   0.0      0.0      9.8  0.00000 
   5.000     56.0      0.0      0.0   0.0      0.0   0.0      0.0      9.8  0.00000 
   5.100     43.2      0.0      0.0   0.0      0.0   0.0      0.0      9.8  1.88000 
   5.200     28.0      0.0      0.0   0.0      0.0   0.0      0.0      9.8  1.34000 
   5.300     40.7   2755.6      0.4  5285.0  2320.8  27824.7 316647.1     7.0  1.38000 
   5.400     40.7   2765.3      0.4  5284.8  2328.9  27824.0 317556.7     8.3  1.34000 
   5.500     40.7   2781.9      0.4  5285.0  2342.5  27825.0 319101.4     9.2  1.06000 
   5.600     67.8   2775.9      0.4  5284.9  2337.6  27824.2 318544.2    11.9  1.29000 
   5.700     69.2   2785.1      0.4  5284.7  2345.1  27823.3 319396.7    14.6  1.43000 
   5.800     43.2   2790.4      0.4  5284.5  2349.5  27822.5 319892.5    17.9  1.18000 
   5.900     35.6   2802.2      0.4  5284.7  2359.2  27823.3 320992.0    13.4  1.06000 
   6.000     48.8   2793.3      0.4  5284.9  2351.9  27824.2 320165.0     9.2  0.94000 
   6.100     33.9   2813.3      0.4  5284.6  2368.3  27823.0 322025.0     7.9  1.01000 
   6.200     40.7   2815.8      0.4  5284.8  2370.4  27824.0 322256.0     7.6  1.10000 
   6.300     30.5   2826.2      0.4  5284.6  2378.9  27823.0 323227.0     8.4  1.54000 
   6.400     56.0   2834.3      0.4  5284.6  2385.6  27822.7 323981.8     7.3  1.91000 
   6.500     33.9   2851.7      0.4  5284.4  2399.9  27822.0 325607.3     5.9  17.59003
   6.600     30.5   2857.6      0.3  5284.4  2404.8  27822.1 326156.3     5.3  1.05000 
   6.700     47.5   2875.2      0.3  5284.1  2419.2  27820.5 327791.0     3.7  1.14000 
   6.800     40.7   2856.8      0.4  5283.8  2404.1  27819.1 326080.9    10.7  0.86000 
   6.900     37.3   2852.7      0.4  5283.8  2400.7  27819.0 325693.0     7.8  1.18000 
   7.000     37.3   2882.5      0.3  5284.0  2425.2  27820.0 328469.0     9.4  1.22000 
   7.100     20.4   2853.5      0.4  5283.8  2401.4  27819.1 325774.5     9.7  1.05000 
   7.200     40.7   2825.6      0.4  5284.0  2378.4  27820.0 323167.7     5.5  0.88000 
   7.300     54.3   2874.8      0.3  5283.6  2418.9  27818.0 327758.0    10.1  0.66000 
   7.400     45.8   2879.7      0.3  5283.5  2422.9  27817.8 328211.1    10.3  0.55000 
   7.500     37.3   2884.2      0.3  5283.6  2426.6  27818.3 328633.3    11.7  0.55000 
   7.600     33.9   2891.7      0.3  5283.3  2432.8  27816.7 329326.7     8.0  0.41000 
   7.700     33.9   2899.1      0.3  5283.6  2438.9  27818.0 330022.0     5.0  0.50000 
   7.800     25.4   2912.1      0.3  5283.6  2449.6  27818.0 331232.0     3.8  0.56000 
   7.900     35.6   2920.2      0.3  5282.7  2456.2  27814.0 331986.0     3.7  0.60000 
   8.000     57.7   2923.5      0.3  5283.2  2458.9  27816.0 332288.0     3.2  0.34000 
   8.100     50.9   2918.8      0.3  5283.2  2455.0  27816.0 331850.0     3.3  0.60000 
   8.200     35.6   2935.5      0.3  5284.0  2468.7  27820.0 333402.0     1.9  0.52000 
   8.300     40.7   2940.1      0.3  5284.0  2472.6  27820.0 333838.3     2.3  0.55000 
   8.400     30.5   2946.9      0.3  5284.8  2478.1  27824.0 334466.0     0.4  0.43000 
   8.500     61.1   2961.9      0.3  5285.2  2490.4  27826.0 335862.0     0.5  0.50000 
   8.600     40.7   2979.4      0.3  5284.4  2504.8  27822.0 337490.0     1.3  0.52000 
   8.700     37.3   2968.2      0.3  5284.8  2495.7  27824.0 336452.0     1.0  0.60000 
   8.800     40.7   2954.9      0.3  5285.2  2484.7  27826.0 335216.0     1.1  0.48000 
   8.900     40.7   2974.9      0.3  5284.4  2501.2  27822.0 337076.0     0.9  0.50000 
   9.000     30.5   3002.3      0.3  5284.0  2523.6  27820.0 339621.7    -0.0  0.40000 
   9.100     50.9   3003.2      0.3  5283.2  2524.4  27816.0 339708.0    -0.0  0.43000 
   9.200     37.3   2986.4      0.3  5284.0  2510.6  27820.0 338140.0    -0.0  0.44000 
   9.300     23.7   2977.2      0.3  5284.5  2503.0  27822.5 337287.5    -0.0  0.33000 
   9.400     27.1   2997.6      0.3  5284.0  2519.8  27820.0 339185.0     1.2  0.44000 
   9.500     37.3   3028.3      0.3  5282.9  2545.0  27815.0 342042.5     3.2  0.44000 
   9.600     13.6   3045.0      0.3  5284.0  2558.7  27820.0 343592.5     4.0  0.33000 
   9.700     47.5   3033.7      0.3  5284.0  2549.4  27820.0 342542.5     3.8  0.55000 
   9.800     37.3   3019.9      0.3  5284.0  2538.1  27820.0 341265.0     1.8  0.33000 
   9.900     40.7   3038.2      0.3  5282.7  2553.1  27814.0 342966.0     1.6  0.41000 
  10.000     40.7   3053.0      0.3  5284.0  2565.3  27820.0 344343.3     2.3  0.40000 
