~Version Information
 VERS.                2.0:  CWLS LOG ASCII STANDARD -VERSION 2.0
 WRAP.                 NO:  ONE LINE PER DEPTH STEP
~WELL INFORMATION BLOCK
#MNEM.UNIT       DATA		            DESCRIPTION OF MNEMONIC
#---------    -------------            ------------------------
 STRT.FT  0.800                          :START DEPTH
 STOP.FT  1867.700                       :STOP DEPTH
 STEP.FT  0.100                          :STEP    UP_HOLE  
 NULL.    0                              :NULL VALUE
 COMP.                             USGS  :COMPANY
 WELL.                             DMW1  :WELL
 FLD .      MARINA COAST WATER DISTRICT  :FIELD
 LOC .    None  None  None               :LOCATION
 CNTY.                        MONTERY ?  :COUNTY
 STAT.                     CA            :STATE
 SRVC.    PORTLAND OR                    :SERVICE COMPANY
 DATE.   11/17/00                        :LOG DATE
 UWI .                       	         :UNIQUE WELL ID
 LIC .                                   :LICENSE NUMBER
~Curve Information Block
#MNEM.UNIT      API CODE     Curve Description
#---------    -------------  ------------------------
 DEPT     .FT        00 001 00 00          :  1  DEPTH   
 GAM(NAT) .API-GR    00 310 00 00          :  2             GAM(NAT)
 COND     .MMHO/M    00 000 00 00          :  3                 COND
 RES      .OHM-M     00 000 00 00          :  4                  RES
 TEMP     .DEG F     00 660 00 00          :  5                 TEMP
 AP-COND  .MMHO/M    00 000 00 00          :  6              AP-COND
 TEMP     .CPS       00 660 00 00          :  7                 TEMP
 AP-COND  .CPS       00 000 00 00          :  8              AP-COND
 TENSION  .POUNDS    00 000 00 00          :  9              TENSION
 TIME     .MINUTES   00 000 00 00          : 10                 TIME
~Parameter Information Block
#MNEM.UNIT   Information     Description
#---------- ---------------  ------------------------
~Other Information
#MNEM.UNIT  Information      Description
#---------- ---------------  ------------------------
 FILE.      ORIGINAL           File Type
 FIID.      9511A              File Type Identifier
 VERS.      1.0                System Version
 SER .      1                  System Serial Number
 TRUK.      0.50000            Truck Calibration Number
 TOOL.         989             Tool Serial Number
 TIME.      20:51:             Time
 LAT .          None           Latitude
 LON .          None           Longitude
 LMF .       TOC-PVC           Log Measured From
 DMF .          None           Driller Measured From
 PD  .           TOC           Permanent Data
 PDEV.          None           Elevation Permanent Data
 EKB .M         None           Elevation Kelly Bushing
 ELEV.DF        None           Elevation DF
 EGL .M         None           Elevation Ground Level
 DRDP.          None           Driller's Depth
 CASD.         3               Casing Diameter
 CASB.          1870           Casing Bottom
 CASX.           PVC           Casing Type
 CAST.         0               Casing Thickness
 TNOC.          None           Time Circulation Stopped
 LOGU.       CENT              Logging Unit
 RECB.          KKNUTSON       Recorded By
 OSR1.          None           Other Services
 OSR2.          None           Other Services
 OSR3.          None           Other Services
 BS  .MM           6           Bit Size
 MST .                         Mean Surface Temperature
 TGRD.        0                Temperature Gradiant
 MAGN.             0           Magnetic Declination
 MDEN.      2.71               Density Matrix
 MATR.       Dolomite          Neutron Matrix
 DTMT.            54           Delta T Matrix
 DTFL.                         Delta T Fluid
 MUDS.               0         Mud Sample Source
 MRS .           0             Mud Resistivity
 MTP .           0             Mud Temperature
 MFRS.                         Resistivity Mud Filtrate
 MFTP.                         Temperature Mud Filtrate
 MCRS.         0               Resistivity Mud Cake
 MCTP.                         Temperature Mud Cake
 FTYP.             0           Fluid Type
 FD  .K/M3                     Fluid Density
 DFV .S                        Fluid Viscosity
 FPH .                         Fuild PH
 ELCO.        2500             Electron Cutoff
# -------------------------- 
~A DEPTH  GAM(NAT) COND     RES      TEMP  AP-COND  TEMP  AP-COND  TENSION  TIME    
# ...
 992.900     91.6    132.4      7.6  5537.4   119.6  29033.3 67250.0      4.2  0.30000 
 993.000    111.9    137.1      7.3  5537.4   123.8  29033.3 67723.3      2.0  0.30000 
 993.100    128.9    140.3      7.1  5538.1   126.5  29036.7 68036.7      2.1  0.30000 
 993.200     81.4    145.0      6.9  5537.4   130.7  29033.3 68510.0      1.0  0.20000 
 993.300    101.8    149.0      6.7  5537.4   134.2  29033.3 68910.0      1.0  0.30000 
 993.400    108.5    151.0      6.6  5537.7   136.0  29035.0 69110.0     -0.0  0.30000 
 993.500    101.8    155.5      6.4  5538.1   140.0  29036.7 69556.7      0.1  0.30000 
 993.600     91.6    157.9      6.3  5537.4   142.0  29033.3 69790.0      0.1  0.30000 
 993.700    115.3    160.0      6.2  5538.1   143.9  29036.7 70006.7      0.1  0.30000 
 993.800     91.6    163.3      6.1  5537.4   146.8  29033.3 70330.0     -0.0  0.30000 
 993.900     91.6    163.7      6.1  5538.1   147.2  29036.7 70373.3     -0.0  0.30000 
 994.000    101.8    164.0      6.1  5537.4   147.4  29033.3 70403.3      0.2  0.30000 
 994.100    115.3    164.3      6.1  5538.1   147.7  29036.7 70430.0      0.2  0.20000 
 994.200    122.1    164.2      6.1  5537.4   147.5  29033.3 70416.7      0.4  0.30000 
 994.300    105.2    163.5      6.1  5537.7   147.0  29035.0 70350.0      0.4  0.30000 
 994.400     88.2    162.1      6.2  5538.1   145.7  29036.7 70210.0      0.2  0.30000 
 994.500    111.9    159.9      6.3  5538.1   143.8  29036.7 69993.3      0.2  0.30000 
 994.600     64.4    158.9      6.3  5537.4   142.9  29033.3 69890.0     -0.0  0.30000 
 994.700    108.5    155.2      6.4  5538.1   139.6  29036.7 69520.0     -0.0  0.30000 
 994.800    106.8    152.4      6.6  5538.1   137.2  29036.7 69250.0      0.4  0.30000 
 994.900    152.6    150.2      6.7  5538.1   135.3  29036.7 69030.0      0.4  0.20000 
 995.000    115.3    148.0      6.8  5537.4   133.3  29033.3 68806.7      0.4  0.30000 
 995.100     78.0    144.6      6.9  5537.7   130.3  29035.0 68465.0     -0.0  0.30000 
 995.200    111.9    143.0      7.0  5538.1   128.9  29036.7 68306.7     -0.0  0.30000 
 995.300     91.6    140.6      7.1  5538.1   126.8  29036.7 68070.0     -0.0  0.30000 
 995.400     88.2    137.7      7.3  5538.1   124.3  29036.7 67780.0     -0.0  0.30000 
 995.500     88.2    136.1      7.3  5538.1   122.8  29036.7 67616.7     -0.0  0.30000 
 995.600     96.7    135.2      7.4  5538.1   122.1  29036.7 67533.3     -0.0  0.30000 
 995.700    101.8    133.7      7.5  5538.1   120.7  29036.7 67380.0      0.2  0.20000 
 995.800    115.3    133.1      7.5  5538.1   120.2  29036.7 67316.7      0.2  0.30000 
 995.900     98.4    131.5      7.6  5537.7   118.8  29035.0 67155.0      0.2  0.30000 
 996.000    149.2    130.6      7.7  5538.1   118.0  29036.7 67070.0      0.2  0.30000 
 996.100    111.9    129.9      7.7  5538.8   117.4  29040.0 66996.7      0.1  0.30000 
 996.200     81.4    128.9      7.8  5538.1   116.5  29036.7 66896.7      1.1  0.30000 
 996.300    115.3    128.2      7.8  5537.4   115.9  29033.3 66833.3      2.9  0.30000 
 996.400     91.6    126.7      7.9  5537.4   114.5  29033.3 66676.7      3.6  0.30000 
 996.500     96.7    125.8      8.0  5538.8   113.7  29040.0 66586.7      5.0  0.22000 
 996.600     67.8    125.0      8.0  5538.1   113.1  29036.7 66513.3      5.0  0.33000 
 996.700    118.7    126.3      7.9  5537.7   114.2  29035.0 66635.0      3.0  0.33000 
 996.800    115.3    125.4      8.0  5538.1   113.4  29036.7 66553.3      3.0  0.22000 
 996.900    101.8    123.9      8.1  5538.1   112.1  29036.7 66396.7      1.5  0.30000 
 997.000    132.3    123.5      8.1  5538.8   111.7  29040.0 66356.7      2.9  0.30000 
 997.100    111.9    122.8      8.1  5538.1   111.1  29036.7 66290.0      2.4  0.30000 
 997.200    135.7    120.6      8.3  5538.1   109.2  29036.7 66066.7      2.2  0.30000 
 997.300     86.5    121.2      8.2  5538.1   109.7  29036.7 66130.0      1.1  0.30000 
 997.400    108.5    121.2      8.3  5538.1   109.7  29036.7 66126.7      0.5  0.20000 
 997.500    125.5    119.7      8.4  5538.8   108.3  29040.0 65973.3      0.9  0.30000 
 997.600     88.2    120.5      8.3  5538.8   109.0  29040.0 66055.0      0.9  0.30000 
 997.700    111.9    118.2      8.5  5538.1   107.0  29036.7 65823.3      2.6  0.30000 
 997.800    115.3    119.1      8.4  5538.8   107.8  29040.0 65916.7      2.2  0.30000 
 997.900     86.5    116.3      8.6  5538.8   105.4  29040.0 65640.0      2.6  0.30000 
 998.000     89.0    116.9      8.6  5537.4   105.9  29033.3 65693.3      1.0  0.30000 
 998.100     96.7    115.7      8.6  5538.8   104.8  29040.0 65573.3      0.7  0.30000 
 998.200    125.5    116.8      8.6  5538.8   105.8  29040.0 65683.3      0.7  0.20000 
 998.300     78.0    115.7      8.6  5538.8   104.9  29040.0 65580.0      0.7  0.30000 
 998.400     64.4    116.8      8.6  5538.8   105.8  29040.0 65690.0      0.5  0.30000 
 998.500    128.9    117.3      8.5  5537.4   106.3  29033.3 65740.0      0.5  0.30000 
 998.600    118.7    116.2      8.6  5538.8   105.2  29040.0 65623.3      0.1  0.30000 
 998.700    135.7    118.6      8.4  5538.8   107.4  29040.0 65866.7      0.1  0.30000 
 998.800     84.8    118.3      8.5  5538.8   107.2  29040.0 65840.0     -0.0  0.30000 
 998.900     64.4    118.1      8.5  5538.8   106.9  29040.0 65813.3     -0.0  0.30000 
 999.000    111.9    117.5      8.5  5538.8   106.4  29040.0 65753.3      0.8  0.20000 
 999.100    105.2    119.2      8.4  5538.8   107.9  29040.0 65926.7      0.8  0.30000 
 999.200    128.9    120.7      8.3  5538.8   109.2  29040.0 66075.0      2.2  0.30000 
 999.300    122.1    120.3      8.3  5538.8   108.9  29040.0 66040.0      2.2  0.30000 
 999.400     71.2    119.7      8.4  5538.8   108.4  29040.0 65980.0      2.4  0.30000 
 999.500    128.9    118.9      8.4  5538.8   107.7  29040.0 65896.7      2.7  0.30000 
 999.600    105.2    121.7      8.2  5538.8   110.2  29040.0 66183.3      3.6  0.30000 
 999.700    128.9    120.6      8.3  5538.8   109.1  29040.0 66063.3      3.9  0.30000 
 999.800    132.3    119.8      8.4  5539.4   108.4  29043.3 65983.3      3.7  0.20000 
 999.900    157.7    119.8      8.4  5538.8   108.4  29040.0 65983.3      2.3  0.30000 
1000.000    149.2    119.6      8.4  5538.8   108.3  29040.0 65965.0      1.3  0.30000 
1000.100    152.6    118.2      8.5  5538.8   107.0  29040.0 65826.7      0.2  0.30000 
1000.200    128.9    117.3      8.5  5538.8   106.2  29040.0 65736.7      1.5  0.30000 
1000.300    156.0    115.3      8.7  5538.8   104.5  29040.0 65540.0      1.5  0.30000 
1000.400    122.1    112.7      8.9  5539.4   102.2  29043.3 65276.7      1.3  0.30000 
1000.500    162.8    110.2      9.1  5538.8   100.0  29040.0 65026.7     -0.0  0.30000 
1000.600    135.7    106.2      9.4  5538.8    96.4  29040.0 64620.0      0.4  0.30000 
1000.700    173.0    103.8      9.6  5538.8    94.3  29040.0 64383.3      1.0  0.20000 
1000.800    176.4    103.0      9.7  5539.4    93.5  29043.3 64296.7      1.0  0.30000 
1000.900    169.6    101.1      9.9  5538.8    91.9  29040.0 64115.0      1.0  0.30000 
1001.000    156.0    100.3     10.0  5539.4    91.2  29043.3 64030.0      1.0  0.30000 
1001.100    128.9     98.6     10.1  5538.8    89.7  29040.0 63863.3      0.4  0.30000 
1001.200    159.4     96.2     10.4  5539.4    87.5  29043.3 63616.7      0.7  0.30000 
1001.300    162.8     95.7     10.5  5539.4    87.1  29043.3 63563.3      0.3  0.30000 
1001.400    135.7     95.4     10.5  5539.4    86.9  29043.3 63540.0      2.1  0.30000 
1001.500    203.5     95.2     10.5  5538.8    86.7  29040.0 63520.0      1.8  0.20000 
1001.600    234.0     96.3     10.4  5539.4    87.6  29043.3 63630.0      2.6  0.30000 
1001.700    128.9     97.0     10.3  5539.8    88.3  29045.0 63700.0      1.9  0.30000 
1001.800    152.6     98.5     10.2  5539.4    89.6  29043.3 63850.0      1.9  0.31000 
1001.900    169.6    101.5      9.9  5538.8    92.2  29040.0 64146.7      1.8  0.33000 
