~Version Information
 VERS.                2.0:  CWLS LOG ASCII STANDARD -VERSION 2.0
 WRAP.                 NO:  ONE LINE PER DEPTH STEP
~WELL INFORMATION BLOCK
#MNEM.UNIT       DATA		            DESCRIPTION OF MNEMONIC
#---------    -------------            ------------------------
 STRT.FT  0.800                          :START DEPTH
 STOP.FT  1867.700                       :STOP DEPTH
 STEP.FT  0.100                          :STEP    UP_HOLE  
 NULL.    0                              :NULL VALUE
 COMP.                             USGS  :COMPANY
 WELL.                             DMW1  :WELL
 FLD .      MARINA COAST WATER DISTRICT  :FIELD
 LOC .    None  None  None               :LOCATION
 CNTY.                        MONTERY ?  :COUNTY
 STAT.                     CA            :STATE
 SRVC.    PORTLAND OR                    :SERVICE COMPANY
 DATE.   11/17/00                        :LOG DATE
 UWI .                       	         :UNIQUE WELL ID
 LIC .                                   :LICENSE NUMBER
~Curve Information Block
#MNEM.UNIT      API CODE     Curve Description
#---------    -------------  ------------------------
 DEPT     .FT        00 001 00 00          :  1  DEPTH   
 GAM(NAT) .API-GR    00 310 00 00          :  2             GAM(NAT)
 COND     .MMHO/M    00 000 00 00          :  3                 COND
 RES      .OHM-M     00 000 00 00          :  4                  RES
 TEMP     .DEG F     00 660 00 00          :  5                 TEMP
 AP-COND  .MMHO/M    00 000 00 00          :  6              AP-COND
 TEMP     .CPS       00 660 00 00          :  7                 TEMP
 AP-COND  .CPS       00 000 00 00          :  8              AP-COND
 TENSION  .POUNDS    00 000 00 00          :  9              TENSION
 TIME     .MINUTES   00 000 00 00          : 10                 TIME
~Parameter Information Block
#MNEM.UNIT   Information     Description
#---------- ---------------  ------------------------
~Other Information
#MNEM.UNIT  Information      Description
#---------- ---------------  ------------------------
 FILE.      ORIGINAL           File Type
 FIID.      9511A              File Type Identifier
 VERS.      1.0                System Version
 SER .      1                  System Serial Number
 TRUK.      0.50000            Truck Calibration Number
 TOOL.         989             Tool Serial Number
 TIME.      20:51:             Time
 LAT .          None           Latitude
 LON .          None           Longitude
 LMF .       TOC-PVC           Log Measured From
 DMF .          None           Driller Measured From
 PD  .           TOC           Permanent Data
 PDEV.          None           Elevation Permanent Data
 EKB .M         None           Elevation Kelly Bushing
 ELEV.DF        None           Elevation DF
 EGL .M         None           Elevation Ground Level
 DRDP.          None           Driller's Depth
 CASD.         3               Casing Diameter
 CASB.          1870           Casing Bottom
 CASX.           PVC           Casing Type
 CAST.         0               Casing Thickness
 TNOC.          None           Time Circulation Stopped
 LOGU.       CENT              Logging Unit
 RECB.          KKNUTSON       Recorded By
 OSR1.          None           Other Services
 OSR2.          None           Other Services
 OSR3.          None           Other Services
 BS  .MM           6           Bit Size
 MST .                         Mean Surface Temperature
 TGRD.        0                Temperature Gradiant
 MAGN.             0           Magnetic Declination
 MDEN.      2.71               Density Matrix
 MATR.       Dolomite          Neutron Matrix
 DTMT.            54           Delta T Matrix
 DTFL.                         Delta T Fluid
 MUDS.               0         Mud Sample Source
 MRS .           0             Mud Resistivity
 MTP .           0             Mud Temperature
 MFRS.                         Resistivity Mud Filtrate
 MFTP.                         Temperature Mud Filtrate
 MCRS.         0               Resistivity Mud Cake
 MCTP.                         Temperature Mud Cake
 FTYP.             0           Fluid Type
 FD  .K/M3                     Fluid Density
 DFV .S                        Fluid Viscosity
 FPH .                         Fuild PH
 ELCO.        2500             Electron Cutoff
# -------------------------- 
~A DEPTH  GAM(NAT) COND     RES      TEMP  AP-COND  TEMP  AP-COND  TENSION  TIME    
# ...
 492.400     50.9    453.1      2.2  5428.8   397.8  28513.3 98773.3      0.1  0.30000 
 492.500     67.8    450.4      2.2  5428.8   395.5  28513.3 98510.0      0.3  0.30000 
 492.600     76.3    450.2      2.2  5428.8   395.4  28513.3 98493.3      0.3  0.30000 
 492.700     71.2    448.1      2.2  5428.1   393.5  28510.0 98283.3      1.5  0.30000 
 492.800     98.4    445.6      2.2  5429.5   391.4  28516.7 98043.3      1.5  0.30000 
 492.900     71.2    443.0      2.3  5428.8   389.1  28513.3 97786.7      2.4  0.20000 
 493.000     84.8    439.2      2.3  5429.5   385.9  28516.7 97420.0      5.5  0.30000 
 493.100     78.0    433.7      2.3  5429.1   381.2  28515.0 96885.0      5.1  0.30000 
 493.200     78.0    431.3      2.3  5428.8   379.1  28513.3 96650.0      3.9  0.30000 
 493.300     50.9    427.2      2.3  5429.5   375.6  28516.7 96256.7      6.4  0.30000 
 493.400    105.2    420.5      2.4  5428.8   369.9  28513.3 95603.3      2.7  0.30000 
 493.500     78.0    415.7      2.4  5428.8   365.7  28513.3 95133.3      6.8  0.30000 
 493.600     81.4    407.8      2.5  5429.5   358.9  28516.7 94360.0      9.6  0.30000 
 493.700     78.0    401.3      2.5  5428.8   353.3  28513.3 93733.3      7.1  0.20000 
 493.800     91.6    394.9      2.5  5428.8   347.8  28513.3 93103.3      7.6  0.30000 
 493.900     98.4    388.1      2.6  5429.1   342.0  28515.0 92445.0      9.9  0.30000 
 494.000     84.8    383.1      2.6  5429.5   337.7  28516.7 91960.0      7.6  0.30000 
 494.100     91.6    376.0      2.7  5429.5   331.5  28516.7 91263.3      4.6  0.30000 
 494.200     78.0    368.8      2.7  5428.8   325.4  28513.3 90563.3      5.0  0.30000 
 494.300    108.5    362.2      2.8  5429.5   319.7  28516.7 89916.7      2.7  0.30000 
 494.400    111.9    354.7      2.8  5429.5   313.2  28516.7 89183.3      1.4  0.30000 
 494.500     84.8    349.0      2.9  5429.5   308.3  28516.7 88626.7      3.3  0.20000 
 494.600     88.2    342.3      2.9  5429.5   302.5  28516.7 87970.0      2.4  0.30000 
 494.700    105.2    337.4      3.0  5429.1   298.2  28515.0 87490.0      3.9  0.30000 
 494.800    115.3    332.3      3.0  5428.1   293.9  28510.0 86993.3      4.8  0.30000 
 494.900     78.0    326.8      3.1  5429.5   289.1  28516.7 86450.0      4.0  0.30000 
 495.000     84.8    320.9      3.1  5429.5   284.0  28516.7 85880.0      4.9  0.30000 
 495.100     81.4    316.5      3.2  5430.2   280.2  28520.0 85446.7      6.9  0.30000 
 495.200    118.7    312.8      3.2  5429.5   277.0  28516.7 85083.3      6.9  0.30000 
 495.300    139.1    309.3      3.2  5429.5   274.0  28516.7 84740.0      9.3  0.30000 
 495.400    125.5    304.8      3.3  5430.2   270.1  28520.0 84300.0     10.4  0.20000 
 495.500     71.2    302.1      3.3  5428.8   267.8  28513.3 84036.7      7.2  0.30000 
 495.600     98.4    300.0      3.3  5430.2   265.9  28520.0 83825.0      5.3  0.30000 
 495.700     98.4    296.6      3.4  5429.5   262.9  28516.7 83490.0      6.0  0.30000 
 495.800     98.4    296.8      3.4  5429.5   263.2  28516.7 83516.7      4.8  0.30000 
 495.900     91.6    294.8      3.4  5430.2   261.4  28520.0 83320.0      4.5  0.30000 
 496.000     95.0    294.4      3.4  5429.5   261.0  28516.7 83273.3      7.3  0.30000 
 496.100     71.2    293.8      3.4  5430.2   260.5  28520.0 83216.7      7.8  0.20000 
 496.200    101.8    293.6      3.4  5430.2   260.4  28520.0 83200.0      8.4  0.30000 
 496.300    115.3    293.7      3.4  5429.1   260.5  28515.0 83210.0      6.5  0.30000 
 496.400     95.0    295.4      3.4  5430.2   261.9  28520.0 83376.7      6.0  0.30000 
 496.500    105.2    297.4      3.4  5430.2   263.7  28520.0 83573.3      3.9  0.30000 
 496.600     91.6    299.6      3.3  5428.8   265.5  28513.3 83783.3      2.0  0.30000 
 496.700     81.4    303.5      3.3  5430.2   268.9  28520.0 84170.0      2.3  0.30000 
 496.800     81.4    308.3      3.2  5430.2   273.1  28520.0 84643.3      6.5  0.20000 
 496.900     91.6    312.3      3.2  5430.2   276.6  28520.0 85033.3      7.1  0.30000 
 497.000    122.1    318.2      3.1  5430.2   281.6  28520.0 85610.0      7.8  0.30000 
 497.100    101.8    322.2      3.1  5430.2   285.1  28520.0 86000.0     11.2  0.30000 
 497.200    122.1    328.7      3.0  5430.2   290.7  28520.0 86636.7      6.0  0.30000 
 497.300     84.8    336.4      3.0  5430.2   297.4  28520.0 87390.0      9.4  0.30000 
 497.400     84.8    345.7      2.9  5430.2   305.4  28520.0 88300.0     11.5  0.30000 
 497.500     95.0    353.9      2.8  5430.9   312.5  28523.3 89103.3      7.8  0.33000 
 497.600    101.8    363.9      2.7  5430.2   321.2  28520.0 90086.7      2.3  0.33000 
 497.700    105.2    376.7      2.7  5430.2   332.1  28520.0 91330.0      2.9  0.33000 
 497.800    105.2    390.1      2.6  5430.2   343.7  28520.0 92643.3      3.0  0.11000 
 497.900     95.0    402.1      2.5  5430.9   354.0  28523.3 93806.7      3.4  0.30000 
 498.000    115.3    414.6      2.4  5430.2   364.8  28520.0 95030.0      4.5  0.30000 
 498.100     64.4    428.2      2.3  5430.9   376.4  28523.3 96350.0      5.0  0.30000 
 498.200     88.2    443.0      2.3  5430.2   389.2  28520.0 97793.3      4.1  0.30000 
 498.300     98.4    457.8      2.2  5430.9   401.9  28523.3 99233.3      6.1  0.30000 
 498.400     81.4    473.8      2.1  5430.2   415.6  28520.0 100786.7     5.6  0.30000 
 498.500    114.5    488.6      2.0  5430.9   428.2  28523.3 102216.7     6.3  0.30000 
 498.600    106.8    505.1      2.0  5430.2   442.4  28520.0 103820.0     6.2  0.20000 
 498.700     64.4    519.9      1.9  5430.9   455.0  28523.3 105250.0     6.2  0.30000 
 498.800     78.0    533.2      1.9  5430.2   466.4  28520.0 106545.0     7.7  0.30000 
 498.900     64.4    544.4      1.8  5430.2   476.0  28520.0 107626.7    10.9  0.30000 
 499.000    105.2    559.4      1.8  5430.9   488.7  28523.3 109073.3     9.4  0.30000 
 499.100     78.0    573.4      1.7  5430.9   500.7  28523.3 110430.0    12.1  0.30000 
 499.200     84.8    586.4      1.7  5430.2   511.8  28520.0 111683.3    13.7  0.30000 
 499.300     71.2    598.9      1.7  5430.9   522.5  28523.3 112893.3     9.5  0.20000 
 499.400     88.2    611.5      1.6  5430.9   533.2  28523.3 114106.7     6.2  0.30000 
 499.500     61.1    620.4      1.6  5431.2   540.7  28525.0 114965.0     7.9  0.30000 
 499.600     54.3    630.9      1.6  5430.9   549.7  28523.3 115980.0     7.3  0.30000 
 499.700     61.1    641.6      1.6  5431.6   558.8  28526.7 117013.3     7.4  0.30000 
 499.800     74.6    650.5      1.5  5430.9   566.4  28523.3 117873.3     6.2  0.30000 
 499.900     61.1    663.4      1.5  5430.9   577.4  28523.3 119113.3     8.2  0.30000 
 500.000    106.8    671.1      1.5  5431.6   583.9  28526.7 119856.7     4.0  0.30000 
 500.100     71.2    678.8      1.5  5430.9   590.4  28523.3 120596.7     6.5  0.30000 
 500.200     57.7    685.7      1.5  5431.6   596.4  28526.7 121266.7     7.1  0.30000 
 500.300     47.5    693.2      1.4  5430.9   602.7  28523.3 121980.0     5.2  0.20000 
 500.400     61.1    701.1      1.4  5430.9   609.4  28523.3 122746.7     2.5  0.30000 
 500.500     84.8    706.3      1.4  5431.2   613.8  28525.0 123240.0     3.4  0.30000 
 500.600     78.0    711.7      1.4  5431.6   618.4  28526.7 123763.3     3.1  0.30000 
 500.700     71.2    718.7      1.4  5431.6   624.3  28526.7 124436.7     1.7  0.30000 
 500.800     64.4    723.0      1.4  5430.9   628.0  28523.3 124850.0     2.8  0.30000 
 500.900     78.0    729.3      1.4  5431.6   633.3  28526.7 125456.7     1.3  0.30000 
 501.000     61.1    731.8      1.4  5431.6   635.4  28526.7 125693.3     3.2  0.30000 
 501.100     96.7    740.0      1.4  5431.6   642.4  28526.7 126483.3     3.3  0.20000 
 501.200     81.4    743.6      1.3  5430.9   645.5  28523.3 126833.3     2.5  0.30000 
 501.300     74.6    748.1      1.3  5432.3   649.3  28530.0 127265.0     1.4  0.30000 
 501.400     81.4    752.3      1.3  5430.9   652.8  28523.3 127663.3     1.4  0.30000 
