~Version Information
 VERS.                2.0:  CWLS LOG ASCII STANDARD -VERSION 2.0
 WRAP.                 NO:  ONE LINE PER DEPTH STEP
~WELL INFORMATION BLOCK
#MNEM.UNIT       DATA		            DESCRIPTION OF MNEMONIC
#---------    -------------            ------------------------
 STRT.FT  0.800                          :START DEPTH
 STOP.FT  1867.700                       :STOP DEPTH
 STEP.FT  0.100                          :STEP    UP_HOLE  
 NULL.    0                              :NULL VALUE
 COMP.                             USGS  :COMPANY
 WELL.                             DMW1  :WELL
 FLD .      MARINA COAST WATER DISTRICT  :FIELD
 LOC .    None  None  None               :LOCATION
 CNTY.                        MONTERY ?  :COUNTY
 STAT.                     CA            :STATE
 SRVC.    PORTLAND OR                    :SERVICE COMPANY
 DATE.   11/17/00                        :LOG DATE
 UWI .                       	         :UNIQUE WELL ID
 LIC .                                   :LICENSE NUMBER
~Curve Information Block
#MNEM.UNIT      API CODE     Curve Description
#---------    -------------  ------------------------
 DEPT     .FT        00 001 00 00          :  1  DEPTH   
 GAM(NAT) .API-GR    00 310 00 00          :  2             GAM(NAT)
 COND     .MMHO/M    00 000 00 00          :  3                 COND
 RES      .OHM-M     00 000 00 00          :  4                  RES
 TEMP     .DEG F     00 660 00 00          :  5                 TEMP
 AP-COND  .MMHO/M    00 000 00 00          :  6              AP-COND
 TEMP     .CPS       00 660 00 00          :  7                 TEMP
 AP-COND  .CPS       00 000 00 00          :  8              AP-COND
 TENSION  .POUNDS    00 000 00 00          :  9              TENSION
 TIME     .MINUTES   00 000 00 00          : 10                 TIME
~Parameter Information Block
#MNEM.UNIT   Information     Description
#---------- ---------------  ------------------------
~Other Information
#MNEM.UNIT  Information      Description
#---------- ---------------  ------------------------
 FILE.      ORIGINAL           File Type
 FIID.      9511A              File Type Identifier
 VERS.      1.0                System Version
 SER .      1                  System Serial Number
 TRUK.      0.50000            Truck Calibration Number
 TOOL.         989             Tool Serial Number
 TIME.      20:51:             Time
 LAT .          None           Latitude
 LON .          None           Longitude
 LMF .       TOC-PVC           Log Measured From
 DMF .          None           Driller Measured From
 PD  .           TOC           Permanent Data
 PDEV.          None           Elevation Permanent Data
 EKB .M         None           Elevation Kelly Bushing
 ELEV.DF        None           Elevation DF
 EGL .M         None           Elevation Ground Level
 DRDP.          None           Driller's Depth
 CASD.         3               Casing Diameter
 CASB.          1870           Casing Bottom
 CASX.           PVC           Casing Type
 CAST.         0               Casing Thickness
 TNOC.          None           Time Circulation Stopped
 LOGU.       CENT              Logging Unit
 RECB.          KKNUTSON       Recorded By
 OSR1.          None           Other Services
 OSR2.          None           Other Services
 OSR3.          None           Other Services
 BS  .MM           6           Bit Size
 MST .                         Mean Surface Temperature
 TGRD.        0                Temperature Gradiant
 MAGN.             0           Magnetic Declination
 MDEN.      2.71               Density Matrix
 MATR.       Dolomite          Neutron Matrix
 DTMT.            54           Delta T Matrix
 DTFL.                         Delta T Fluid
 MUDS.               0         Mud Sample Source
 MRS .           0             Mud Resistivity
 MTP .           0             Mud Temperature
 MFRS.                         Resistivity Mud Filtrate
 MFTP.                         Temperature Mud Filtrate
 MCRS.         0               Resistivity Mud Cake
 MCTP.                         Temperature Mud Cake
 FTYP.             0           Fluid Type
 FD  .K/M3                     Fluid Density
 DFV .S                        Fluid Viscosity
 FPH .                         Fuild PH
 ELCO.        2500             Electron Cutoff
# -------------------------- 
~A DEPTH  GAM(NAT) COND     RES      TEMP  AP-COND  TEMP  AP-COND  TENSION  TIME    
# ...
1238.600     67.8     74.8     13.4  5592.0    68.5  29295.0 61460.0      0.8  0.30000 
1238.700     40.7     73.5     13.6  5591.7    67.3  29293.3 61323.3      0.8  0.30000 
1238.800     61.1     75.2     13.3  5591.7    68.8  29293.3 61496.7      0.8  0.30000 
1238.900     47.5     74.4     13.4  5591.7    68.1  29293.3 61413.3      1.1  0.30000 
1239.000     45.8     73.3     13.6  5591.0    67.1  29290.0 61306.7      1.5  0.30000 
1239.100     57.7     71.7     14.0  5591.7    65.7  29293.3 61140.0      1.5  0.30000 
1239.200     61.1     71.5     14.0  5591.7    65.5  29293.3 61116.7      0.7  0.20000 
1239.300     64.4     71.4     14.0  5591.7    65.4  29293.3 61106.7      1.1  0.30000 
1239.400     40.7     72.5     13.8  5591.0    66.4  29290.0 61225.0      0.7  0.30000 
1239.500     40.7     71.8     13.9  5592.3    65.8  29296.7 61150.0      0.9  0.30000 
1239.600     33.9     71.7     14.0  5591.7    65.7  29293.3 61140.0      0.3  0.30000 
1239.700     50.9     69.3     14.4  5591.0    63.6  29290.0 60903.3      0.7  0.30000 
1239.800     54.3     70.3     14.2  5591.7    64.4  29293.3 61000.0      0.4  0.30000 
1239.900     67.8     69.7     14.4  5591.7    63.9  29293.3 60936.7      1.3  0.30000 
1240.000     50.9     69.5     14.4  5591.7    63.8  29293.3 60923.3      0.9  0.20000 
1240.100     47.5     66.5     15.0  5592.3    61.0  29296.7 60613.3      0.9  0.30000 
1240.200     74.6     67.3     14.9  5591.0    61.7  29290.0 60695.0     -0.0  0.30000 
1240.300     64.4     68.8     14.5  5592.3    63.1  29296.7 60846.7     -0.0  0.30000 
1240.400     61.1     67.6     14.8  5591.7    62.0  29293.3 60726.7     -0.0  0.30000 
1240.500     54.3     67.1     14.9  5592.3    61.6  29296.7 60676.7      0.4  0.30000 
1240.600     61.1     65.6     15.2  5591.0    60.2  29290.0 60523.3      0.4  0.30000 
1240.700     50.9     66.8     15.0  5591.7    61.3  29293.3 60646.7      0.5  0.30000 
1240.800     57.7     66.2     15.1  5592.3    60.8  29296.7 60583.3      0.3  0.20000 
1240.900     61.1     66.3     15.1  5591.7    60.8  29293.3 60593.3      0.1  0.30000 
1241.000     37.3     66.1     15.1  5592.0    60.7  29295.0 60575.0      0.1  0.30000 
1241.100     50.9     67.6     14.8  5592.3    62.0  29296.7 60726.7     -0.0  0.30000 
1241.200     47.5     66.1     15.1  5592.3    60.6  29296.7 60570.0     -0.0  0.30000 
1241.300     66.1     66.2     15.1  5591.7    60.8  29293.3 60583.3     -0.0  0.30000 
1241.400     54.3     66.1     15.1  5592.3    60.6  29296.7 60570.0     -0.0  0.30000 
1241.500     50.9     65.6     15.2  5591.7    60.3  29293.3 60526.7     -0.0  0.30000 
1241.600     44.1     66.7     15.0  5592.3    61.2  29296.7 60633.3     -0.0  0.20000 
1241.700     44.1     66.0     15.1  5592.3    60.6  29296.7 60566.7     -0.0  0.30000 
1241.800     61.1     66.5     15.0  5592.0    61.0  29295.0 60610.0     -0.0  0.30000 
1241.900     40.7     65.7     15.2  5592.3    60.3  29296.7 60533.3     -0.0  0.30000 
1242.000     45.8     66.5     15.0  5592.3    61.0  29296.7 60616.7     -0.0  0.30000 
1242.100     47.5     64.7     15.5  5591.7    59.4  29293.3 60430.0     -0.0  0.30000 
1242.200     57.7     65.1     15.3  5591.7    59.8  29293.3 60476.7     -0.0  0.30000 
1242.300     37.3     63.8     15.7  5592.3    58.6  29296.7 60343.3     -0.0  0.20000 
1242.400     50.9     62.8     15.9  5592.3    57.7  29296.7 60233.3     -0.0  0.30000 
1242.500     78.0     63.0     15.9  5592.0    57.9  29295.0 60260.0     -0.0  0.30000 
1242.600     61.1     60.2     16.6  5592.3    55.4  29296.7 59973.3      0.3  0.31000 
1242.700     61.1     62.3     16.1  5592.3    57.2  29296.7 60183.3      0.3  0.33000 
1242.800     35.6     60.4     16.6  5591.7    55.5  29293.3 59993.3      0.4  0.33000 
1242.900     44.1     62.4     16.0  5592.3    57.3  29296.7 60196.7      0.1  0.22000 
1243.000     40.7     60.0     16.7  5592.3    55.2  29296.7 59950.0      0.1  0.31000 
1243.100     67.8     60.5     16.5  5592.0    55.6  29295.0 60000.0     -0.0  0.30000 
1243.200     71.2     60.0     16.7  5592.5    55.2  29297.5 59955.0      0.3  0.20000 
1243.300     61.1     59.3     16.8  5592.3    54.6  29296.7 59886.7      0.3  0.30000 
1243.400     57.7     60.2     16.6  5592.0    55.3  29295.0 59970.0      0.3  0.30000 
1243.500     61.1     58.7     17.0  5592.3    54.0  29296.7 59823.3      0.3  0.30000 
1243.600     47.5     59.8     16.7  5592.3    55.0  29296.7 59933.3     -0.0  0.30000 
1243.700     61.1     59.6     16.8  5592.3    54.9  29296.7 59916.7     -0.0  0.30000 
1243.800     47.5     59.4     16.8  5593.0    54.7  29300.0 59893.3      0.7  0.30000 
1243.900     33.9     59.7     16.7  5592.3    55.0  29296.7 59926.7      0.8  0.20000 
1244.000     40.7     60.9     16.4  5592.3    56.0  29296.7 60040.0      2.6  0.30000 
1244.100     64.4     61.8     16.2  5593.0    56.8  29300.0 60140.0      2.7  0.30000 
1244.200     30.5     61.4     16.3  5592.3    56.5  29296.7 60096.7      2.3  0.30000 
1244.300     66.1     62.1     16.1  5593.0    57.0  29300.0 60163.3      2.5  0.30000 
1244.400     61.1     61.5     16.3  5592.3    56.5  29296.7 60103.3      1.3  0.30000 
1244.500     64.4     61.4     16.3  5593.0    56.4  29300.0 60093.3      2.5  0.30000 
1244.600     64.4     64.6     15.5  5592.3    59.3  29296.7 60420.0      2.1  0.20000 
1244.700     50.9     62.8     15.9  5593.0    57.7  29300.0 60236.7      2.1  0.30000 
1244.800     37.3     63.2     15.8  5593.0    58.1  29300.0 60280.0      0.8  0.30000 
1244.900     57.7     63.6     15.7  5591.7    58.4  29293.3 60320.0      1.6  0.30000 
1245.000     54.3     63.1     15.8  5593.0    58.0  29300.0 60273.3      1.6  0.30000 
1245.100     61.1     63.7     15.7  5593.0    58.5  29300.0 60333.3      2.9  0.30000 
1245.200     78.0     65.0     15.4  5591.7    59.7  29293.3 60460.0      1.3  0.30000 
1245.300     47.5     65.2     15.3  5593.0    59.9  29300.0 60486.7      2.9  0.30000 
1245.400     57.7     65.7     15.2  5593.0    60.3  29300.0 60536.7      1.6  0.30000 
1245.500     50.9     66.1     15.1  5593.0    60.7  29300.0 60576.7      2.9  0.20000 
1245.600     74.6     65.8     15.2  5592.3    60.4  29296.7 60546.7      1.3  0.30000 
1245.700     50.9     66.0     15.2  5592.0    60.5  29295.0 60560.0      1.8  0.30000 
1245.800     50.9     65.4     15.3  5593.0    60.0  29300.0 60503.3      0.7  0.32000 
1245.900     71.2     65.7     15.2  5593.0    60.3  29300.0 60530.0      1.2  0.33000 
1246.000     61.1     66.1     15.1  5593.0    60.7  29300.0 60576.7      0.7  0.33000 
1246.100     78.0     66.4     15.1  5593.0    60.9  29300.0 60603.3      1.4  0.22000 
1246.200     67.8     65.6     15.2  5593.0    60.2  29300.0 60523.3      0.7  0.20000 
1246.300     91.6     65.3     15.3  5593.0    60.0  29300.0 60496.7      2.3  0.30000 
1246.400     67.8     64.4     15.5  5593.0    59.1  29300.0 60400.0      2.3  0.30000 
1246.500     50.9     65.9     15.2  5593.0    60.5  29300.0 60550.0      2.5  0.30000 
1246.600     50.9     65.8     15.2  5593.0    60.4  29300.0 60543.3      2.6  0.30000 
1246.700     57.7     65.3     15.3  5593.0    60.0  29300.0 60496.7      2.7  0.30000 
1246.800     54.3     65.3     15.3  5593.0    60.0  29300.0 60496.7      3.1  0.30000 
1246.900     44.1     65.1     15.4  5592.3    59.8  29296.7 60473.3      3.3  0.30000 
1247.000     78.0     67.1     14.9  5593.0    61.6  29300.0 60676.7      4.1  0.20000 
1247.100     67.8     66.4     15.1  5593.0    60.9  29300.0 60603.3      3.0  0.30000 
1247.200     50.9     66.7     15.0  5593.0    61.2  29300.0 60635.0      3.2  0.30000 
1247.300     40.7     66.9     15.0  5593.0    61.4  29300.0 60653.3      1.2  0.30000 
1247.400     86.5     68.5     14.6  5593.0    62.8  29300.0 60813.3      2.0  0.30000 
1247.500     71.2     68.2     14.7  5593.0    62.5  29300.0 60786.7      0.8  0.30000 
1247.600     47.5     70.4     14.2  5593.7    64.5  29303.3 61010.0      2.9  0.30000 
