~Version Information
 VERS.                2.0:  CWLS LOG ASCII STANDARD -VERSION 2.0
 WRAP.                 NO:  ONE LINE PER DEPTH STEP
~WELL INFORMATION BLOCK
#MNEM.UNIT       DATA		            DESCRIPTION OF MNEMONIC
#---------    -------------            ------------------------
 STRT.FT  5.900                          :START DEPTH
 STOP.FT  1425.400                       :STOP DEPTH
 STEP.FT  0.100                          :STEP    UP_HOLE  
 NULL.    0                              :NULL VALUE
 COMP.                             USGS  :COMPANY
 WELL.                             DMW1  :WELL
 FLD .      MARINA COAST WATER DISTRICT  :FIELD
 LOC .    None  None  None               :LOCATION
 CNTY.                        MONTERY ?  :COUNTY
 STAT.                     CA            :STATE
 SRVC.    PORTLAND, O                    :SERVICE COMPANY
 DATE.   11/17/00                        :LOG DATE
 UWI .                       	         :UNIQUE WELL ID
 LIC .                                   :LICENSE NUMBER
~Curve Information Block
#MNEM.UNIT      API CODE     Curve Description
#---------    -------------  ------------------------
 DEPT     .FT        00 001 00 00          :  1  DEPTH   
 TOT GAM  .CPS       00 000 00 00          :  2              TOT GAM
 THORIUM  .PPM       00 790 00 00          :  3              THORIUM
 URANIUM  .PPM       00 792 00 00          :  4              URANIUM
 POTASIUM .PERCENT   00 719 00 00          :  5             POTASIUM
 PILOT W  .CPS       00 000 00 00          :  6              PILOT W
 DAC      .MV        00 000 00 00          :  7                  DAC
 GAM(KUT) .CPS       00 310 00 00          :  8             GAM(KUT)
 THORIUM  .CPS       00 790 00 00          :  9              THORIUM
 URANIUM  .CPS       00 792 00 00          : 10              URANIUM
 POTASIUM .CPS       00 719 00 00          : 11             POTASIUM
 TENSION  .POUNDS    00 000 00 00          : 12              TENSION
 TIME     .MINUTES   00 000 00 00          : 13                 TIME
~Parameter Information Block
#MNEM.UNIT   Information     Description
#---------- ---------------  ------------------------
~Other Information
#MNEM.UNIT  Information      Description
#---------- ---------------  ------------------------
 FILE.      ORIGINAL           File Type
 FIID.      9080C              File Type Identifier
 VERS.      1.0                System Version
 SER .      1                  System Serial Number
 TRUK.      0.50000            Truck Calibration Number
 TOOL.         263             Tool Serial Number
 TIME.      11:55:             Time
 LAT .          None           Latitude
 LON .          None           Longitude
 LMF .       TOC-PVC           Log Measured From
 DMF .          None           Driller Measured From
 PD  .           TOC           Permanent Data
 PDEV.          None           Elevation Permanent Data
 EKB .M         None           Elevation Kelly Bushing
 ELEV.DF        None           Elevation DF
 EGL .M         None           Elevation Ground Level
 DRDP.          None           Driller's Depth
 CASD.         3               Casing Diameter
 CASB.          1870           Casing Bottom
 CASX.           PVC           Casing Type
 CAST.         0               Casing Thickness
 TNOC.          None           Time Circulation Stopped
 LOGU.       CENT              Logging Unit
 RECB.          KKNUTSON       Recorded By
 OSR1.          None           Other Services
 OSR2.          None           Other Services
 OSR3.          None           Other Services
 BS  .MM           6           Bit Size
 MST .                         Mean Surface Temperature
 TGRD.        0                Temperature Gradiant
 MAGN.             0           Magnetic Declination
 MDEN.      2.71               Density Matrix
 MATR.       Dolomite          Neutron Matrix
 DTMT.            54           Delta T Matrix
 DTFL.                         Delta T Fluid
 MUDS.               0         Mud Sample Source
 MRS .           0             Mud Resistivity
 MTP .           0             Mud Temperature
 MFRS.                         Resistivity Mud Filtrate
 MFTP.                         Temperature Mud Filtrate
 MCRS.         0               Resistivity Mud Cake
 MCTP.                         Temperature Mud Cake
 FTYP.             0           Fluid Type
 FD  .K/M3                     Fluid Density
 DFV .S                        Fluid Viscosity
 FPH .                         Fuild PH
 ELCO.        2500             Electron Cutoff
# -------------------------- 
~A DEPTH  TOT GAM  THORIUM  URANIUM  POTASIUM PILOT W DAC     GAM(KUT) THORIUM  URANIUM  POTASIUM TENSION  TIME    
# ...
 758.000  26329.0     8.11    -0.40   4.31      3006    1815      14      0.95    19.05  52.38        6.6  2.10000 
 758.100  26054.0    23.46    -5.88   1.60      3049    1808      11      2.00    21.00  46.00       10.7  2.01000 
 758.200  26293.3    11.99     7.24  -0.54      2990    1805      14      1.43    23.81  46.67        6.0  1.99000 
 758.300  26078.5    -2.40    14.16  -0.85      2953    1811      12      0.50    22.50  47.50        4.2  2.00000 
 758.400  26189.0    19.64     7.70   1.05      3087    1807      22      2.00    27.00  51.50        8.1  1.90000 
 758.500  26172.5     7.20     3.15  -2.99      2986    1809       1      1.00    19.50  38.50        6.2  1.80000 
 758.600  26043.2     8.62     2.29   3.23      3038    1805      15      1.05    20.53  51.58        1.0  1.90000 
 758.700  26300.0    24.40     1.64   2.30      3002    1804      21      2.22    25.56  51.67        5.6  1.80000 
 758.800  26218.4    13.20     9.16  -3.98      2977    1812       9      1.58    24.74  40.53        3.0  1.90000 
 758.900  26017.2     5.04    16.42  -2.34      2983    1809      16      1.11    26.11  46.67        1.4  1.80000 
 759.000  26147.4     8.40     1.84  -1.31      2918    1807       4      1.05    19.47  41.58        0.6  2.00000 
 759.100  25691.1    -3.75    21.65  -0.94      3092    1798      20      0.56    26.11  51.11        4.5  1.80000 
 759.200  26242.0    18.22   -10.48   3.83      2954    1810       8      1.50    17.00  47.50        9.3  1.90000 
 759.300  26109.4     9.08     2.77   0.78      3054    1804      10      1.11    20.56  46.67       10.2  1.80000 
 759.400  26235.3    33.53   -11.93   0.57      3052    1811       8      2.63    21.05  42.11        3.8  1.90000 
 759.500  26223.9    10.22    -2.16  -2.22      3073    1807      -2      1.11    17.78  37.78        5.7  1.90000 
 759.600  26172.6    12.89    11.24  -0.54      3023    1808      19      1.58    26.32  48.95        7.3  1.90000 
 759.700  26017.9    24.04    -2.60   2.61      2964    1807      17      2.11    23.16  50.00        3.2  2.10000 
 759.800  26122.1    14.56     4.83  -2.01      3046    1811       9      1.58    23.16  42.63       16.3  2.15000 
 759.900  26172.9    13.41     2.91   2.22      2962    1805      16      1.43    22.38  50.48        6.0  1.95000 
 760.000  26140.5    15.35    -3.81   3.09      2993    1808      12      1.43    19.52  49.05        8.5  2.10000 
 760.100  26163.0    10.70    14.17  -4.59      3074    1806      11      1.50    26.50  41.50       11.1  2.10000 
 760.200  26151.0    26.64     0.02  -2.01      2957    1805      11      2.38    24.76  41.90       12.7  2.10000 
 760.300  25980.0    11.70     7.85  -2.01      2890    1812      11      1.43    23.81  43.81       12.9  2.00000 
 760.400  26146.2    15.11    -3.30   1.87      2997    1802       9      1.43    19.52  46.67       13.3  2.00000 
 760.500  26013.5    -4.94    23.62   0.47      2949    1812      24      0.50    27.00  55.00       13.9  2.00000 
 760.600  26214.0    21.92    -1.22  -1.55      3005    1812       8      2.00    22.50  41.50       11.9  2.00000 
 760.700  26156.5    40.01   -16.40   4.45      3061    1800      15      3.00    21.50  49.00        8.9  1.92000 
 760.800  26076.0   -10.20    18.16  -0.59      2955    1815      13      0.00    22.00  49.00        5.5  1.88000 
 760.900  26110.0    16.18    -0.07   1.31      2975    1805      12      1.58    21.58  47.37        7.8  1.90000 
 761.000  26389.5     0.57     4.77  -0.74      3087    1800       4      0.53    18.42  43.16       11.3  1.90000 
 761.100  26183.2    18.52    -7.44   4.95      3055    1800      14      1.58    18.95  51.58       -0.0  1.90000 
 761.200  26260.0    -1.52    12.08  -1.44      3056    1802       9      0.53    21.58  45.26        2.4  1.80000 
 761.300  26040.5    -1.38    12.25   0.97      2954    1805      15      0.53    22.11  50.53        2.0  1.90000 
 761.400  26360.6    10.19    -1.09   1.15      2992    1813       7      1.11    18.89  45.56        7.0  1.80000 
 761.500  26376.3    33.11    -9.63   3.47      3053    1811      17      2.63    22.63  49.47        5.0  1.90000 
 761.600  26376.7     8.88     4.19   3.30      3026    1811      17      1.11    21.67  52.78       -0.0  1.80000 
 761.700  26205.3     1.20     3.41   2.50      2987    1810      10      0.53    18.42  49.47        0.2  1.80000 
 761.800  26386.1   -11.64    22.95  -2.00      3076    1801      14      0.00    23.89  48.33        0.2  1.90000 
 761.900  26136.7    27.82   -10.18   3.97      2921    1817      14      2.22    20.56  49.44       -0.0  1.90000 
 762.000  26136.8    12.12    13.83  -1.13      2979    1805      20      1.58    27.37  48.95        0.4  2.00000 
 762.100  26323.2    25.43    -7.94   1.39      3095    1806       9      2.11    20.53  44.74       -0.0  2.11000 
 762.200  25986.0     5.41     9.67  -2.62      2820    1820       8      1.00    22.50  42.50       -0.0  2.09000 
 762.300  26269.0    10.20    -7.43   5.92      3098    1803      11      0.95    16.19  52.38        1.1  2.10000 
 762.400  26244.3    -6.13     5.09   4.85      3066    1802      13      0.00    17.14  54.29       -0.0  2.10000 
 762.500  26275.2     1.84    -0.76   4.41      3074    1801      10      0.48    16.67  51.43       -0.0  2.10000 
 762.600  26293.3     9.41    -4.88   4.90      3019    1805      11      0.95    17.14  51.43        4.4  2.00000 
 762.700  26238.6    -1.69    10.24  -1.64      3097    1808       7      0.48    20.48  43.81        6.1  2.00000 
 762.800  26302.0    17.46    -7.06   6.30      3003    1805      17      1.50    19.00  54.50        7.3  2.00000 
 762.900  26221.0    15.73    -2.46   0.60      3017    1808       8      1.50    20.00  44.50        8.9  2.00000 
 763.000  26292.5     0.25     4.01  -3.17      3066    1803      -3      0.50    17.50  37.50        6.8  2.00000 
 763.100  25974.5     6.62     6.62   2.02      2994    1806      16      1.00    22.00  51.00        2.7  1.90000 
 763.200  26128.0     5.13    11.17  -0.88      3033    1803      13      1.00    23.50  47.00        0.9  1.90000 
 763.300  26296.3    -8.45    34.98  -8.63      2924    1814      14      0.53    30.53  41.05       -0.0  1.80000 
 763.400  26066.3    26.37   -11.37   1.19      2974    1807       5      2.11    18.95  42.63        2.9  1.80000 
 763.500  26151.7    26.88    -8.15  -0.87      3084    1808       5      2.22    20.56  40.00        6.0  1.90000 
 763.600  26123.9    -6.67     6.32   2.32      3137    1801       8      0.00    17.22  49.44        2.8  1.80000 
 763.700  25910.0    23.71    -1.42   2.58      2954    1812      18      2.11    23.68  50.53        3.5  1.90000 
 763.800  26256.1    -2.46    16.90  -1.40      3016    1806      14      0.56    23.89  47.78       10.9  1.90000 
 763.900  26146.8    35.76   -17.67   8.73      3019    1806      21      2.63    20.00  56.84        7.7  1.90000 
 764.000  26205.8    11.46    -8.51   1.06      3029    1807      -0      1.05    15.26  41.58        4.4  1.80000 
 764.100  26060.5    14.14     7.13   0.89      3023    1805      18      1.58    24.74  50.00        1.6  1.90000 
 764.200  25937.2    -9.93    16.30  -3.83      3026    1811       3      0.00    20.56  41.11        4.5  1.90000 
 764.300  25783.2    12.03    13.55  -3.27      3053    1803      14      1.58    26.84  44.21        6.7  2.00000 
 764.400  26007.4    14.37     4.77  -4.68      2979    1808       3      1.58    22.63  36.84        4.5  2.00000 
 764.500  26182.5    15.44    -0.48   3.86      3022    1811      17      1.50    21.50  52.50        7.6  2.10000 
 764.600  26164.5    12.80     6.52  -4.93      2959    1808       3      1.50    23.00  37.00       17.8  2.10000 
 764.700  25995.7    36.81   -12.25   2.77      3033    1810      14      2.86    22.38  47.14       10.9  2.10000 
 764.800  26023.3    35.72    -8.64   1.72      3033    1807      15      2.86    23.81  46.67       17.9  2.00000 
