~Version Information
 VERS.                2.0:  CWLS LOG ASCII STANDARD -VERSION 2.0
 WRAP.                 NO:  ONE LINE PER DEPTH STEP
~WELL INFORMATION BLOCK
#MNEM.UNIT       DATA		            DESCRIPTION OF MNEMONIC
#---------    -------------            ------------------------
 STRT.FT  5.900                          :START DEPTH
 STOP.FT  1425.400                       :STOP DEPTH
 STEP.FT  0.100                          :STEP    UP_HOLE  
 NULL.    0                              :NULL VALUE
 COMP.                             USGS  :COMPANY
 WELL.                             DMW1  :WELL
 FLD .      MARINA COAST WATER DISTRICT  :FIELD
 LOC .    None  None  None               :LOCATION
 CNTY.                        MONTERY ?  :COUNTY
 STAT.                     CA            :STATE
 SRVC.    PORTLAND, O                    :SERVICE COMPANY
 DATE.   11/17/00                        :LOG DATE
 UWI .                       	         :UNIQUE WELL ID
 LIC .                                   :LICENSE NUMBER
~Curve Information Block
#MNEM.UNIT      API CODE     Curve Description
#---------    -------------  ------------------------
 DEPT     .FT        00 001 00 00          :  1  DEPTH   
 TOT GAM  .CPS       00 000 00 00          :  2              TOT GAM
 THORIUM  .PPM       00 790 00 00          :  3              THORIUM
 URANIUM  .PPM       00 792 00 00          :  4              URANIUM
 POTASIUM .PERCENT   00 719 00 00          :  5             POTASIUM
 PILOT W  .CPS       00 000 00 00          :  6              PILOT W
 DAC      .MV        00 000 00 00          :  7                  DAC
 GAM(KUT) .CPS       00 310 00 00          :  8             GAM(KUT)
 THORIUM  .CPS       00 790 00 00          :  9              THORIUM
 URANIUM  .CPS       00 792 00 00          : 10              URANIUM
 POTASIUM .CPS       00 719 00 00          : 11             POTASIUM
 TENSION  .POUNDS    00 000 00 00          : 12              TENSION
 TIME     .MINUTES   00 000 00 00          : 13                 TIME
~Parameter Information Block
#MNEM.UNIT   Information     Description
#---------- ---------------  ------------------------
~Other Information
#MNEM.UNIT  Information      Description
#---------- ---------------  ------------------------
 FILE.      ORIGINAL           File Type
 FIID.      9080C              File Type Identifier
 VERS.      1.0                System Version
 SER .      1                  System Serial Number
 TRUK.      0.50000            Truck Calibration Number
 TOOL.         263             Tool Serial Number
 TIME.      11:55:             Time
 LAT .          None           Latitude
 LON .          None           Longitude
 LMF .       TOC-PVC           Log Measured From
 DMF .          None           Driller Measured From
 PD  .           TOC           Permanent Data
 PDEV.          None           Elevation Permanent Data
 EKB .M         None           Elevation Kelly Bushing
 ELEV.DF        None           Elevation DF
 EGL .M         None           Elevation Ground Level
 DRDP.          None           Driller's Depth
 CASD.         3               Casing Diameter
 CASB.          1870           Casing Bottom
 CASX.           PVC           Casing Type
 CAST.         0               Casing Thickness
 TNOC.          None           Time Circulation Stopped
 LOGU.       CENT              Logging Unit
 RECB.          KKNUTSON       Recorded By
 OSR1.          None           Other Services
 OSR2.          None           Other Services
 OSR3.          None           Other Services
 BS  .MM           6           Bit Size
 MST .                         Mean Surface Temperature
 TGRD.        0                Temperature Gradiant
 MAGN.             0           Magnetic Declination
 MDEN.      2.71               Density Matrix
 MATR.       Dolomite          Neutron Matrix
 DTMT.            54           Delta T Matrix
 DTFL.                         Delta T Fluid
 MUDS.               0         Mud Sample Source
 MRS .           0             Mud Resistivity
 MTP .           0             Mud Temperature
 MFRS.                         Resistivity Mud Filtrate
 MFTP.                         Temperature Mud Filtrate
 MCRS.         0               Resistivity Mud Cake
 MCTP.                         Temperature Mud Cake
 FTYP.             0           Fluid Type
 FD  .K/M3                     Fluid Density
 DFV .S                        Fluid Viscosity
 FPH .                         Fuild PH
 ELCO.        2500             Electron Cutoff
# -------------------------- 
~A DEPTH  TOT GAM  THORIUM  URANIUM  POTASIUM PILOT W DAC     GAM(KUT) THORIUM  URANIUM  POTASIUM TENSION  TIME    
# ...
 288.800  25894.7    -2.06    13.71  -2.54      3051    1833       8      0.53    22.11  43.68        1.5  1.90000 
 288.900  25840.0    -8.01     9.45  -3.71      3058    1835      -3      0.00    17.50  38.00       -0.0  1.97000 
 289.000  25994.2    10.92    -6.88  -0.05      3048    1835      -1      1.05    15.79  40.00        1.1  1.83000 
 289.100  25898.4    -5.40     1.84   2.63      3055    1839       5      0.00    15.26  47.89        0.1  1.80000 
 289.200  26033.2     1.67     1.00  -0.13      3007    1833       2      0.53    16.84  42.63        1.9  1.80000 
 289.300  26005.6     4.51    -7.51   0.83      3119    1825      -4      0.56    13.33  40.56        4.1  1.70000 
 289.400  25793.3     3.92    -5.25   1.34      3012    1837      -0      0.56    14.44  42.78        4.0  1.70000 
 289.500  25753.5     4.70    -5.89   3.45      2979    1838       4      0.59    14.71  47.06        5.6  1.60000 
 289.600  25942.4    23.25   -15.25   5.83      3069    1834      10      1.76    16.47  50.00        0.7  1.70000 
 289.700  25768.1     7.95   -15.63   4.10      3069    1833      -3      0.63    10.63  43.75       -0.0  1.60000 
 289.800  25888.8    -5.95     2.53  -2.02      3169    1826      -5      0.00    14.71  38.24        0.1  1.70000 
 289.900  25904.4     6.32    -9.88   3.66      2999    1839       1      0.63    13.13  45.63        1.9  1.60000 
 290.000  25910.6     5.89   -10.54   2.05      3072    1829      -4      0.59    12.35  41.76       11.2  1.70000 
 290.100  25946.9     2.90     0.81  -1.98      3036    1832      -2      0.63    16.88  38.75        0.7  1.70000 
 290.200  25890.0     2.93     0.02   1.82      3039    1829       6      0.59    17.06  46.47        8.5  1.70000 
 290.300  25901.2    -7.36     7.12  -3.61      3018    1838      -5      0.00    16.47  37.06       12.4  1.70000 
 290.400  25788.8     7.32    11.34  -2.42      2998    1839      11      1.18    24.12  44.12        6.2  1.70000 
 290.500  26088.2     5.38    -8.41   3.20      3077    1828       1      0.59    13.53  45.29        6.3  1.80000 
 290.600  25950.6    -2.61    19.26  -0.39      3029    1838      19      0.59    25.29  51.18       13.9  1.80000 
 290.700  26093.9     9.69    -0.02  -1.41      3026    1837       2      1.11    18.89  40.56        5.1  2.07000 
 290.800  25905.0    40.20   -27.57   5.10      3093    1825       5      2.78    15.56  44.44        1.0  1.93000 
 290.900  26067.5    -9.72    14.91  -6.11      3081    1833      -3      0.00    19.50  35.50       17.4  2.00000 
 291.000  25766.5     1.41     1.06   1.22      2962    1834       5      0.50    17.00  45.50       -0.0  2.00000 
 291.100  26178.0     7.78     2.35   1.61      3057    1837      11      1.00    20.00  48.00        0.8  2.00000 
 291.200  25824.0    21.64     0.27   0.20      3071    1827      13      2.00    23.50  46.00        0.1  2.00000 
 291.300  25871.0    16.66    -5.34   2.19      3021    1839       9      1.50    19.00  46.50       -0.0  1.90000 
 291.400  25928.0     7.84     1.76   0.35      3051    1829       7      1.00    19.50  45.00        6.7  1.90000 
 291.500  25641.6     2.28    -2.66  -5.40      3054    1828     -14      0.53    14.21  29.47        6.4  1.97000 
 291.600  25984.2    17.19    -4.12  -0.21      2942    1845       5      1.58    19.47  42.11       -0.0  1.83000 
 291.700  25961.6     1.34     2.18  -0.15      3129    1827       3      0.53    17.37  43.16        4.2  1.90000 
 291.800  25826.8    -0.59     9.15  -0.04      3070    1829      10      0.53    20.53  46.84        2.9  1.80000 
 291.900  26074.2    -1.92    13.88  -0.14      2927    1842      14      0.53    22.63  48.95        3.1  1.70000 
 292.000  25795.6     2.10     1.63   2.61      3012    1832       9      0.56    17.78  48.89       14.1  1.70000 
 292.100  26120.6   -10.55    18.19  -5.05      2961    1841       2      0.00    21.18  39.41       14.6  1.75000 
 292.200  25925.3    22.55   -13.74   2.21      3031    1836       3      1.76    16.47  42.94       23.3  1.65000 
 292.300  25840.6     5.13    -7.34   3.78      3054    1831       4      0.59    14.12  47.06        5.5  1.70000 
 292.400  26000.6    -1.01    13.73   0.33      2996    1836      15      0.59    22.94  50.00        2.6  1.60000 
 292.500  25921.2    10.55    -0.85  -4.55      2989    1839      -5      1.18    18.24  33.53       -0.0  1.70000 
 292.600  26151.9     5.01    -5.40   2.92      3040    1832       4      0.63    15.00  46.25       -0.0  1.80000 
 292.700  25950.0    -7.96    10.52   0.80      3068    1829       9      0.00    18.82  48.24        0.6  1.70000 
 292.800  25841.7   -11.82    22.36  -6.50      2972    1841       3      0.00    22.78  38.33        0.8  1.70000 
 292.900  25887.6    38.12   -13.55   0.49      3011    1833       8      2.94    21.76  41.76       -0.0  1.60000 
 293.000  25733.5     0.63     7.06  -2.52      3038    1834       2      0.59    19.41  40.59        1.3  1.75000 
 293.100  26160.0    14.34    -8.41   4.46      3059    1836       9      1.25    16.88  49.38        4.8  1.65000 
 293.200  25881.8    27.98    -5.69  -0.47      3024    1836       9      2.35    22.35  42.35        1.6  1.80000 
 293.300  26179.4    -8.50    12.22  -0.13      3136    1835       8      0.00    19.41  47.06        3.5  1.80000 
 293.400  26225.6    -0.64    10.01  -2.66      3076    1829       5      0.56    20.56  41.67        9.1  1.90000 
 293.500  25952.2     2.98    -1.75   1.83      2939    1842       4      0.56    16.11  45.56        7.4  2.00000 
 293.600  26023.2     4.93    -9.30   4.92      3104    1824       4      0.53    13.16  48.42        7.5  1.90000 
 293.700  25989.5     0.73     3.41   0.91      3064    1834       6      0.50    18.00  46.00       -0.0  1.90000 
 293.800  25986.8    -0.21     6.46  -4.79      3001    1837      -4      0.53    18.42  35.26       -0.0  1.90000 
 293.900  25868.9     0.75     3.92  -1.53      2983    1831       1      0.53    17.89  41.05       -0.0  1.90000 
 294.000  26082.6    -1.13    10.79  -1.14      3028    1838       9      0.53    21.05  45.26       -0.0  1.90000 
 294.100  26192.1    -7.49     9.15   1.93      3051    1836      10      0.00    18.42  50.00        1.8  1.90000 
 294.200  25970.5    -1.59    11.29  -5.17      3007    1840      -0      0.53    20.53  36.84       11.5  1.90000 
 294.300  26063.2     1.62     1.11  -0.40      3086    1829       1      0.53    16.84  42.11       -0.0  1.90000 
 294.400  25821.6    30.68   -25.33   6.58      3015    1833       5      2.11    13.68  47.37       17.2  1.80000 
 294.500  26024.2   -11.32    20.69  -6.08      3073    1834       2      0.00    22.11  38.42       11.6  1.70000 
 294.600  25858.9   -13.11    27.11  -6.04      3057    1833       8      0.00    25.00  41.67       13.5  1.70000 
 294.700  25982.4    11.35    -2.05   1.46      3060    1835       8      1.18    18.82  45.88        2.0  1.70000 
 294.800  25995.9    30.28   -14.30  -1.78      3021    1844      -2      2.35    18.24  35.29        0.5  1.60000 
 294.900  25937.1   -10.30    17.12  -5.62      3005    1835       0      0.00    20.59  37.65        4.9  1.70000 
 295.000  25984.4   -16.90    39.16  -11.60     3053    1831       7      0.00    29.38  35.63        6.4  1.60000 
 295.100  26259.4     2.85     0.71   3.30      3011    1831      10      0.59    17.65  50.00        5.8  1.70000 
 295.200  26003.8    -8.35    11.30  -1.46      3124    1829       4      0.00    18.75  43.75       -0.0  1.70000 
 295.300  26027.1    -3.00    19.58  -4.29      3023    1835      10      0.59    24.71  42.94        8.0  1.70000 
 295.400  26060.0    -7.06     6.50  -2.10      3085    1828      -2      0.00    16.47  40.00       13.0  1.62000 
 295.500  26212.9    41.59   -24.68   5.22      3070    1841       9      2.94    17.65  46.47        0.5  1.68000 
 295.600  25991.3     4.45    -4.20   0.04      2968    1846      -2      0.63    15.00  40.63        1.9  1.70000 
