~Version Information
 VERS.                2.0:  CWLS LOG ASCII STANDARD -VERSION 2.0
 WRAP.                 NO:  ONE LINE PER DEPTH STEP
~WELL INFORMATION BLOCK
#MNEM.UNIT       DATA		            DESCRIPTION OF MNEMONIC
#---------    -------------            ------------------------
 STRT.FT  0.800                          :START DEPTH
 STOP.FT  1867.700                       :STOP DEPTH
 STEP.FT  0.100                          :STEP    UP_HOLE  
 NULL.    0                              :NULL VALUE
 COMP.                             USGS  :COMPANY
 WELL.                             DMW1  :WELL
 FLD .      MARINA COAST WATER DISTRICT  :FIELD
 LOC .    None  None  None               :LOCATION
 CNTY.                        MONTERY ?  :COUNTY
 STAT.                     CA            :STATE
 SRVC.    PORTLAND OR                    :SERVICE COMPANY
 DATE.   11/17/00                        :LOG DATE
 UWI .                       	         :UNIQUE WELL ID
 LIC .                                   :LICENSE NUMBER
~Curve Information Block
#MNEM.UNIT      API CODE     Curve Description
#---------    -------------  ------------------------
 DEPT     .FT        00 001 00 00          :  1  DEPTH   
 GAM(NAT) .API-GR    00 310 00 00          :  2             GAM(NAT)
 COND     .MMHO/M    00 000 00 00          :  3                 COND
 RES      .OHM-M     00 000 00 00          :  4                  RES
 TEMP     .DEG F     00 660 00 00          :  5                 TEMP
 AP-COND  .MMHO/M    00 000 00 00          :  6              AP-COND
 TEMP     .CPS       00 660 00 00          :  7                 TEMP
 AP-COND  .CPS       00 000 00 00          :  8              AP-COND
 TENSION  .POUNDS    00 000 00 00          :  9              TENSION
 TIME     .MINUTES   00 000 00 00          : 10                 TIME
~Parameter Information Block
#MNEM.UNIT   Information     Description
#---------- ---------------  ------------------------
~Other Information
#MNEM.UNIT  Information      Description
#---------- ---------------  ------------------------
 FILE.      ORIGINAL           File Type
 FIID.      9511A              File Type Identifier
 VERS.      1.0                System Version
 SER .      1                  System Serial Number
 TRUK.      0.50000            Truck Calibration Number
 TOOL.         989             Tool Serial Number
 TIME.      20:51:             Time
 LAT .          None           Latitude
 LON .          None           Longitude
 LMF .       TOC-PVC           Log Measured From
 DMF .          None           Driller Measured From
 PD  .           TOC           Permanent Data
 PDEV.          None           Elevation Permanent Data
 EKB .M         None           Elevation Kelly Bushing
 ELEV.DF        None           Elevation DF
 EGL .M         None           Elevation Ground Level
 DRDP.          None           Driller's Depth
 CASD.         3               Casing Diameter
 CASB.          1870           Casing Bottom
 CASX.           PVC           Casing Type
 CAST.         0               Casing Thickness
 TNOC.          None           Time Circulation Stopped
 LOGU.       CENT              Logging Unit
 RECB.          KKNUTSON       Recorded By
 OSR1.          None           Other Services
 OSR2.          None           Other Services
 OSR3.          None           Other Services
 BS  .MM           6           Bit Size
 MST .                         Mean Surface Temperature
 TGRD.        0                Temperature Gradiant
 MAGN.             0           Magnetic Declination
 MDEN.      2.71               Density Matrix
 MATR.       Dolomite          Neutron Matrix
 DTMT.            54           Delta T Matrix
 DTFL.                         Delta T Fluid
 MUDS.               0         Mud Sample Source
 MRS .           0             Mud Resistivity
 MTP .           0             Mud Temperature
 MFRS.                         Resistivity Mud Filtrate
 MFTP.                         Temperature Mud Filtrate
 MCRS.         0               Resistivity Mud Cake
 MCTP.                         Temperature Mud Cake
 FTYP.             0           Fluid Type
 FD  .K/M3                     Fluid Density
 DFV .S                        Fluid Viscosity
 FPH .                         Fuild PH
 ELCO.        2500             Electron Cutoff
# -------------------------- 
~A DEPTH  GAM(NAT) COND     RES      TEMP  AP-COND  TEMP  AP-COND  TENSION  TIME    
# ...
1857.400     54.3     31.0     32.3  5716.2    28.9  29890.0 56976.7      0.7  0.30000 
1857.500     71.2     30.5     32.7  5716.2    28.5  29890.0 56933.3      0.8  0.30000 
1857.600     50.9     31.3     32.0  5716.9    29.2  29893.3 57010.0      1.0  0.30000 
1857.700     74.6     30.7     32.6  5716.2    28.7  29890.0 56946.7      1.3  0.30000 
1857.800     98.4     31.5     31.7  5716.9    29.5  29893.3 57036.7      1.6  0.30000 
1857.900     76.3     32.2     31.0  5716.2    30.1  29890.0 57106.7      1.4  0.30000 
1858.000     61.1     30.9     32.4  5716.9    28.8  29893.3 56966.7      1.3  0.30000 
1858.100     71.2     30.4     32.9  5716.9    28.4  29893.3 56913.3      1.0  0.30000 
1858.200     54.3     30.5     32.8  5716.2    28.5  29890.0 56926.7      1.4  0.30000 
1858.300     50.9     31.2     32.1  5716.9    29.1  29893.3 57000.0      0.6  0.30000 
1858.400     78.0     32.2     31.1  5716.2    30.0  29890.0 57100.0      0.5  0.30000 
1858.500     71.2     30.6     32.6  5716.2    28.6  29890.0 56943.3     -0.0  0.30000 
1858.600     71.2     31.7     31.5  5716.2    29.6  29890.0 57056.7     -0.0  0.40000 
1858.700     74.6     31.3     31.9  5716.2    29.2  29890.0 57013.3     -0.0  0.30000 
1858.800     88.2     32.8     30.5  5716.2    30.6  29890.0 57165.0      0.2  0.30000 
1858.900     50.9     31.5     31.7  5716.9    29.4  29893.3 57033.3      0.6  0.30000 
1859.000     67.8     32.5     30.7  5716.2    30.4  29890.0 57140.0      0.6  0.30000 
1859.100     68.7     30.8     32.5  5716.2    28.8  29890.0 56960.0      1.3  0.20000 
1859.200     61.1     32.0     31.2  5716.9    29.9  29893.3 57086.7      1.9  0.30000 
1859.300     78.9     31.8     31.4  5716.2    29.7  29890.0 57065.0      1.5  0.30000 
1859.400     58.5     31.5     31.7  5716.9    29.4  29893.3 57033.3      0.6  0.30000 
1859.500     76.3     31.2     32.0  5716.2    29.2  29890.0 57003.3      0.6  0.40000 
1859.600     44.1     32.4     30.9  5716.9    30.2  29893.3 57120.0     -0.0  0.30000 
1859.700     66.1     31.5     31.8  5716.8    29.4  29892.5 57027.5     -0.0  0.30000 
1859.800     71.2     32.4     30.9  5716.2    30.2  29890.0 57120.0      0.1  0.20000 
1859.900     73.8     32.2     31.1  5716.2    30.0  29890.0 57103.3      1.1  0.40000 
1860.000     95.0     32.5     30.7  5716.2    30.4  29890.0 57140.0      2.5  0.30000 
1860.100     83.4     31.9     31.3  5716.8    29.8  29892.5 57075.0      3.5  0.30000 
1860.200     73.8     32.0     31.2  5716.9    29.9  29893.3 57086.7      5.8  0.30000 
1860.300     78.9     32.7     30.5  5716.2    30.5  29890.0 57160.0      7.5  0.30000 
1860.400     48.3     30.8     32.5  5716.9    28.8  29893.3 56960.0      7.3  0.30000 
1860.500     66.1     31.1     32.2  5716.2    29.0  29890.0 56990.0      6.5  0.30000 
1860.600     65.1     31.4     31.8  5716.9    29.4  29893.3 57026.7      5.2  0.30000 
1860.700     50.9     32.4     30.8  5716.9    30.3  29893.3 57130.0      3.4  0.30000 
1860.800     91.6     32.5     30.8  5716.2    30.3  29890.0 57136.7      2.6  0.20000 
1860.900     81.4     31.8     31.4  5716.9    29.7  29893.3 57063.3      2.1  0.30000 
1861.000     73.3     33.6     29.8  5716.2    31.3  29890.0 57245.0      2.8  0.30000 
1861.100     66.1     30.8     32.5  5716.9    28.7  29893.3 56956.7      2.9  0.30000 
1861.200     96.7     32.2     31.1  5716.2    30.0  29890.0 57103.3      2.6  0.30000 
1861.300     63.1     32.6     30.7  5716.9    30.4  29893.3 57143.3      3.4  0.30000 
1861.400     45.8     33.4     30.0  5716.9    31.1  29893.3 57226.7      2.8  0.30000 
1861.500     61.1     33.0     30.3  5716.2    30.7  29890.0 57183.3      3.3  0.40000 
1861.600     93.6     34.5     28.9  5716.9    32.2  29893.3 57346.7      4.3  0.30000 
1861.700     50.9     31.5     31.7  5716.2    29.4  29890.0 57032.5      3.5  0.30000 
1861.800     62.8     31.6     31.6  5716.2    29.5  29890.0 57046.7      4.0  0.30000 
1861.900     74.6     31.4     31.8  5716.9    29.4  29893.3 57026.7      4.9  0.30000 
1862.000     71.2     31.7     31.6  5716.2    29.6  29890.0 57050.0      5.4  0.30000 
1862.100     69.5     31.6     31.6  5716.9    29.5  29893.3 57043.3      5.5  0.40000 
1862.200     67.8     32.5     30.8  5716.2    30.3  29890.0 57133.3      6.5  0.30000 
1862.300     57.7     31.9     31.4  5716.2    29.7  29890.0 57070.0      8.2  0.30000 
1862.400     70.0     33.4     29.9  5716.2    31.2  29890.0 57230.0     10.3  0.30000 
1862.500     76.3     32.1     31.1  5716.2    30.0  29890.0 57096.7     12.8  0.30000 
1862.600     62.3     31.0     32.3  5716.9    29.0  29893.3 56980.0     12.3  0.30000 
1862.700     82.5     31.3     32.0  5716.2    29.2  29890.0 57006.7     13.3  0.30000 
1862.800     66.1     32.1     31.2  5716.9    30.0  29893.3 57093.3     12.9  0.40000 
1862.900     65.6     31.4     31.8  5716.2    29.3  29890.0 57023.3     11.3  0.30000 
1863.000     66.1     31.8     31.5  5716.2    29.7  29890.0 57062.5     12.0  0.30000 
1863.100      0.0     32.2     31.1  5716.2    30.0  29890.0 57100.0     11.6  0.40000 
1863.200      0.0     32.4     30.9  5716.2    30.2  29890.0 57123.3      9.7  0.30000 
1863.300      0.0     31.1     32.1  5716.8    29.1  29892.5 56995.0     10.4  0.40000 
1863.400      0.0     31.2     32.0  5716.2    29.2  29890.0 57003.3      7.7  0.30000 
1863.500      0.0     31.7     31.5  5716.8    29.6  29892.5 57052.5      9.1  0.40000 
1863.600      0.0     32.4     30.9  5716.2    30.2  29890.0 57120.0      5.7  0.40000 
1863.700      0.0     32.0     31.3  5716.2    29.8  29890.0 57080.0      6.8  0.40000 
1863.800      0.0     32.6     30.7  5716.8    30.4  29892.5 57147.5      4.3  0.30000 
1863.900      0.0     30.9     32.3  5716.8    28.9  29892.5 56975.0      4.5  0.40000 
1864.000      0.0     31.9     31.3  5716.2    29.8  29890.0 57076.7      3.7  0.30000 
1864.100      0.0     31.7     31.6  5716.2    29.5  29890.0 57047.5      6.8  0.40000 
1864.200      0.0     32.4     30.9  5716.9    30.2  29893.3 57123.3      5.9  0.30000 
1864.300      0.0     31.8     31.4  5716.2    29.7  29890.0 57067.5      6.3  0.50000 
1864.400      0.0     32.3     31.0  5716.2    30.1  29890.0 57113.3      2.9  0.40000 
1864.500      0.0     32.4     30.8  5716.2    30.3  29890.0 57130.0      1.6  0.40000 
1864.600      0.0     33.2     30.1  5716.2    31.0  29890.0 57207.5      2.1  0.40000 
1864.700      0.0     32.1     31.1  5716.8    30.0  29892.5 57097.5      2.3  0.40000 
1864.800      0.0     33.3     30.1  5716.2    31.0  29890.0 57215.0      2.9  0.52000 
1864.900      0.0     32.1     31.2  5716.2    29.9  29890.0 57092.5      3.0  0.44000 
1865.000      0.0     32.0     31.2  5716.2    29.9  29890.0 57086.0      3.6  0.33000 
1865.100      0.0     31.5     31.8  5716.8    29.4  29892.5 57027.5      4.4  0.41000 
1865.200      0.0     32.1     31.2  5716.2    30.0  29890.0 57093.3      6.0  0.50000 
1865.300      0.0     32.3     30.9  5716.7    30.2  29892.0 57116.0      6.5  0.40000 
1865.400      0.0     32.8     30.5  5716.7    30.6  29892.0 57170.0      7.2  0.40000 
1865.500      0.0     31.3     31.9  5716.8    29.3  29892.5 57015.0      7.3  0.50000 
1865.600      0.0     31.9     31.3  5716.2    29.8  29890.0 57075.0      6.7  0.40000 
1865.700      0.0     32.5     30.8  5716.2    30.3  29890.0 57134.0      8.0  0.40000 
1865.800      0.0     31.5     31.7  5716.8    29.4  29892.5 57032.5      9.8  0.50000 
1865.900      0.0     33.4     30.0  5716.8    31.1  29892.5 57225.0     12.4  0.50000 
1866.000      0.0     32.3     31.0  5716.2    30.1  29890.0 57114.0     13.7  0.60000 
1866.100      0.0     33.0     30.3  5716.7    30.8  29892.0 57186.0     11.5  0.60000 
1866.200      0.0     31.9     31.3  5716.6    29.8  29891.7 57078.3      7.6  0.60000 
1866.300      0.0     31.7     31.5  5716.6    29.6  29891.7 57053.3      5.9  0.60000 
1866.400      0.0     32.1     31.2  5716.2    29.9  29890.0 57091.7      6.0  0.60000 
