~Version Information
 VERS.                2.0:  CWLS LOG ASCII STANDARD -VERSION 2.0
 WRAP.                 NO:  ONE LINE PER DEPTH STEP
~WELL INFORMATION BLOCK
#MNEM.UNIT       DATA		            DESCRIPTION OF MNEMONIC
#---------    -------------            ------------------------
 STRT.FT  5.900                          :START DEPTH
 STOP.FT  1425.400                       :STOP DEPTH
 STEP.FT  0.100                          :STEP    UP_HOLE  
 NULL.    0                              :NULL VALUE
 COMP.                             USGS  :COMPANY
 WELL.                             DMW1  :WELL
 FLD .      MARINA COAST WATER DISTRICT  :FIELD
 LOC .    None  None  None               :LOCATION
 CNTY.                        MONTERY ?  :COUNTY
 STAT.                     CA            :STATE
 SRVC.    PORTLAND, O                    :SERVICE COMPANY
 DATE.   11/17/00                        :LOG DATE
 UWI .                       	         :UNIQUE WELL ID
 LIC .                                   :LICENSE NUMBER
~Curve Information Block
#MNEM.UNIT      API CODE     Curve Description
#---------    -------------  ------------------------
 DEPT     .FT        00 001 00 00          :  1  DEPTH   
 TOT GAM  .CPS       00 000 00 00          :  2              TOT GAM
 THORIUM  .PPM       00 790 00 00          :  3              THORIUM
 URANIUM  .PPM       00 792 00 00          :  4              URANIUM
 POTASIUM .PERCENT   00 719 00 00          :  5             POTASIUM
 PILOT W  .CPS       00 000 00 00          :  6              PILOT W
 DAC      .MV        00 000 00 00          :  7                  DAC
 GAM(KUT) .CPS       00 310 00 00          :  8             GAM(KUT)
 THORIUM  .CPS       00 790 00 00          :  9              THORIUM
 URANIUM  .CPS       00 792 00 00          : 10              URANIUM
 POTASIUM .CPS       00 719 00 00          : 11             POTASIUM
 TENSION  .POUNDS    00 000 00 00          : 12              TENSION
 TIME     .MINUTES   00 000 00 00          : 13                 TIME
~Parameter Information Block
#MNEM.UNIT   Information     Description
#---------- ---------------  ------------------------
~Other Information
#MNEM.UNIT  Information      Description
#---------- ---------------  ------------------------
 FILE.      ORIGINAL           File Type
 FIID.      9080C              File Type Identifier
 VERS.      1.0                System Version
 SER .      1                  System Serial Number
 TRUK.      0.50000            Truck Calibration Number
 TOOL.         263             Tool Serial Number
 TIME.      11:55:             Time
 LAT .          None           Latitude
 LON .          None           Longitude
 LMF .       TOC-PVC           Log Measured From
 DMF .          None           Driller Measured From
 PD  .           TOC           Permanent Data
 PDEV.          None           Elevation Permanent Data
 EKB .M         None           Elevation Kelly Bushing
 ELEV.DF        None           Elevation DF
 EGL .M         None           Elevation Ground Level
 DRDP.          None           Driller's Depth
 CASD.         3               Casing Diameter
 CASB.          1870           Casing Bottom
 CASX.           PVC           Casing Type
 CAST.         0               Casing Thickness
 TNOC.          None           Time Circulation Stopped
 LOGU.       CENT              Logging Unit
 RECB.          KKNUTSON       Recorded By
 OSR1.          None           Other Services
 OSR2.          None           Other Services
 OSR3.          None           Other Services
 BS  .MM           6           Bit Size
 MST .                         Mean Surface Temperature
 TGRD.        0                Temperature Gradiant
 MAGN.             0           Magnetic Declination
 MDEN.      2.71               Density Matrix
 MATR.       Dolomite          Neutron Matrix
 DTMT.            54           Delta T Matrix
 DTFL.                         Delta T Fluid
 MUDS.               0         Mud Sample Source
 MRS .           0             Mud Resistivity
 MTP .           0             Mud Temperature
 MFRS.                         Resistivity Mud Filtrate
 MFTP.                         Temperature Mud Filtrate
 MCRS.         0               Resistivity Mud Cake
 MCTP.                         Temperature Mud Cake
 FTYP.             0           Fluid Type
 FD  .K/M3                     Fluid Density
 DFV .S                        Fluid Viscosity
 FPH .                         Fuild PH
 ELCO.        2500             Electron Cutoff
# -------------------------- 
~A DEPTH  TOT GAM  THORIUM  URANIUM  POTASIUM PILOT W DAC     GAM(KUT) THORIUM  URANIUM  POTASIUM TENSION  TIME    
# ...
1234.100  25992.5     3.42    -0.86  -1.31      2942    1824      -2      0.63    16.25  39.38        7.0  1.60000 
1234.200  26086.9    -8.02    10.03  -1.75      3037    1816       2      0.00    18.13  42.50        4.0  1.60000 
1234.300  25818.8     0.09    10.77  -2.51      3084    1815       6      0.63    21.25  42.50        0.5  1.60000 
1234.400  25836.3    14.80    -9.94   4.82      2984    1810       9      1.25    16.25  49.38        0.1  1.70000 
1234.500  26067.5    35.46   -24.17   4.26      3093    1817       4      2.50    15.63  43.75       -0.0  1.60000 
1234.600  25938.2    14.53   -14.12  -0.97      3074    1819      -9      1.18    12.94  34.71        3.3  1.60000 
1234.700  25867.5     8.17    12.10  -1.39      2961    1826      15      1.25    25.00  46.88        5.4  1.70000 
1234.800  25817.5   -11.00    19.78  -5.14      3019    1818       4      0.00    21.88  40.00        5.7  1.80000 
1234.900  25784.1    -0.48    11.03  -2.61      2919    1826       6      0.59    21.18  42.35        5.2  1.80000 
1235.000  25950.6    20.17    -9.88   2.37      3071    1813       6      1.67    17.78  45.00        9.1  1.80000 
1235.100  25931.1    11.16    -4.18   2.63      3030    1817       8      1.11    17.78  47.22        8.0  1.90000 
1235.200  25905.6    18.37    -5.01  -3.38      2846    1829      -3      1.67    18.89  35.00        0.3  1.90000 
1235.300  25773.7    -7.98    10.67   1.10      2982    1817      10      0.00    18.95  48.95        0.8  1.80000 
1235.400  26015.3     9.58    -1.65   1.44      2957    1828       7      1.05    18.42  45.79        0.9  1.80000 
1235.500  25746.1    11.60    -6.62  -0.42      2904    1825      -2      1.11    16.11  39.44       -0.0  1.80000 
1235.600  25963.9   -10.61    18.26  -5.57      2999    1822       1      0.00    21.11  38.33        0.6  1.70000 
1235.700  25856.1     0.99     4.01  -3.10      2959    1822      -2      0.56    17.78  37.78        0.9  1.70000 
1235.800  25931.2    30.55   -14.37   1.51      2970    1824       5      2.35    18.82  42.35        1.9  1.70000 
1235.900  26037.6     0.92     6.43  -1.01      3042    1821       5      0.59    19.41  43.53        1.5  1.60000 
1236.000  25907.6   -10.36    17.25  -5.93      2976    1815      -1      0.00    20.59  37.06        0.8  1.60000 
1236.100  26063.8    -1.09    14.97  -2.61      3022    1823      10      0.63    23.13  44.38        0.5  1.60000 
1236.200  26060.6    -0.68    12.97  -4.47      2958    1823       4      0.63    21.88  39.38       -0.0  1.60000 
1236.300  25875.0    43.03   -21.16   4.72      2993    1819      12      3.13    20.00  47.50        0.8  1.60000 
1236.400  25750.0    35.65   -24.57   5.22      2968    1816       6      2.50    15.63  45.63        3.1  1.70000 
1236.500  25822.5     5.86    -8.34   3.31      3033    1824       2      0.63    13.75  45.63        2.1  1.70000 
1236.600  26031.8    -6.79     6.43   1.19      2979    1821       6      0.00    17.06  47.06        1.9  1.60000 
1236.700  25677.6    -1.96    16.31  -2.72      2986    1825      11      0.59    23.53  44.71        5.0  1.70000 
1236.800  26236.3     2.97     2.34   4.34      3001    1828      14      0.63    18.75  53.13        5.5  1.70000 
1236.900  25988.8    27.96    -5.13   1.31      2981    1824      14      2.35    22.94  46.47        5.4  1.70000 
1237.000  26117.6    13.59    -8.97   5.50      3002    1828      11      1.18    16.47  51.18        0.3  1.80000 
1237.100  26182.9     1.74     4.67   3.22      3132    1815      14      0.59    19.41  51.76        2.2  1.90000 
1237.200  26225.0    -0.29     8.76  -2.63      2970    1823       3      0.56    20.00  41.11        1.2  1.90000 
1237.300  26049.5    10.28    -3.62   3.36      2998    1823      10      1.05    17.89  48.95        0.3  1.80000 
1237.400  25840.0     2.07    -0.80  -1.42      2931    1821      -3      0.53    15.79  38.95        0.7  1.90000 
1237.500  25685.6     6.58    10.13  -5.03      2985    1820       3      1.11    22.78  37.78        0.8  1.70000 
1237.600  26026.3    11.11    -6.82   2.63      3096    1812       5      1.05    16.32  45.79        6.5  1.80000 
1237.700  25980.0     9.60     3.29  -1.95      3018    1825       5      1.18    20.59  41.18        2.1  1.80000 
1237.800  25603.3    15.11     6.45  -4.20      2916    1831       6      1.67    23.89  38.89        3.6  1.78000 
1237.900  25763.3     0.61     6.33   0.24      2948    1817       8      0.56    19.44  46.11        1.3  1.62000 
1238.000  25957.1    -4.39    -1.87   2.27      3087    1819       1      0.00    13.53  45.29        4.1  1.60000 
1238.100  25866.5    27.71   -30.10  10.04      2990    1823       6      1.76    10.59  51.76        8.0  1.60000 
1238.200  25608.8    11.53    -0.12  -2.07      3004    1799       2      1.25    19.38  39.38        2.5  1.60000 
1238.300  25983.1    35.61   -25.03   3.01      2989    1821      -0      2.50    15.00  40.63        0.8  1.70000 
1238.400  26023.8    33.50   -17.15   4.11      3033    1826      10      2.50    18.75  46.88        1.8  1.60000 
1238.500  25973.5     6.22   -12.30  -0.00      3069    1821     -10      0.59    11.18  36.47        1.5  1.60000 
1238.600  25896.3    -8.47    11.56  -2.10      3039    1820       3      0.00    18.75  42.50       -0.0  1.69000 
1238.700  25826.3     4.81    -4.40   3.85      3010    1818       7      0.63    15.63  48.75        6.9  1.61000 
1238.800  26003.8    22.06    -6.27   3.67      2941    1828      14      1.88    20.63  50.00        7.1  1.60000 
1238.900  25925.9    23.74   -16.83   6.46      3019    1819      10      1.76    15.88  50.59       11.5  1.70000 
1239.000  25790.0    -8.60    11.83  -2.74      2936    1828       2      0.00    18.75  41.25       10.3  1.80000 
1239.100  25832.4    -8.25    11.15  -0.71      3053    1818       6      0.00    18.82  45.29       10.9  1.80000 
1239.200  25857.8    -0.44     8.59  -5.17      3027    1817      -3      0.56    19.44  35.56        8.7  1.90000 
1239.300  25721.1    -7.43     7.45  -3.35      2992    1822      -4      0.00    16.67  37.78        2.9  1.80000 
1239.400  25894.2     8.27     2.57  -0.26      2990    1818       7      1.05    20.00  44.21        1.6  1.90000 
1239.500  25455.0    -8.27    11.25  -0.61      3012    1819       6      0.00    18.89  45.56        6.4  1.80000 
1239.600  25704.7     1.97    -0.58  -1.96      3030    1814      -4      0.53    15.79  37.89       11.5  1.80000 
1239.700  25897.2     0.48     5.62  -3.98      2986    1828      -3      0.56    18.33  36.67        9.3  1.80000 
1239.800  25743.9   -10.37    17.25  -6.11      2954    1823      -1      0.00    20.56  36.67        0.3  1.80000 
1239.900  25872.2    20.89   -12.91   0.74      2980    1822      -0      1.67    16.11  40.00        0.8  1.70000 
1240.000  25698.3     1.53     3.36   1.44      3009    1816       8      0.56    18.33  47.22       -0.0  1.70000 
1240.100  25875.9    -5.25     1.02   1.61      2991    1827       2      0.00    14.71  45.29       -0.0  1.60000 
1240.200  25914.7     6.33   -10.99   6.25      3063    1812       6      0.59    12.94  50.59       -0.0  1.60000 
1240.300  25861.3    -9.30    13.90  -4.38      3059    1819      -0      0.00    19.38  38.75       -0.0  1.60000 
1240.400  25865.0    16.14   -15.62   1.76      3009    1825      -4      1.25    13.13  40.00       -0.0  1.70000 
1240.500  25592.5    15.21   -11.95   2.95      3008    1824       2      1.25    15.00  44.38       -0.0  1.60000 
1240.600  25875.9     2.93     0.02   1.82      2982    1818       6      0.59    17.06  46.47       -0.0  1.60000 
1240.700  25843.8    21.60    -6.40  -2.69      3084    1816      -1      1.88    19.38  36.25        0.5  1.70000 
1240.800  25976.9     3.59    -0.66   1.55      2861    1832       5      0.63    16.88  45.63       -0.0  1.60000 
1240.900  26020.0     4.93    -6.40   4.65      2972    1818       6      0.59    14.71  49.41       -0.0  1.60000 
