~Version Information
 VERS.                2.0:  CWLS LOG ASCII STANDARD -VERSION 2.0
 WRAP.                 NO:  ONE LINE PER DEPTH STEP
~WELL INFORMATION BLOCK
#MNEM.UNIT       DATA		            DESCRIPTION OF MNEMONIC
#---------    -------------            ------------------------
 STRT.FT  5.900                          :START DEPTH
 STOP.FT  1425.400                       :STOP DEPTH
 STEP.FT  0.100                          :STEP    UP_HOLE  
 NULL.    0                              :NULL VALUE
 COMP.                             USGS  :COMPANY
 WELL.                             DMW1  :WELL
 FLD .      MARINA COAST WATER DISTRICT  :FIELD
 LOC .    None  None  None               :LOCATION
 CNTY.                        MONTERY ?  :COUNTY
 STAT.                     CA            :STATE
 SRVC.    PORTLAND, O                    :SERVICE COMPANY
 DATE.   11/17/00                        :LOG DATE
 UWI .                       	         :UNIQUE WELL ID
 LIC .                                   :LICENSE NUMBER
~Curve Information Block
#MNEM.UNIT      API CODE     Curve Description
#---------    -------------  ------------------------
 DEPT     .FT        00 001 00 00          :  1  DEPTH   
 TOT GAM  .CPS       00 000 00 00          :  2              TOT GAM
 THORIUM  .PPM       00 790 00 00          :  3              THORIUM
 URANIUM  .PPM       00 792 00 00          :  4              URANIUM
 POTASIUM .PERCENT   00 719 00 00          :  5             POTASIUM
 PILOT W  .CPS       00 000 00 00          :  6              PILOT W
 DAC      .MV        00 000 00 00          :  7                  DAC
 GAM(KUT) .CPS       00 310 00 00          :  8             GAM(KUT)
 THORIUM  .CPS       00 790 00 00          :  9              THORIUM
 URANIUM  .CPS       00 792 00 00          : 10              URANIUM
 POTASIUM .CPS       00 719 00 00          : 11             POTASIUM
 TENSION  .POUNDS    00 000 00 00          : 12              TENSION
 TIME     .MINUTES   00 000 00 00          : 13                 TIME
~Parameter Information Block
#MNEM.UNIT   Information     Description
#---------- ---------------  ------------------------
~Other Information
#MNEM.UNIT  Information      Description
#---------- ---------------  ------------------------
 FILE.      ORIGINAL           File Type
 FIID.      9080C              File Type Identifier
 VERS.      1.0                System Version
 SER .      1                  System Serial Number
 TRUK.      0.50000            Truck Calibration Number
 TOOL.         263             Tool Serial Number
 TIME.      11:55:             Time
 LAT .          None           Latitude
 LON .          None           Longitude
 LMF .       TOC-PVC           Log Measured From
 DMF .          None           Driller Measured From
 PD  .           TOC           Permanent Data
 PDEV.          None           Elevation Permanent Data
 EKB .M         None           Elevation Kelly Bushing
 ELEV.DF        None           Elevation DF
 EGL .M         None           Elevation Ground Level
 DRDP.          None           Driller's Depth
 CASD.         3               Casing Diameter
 CASB.          1870           Casing Bottom
 CASX.           PVC           Casing Type
 CAST.         0               Casing Thickness
 TNOC.          None           Time Circulation Stopped
 LOGU.       CENT              Logging Unit
 RECB.          KKNUTSON       Recorded By
 OSR1.          None           Other Services
 OSR2.          None           Other Services
 OSR3.          None           Other Services
 BS  .MM           6           Bit Size
 MST .                         Mean Surface Temperature
 TGRD.        0                Temperature Gradiant
 MAGN.             0           Magnetic Declination
 MDEN.      2.71               Density Matrix
 MATR.       Dolomite          Neutron Matrix
 DTMT.            54           Delta T Matrix
 DTFL.                         Delta T Fluid
 MUDS.               0         Mud Sample Source
 MRS .           0             Mud Resistivity
 MTP .           0             Mud Temperature
 MFRS.                         Resistivity Mud Filtrate
 MFTP.                         Temperature Mud Filtrate
 MCRS.         0               Resistivity Mud Cake
 MCTP.                         Temperature Mud Cake
 FTYP.             0           Fluid Type
 FD  .K/M3                     Fluid Density
 DFV .S                        Fluid Viscosity
 FPH .                         Fuild PH
 ELCO.        2500             Electron Cutoff
# -------------------------- 
~A DEPTH  TOT GAM  THORIUM  URANIUM  POTASIUM PILOT W DAC     GAM(KUT) THORIUM  URANIUM  POTASIUM TENSION  TIME    
# ...
 571.700  25865.0     3.08    -4.76   1.85      2925    1820       1      0.50    14.50  44.00        2.5  2.00000 
 571.800  26108.0     6.20     6.63  -3.32      3056    1820       3      1.00    21.00  39.50        0.8  1.90000 
 571.900  26026.0    -0.85     7.69  -4.01      3023    1820      -1      0.50    19.00  37.50        0.8  1.80000 
 572.000  25972.6     2.40    -1.98  -1.40      2957    1822      -4      0.53    15.26  38.42        2.3  1.80000 
 572.100  25782.8    -6.62     4.72  -2.73      3033    1807      -5      0.00    15.56  37.78        1.8  1.80000 
 572.200  25950.6     2.59    -2.40  -5.50      2967    1821     -14      0.56    14.44  29.44        2.7  2.00000 
 572.300  25844.4    -6.91     5.85  -2.47      3111    1814      -3      0.00    16.11  38.89       -0.0  1.70000 
 572.400  25982.5    17.42    -8.76  -0.28      2917    1822      -0      1.50    17.00  39.50        1.7  1.80000 
 572.500  26039.4    13.81   -10.48   2.84      2994    1823       3      1.18    15.29  44.71        3.0  1.80000 
 572.600  25887.8    -5.44     1.69   1.58      3012    1813       2      0.00    15.00  45.56        5.4  1.80000 
 572.700  25923.3     0.35     6.39  -2.87      3011    1818       1      0.56    18.89  39.44        9.7  1.80000 
 572.800  26018.9    -8.13     9.95  -3.41      3071    1819      -2      0.00    17.78  38.89        8.1  1.70000 
 572.900  25781.7     2.23     0.86   1.49      2968    1811       6      0.56    17.22  46.11       12.3  1.80000 
 573.000  25965.3    21.83   -11.67   0.37      2946    1819       1      1.76    17.06  40.00        4.6  1.90000 
 573.100  25647.2     5.36    -8.35   8.76      2954    1814      14      0.56    14.44  57.22        2.2  1.98000 
 573.200  25954.7    18.74    -8.39   4.44      3044    1821      12      1.58    18.42  50.00        1.5  2.02000 
 573.300  25840.5    -8.10    10.00  -2.90      3066    1814      -0      0.00    17.89  40.00        1.2  2.40000 
 573.400  25810.0    19.29   -17.81   3.64      2955    1813      -0      1.43    13.33  43.33       -0.0  2.30000 
 573.500  25882.1    -0.06     1.50  -1.74      3018    1820      -2      0.42    16.25  39.17        4.8  2.20000 
 573.600  25946.5    -5.89     2.86  -0.06      2998    1817      -0      0.00    15.22  42.61        3.3  2.10000 
 573.700  26020.0    -7.75     9.10  -1.64      3025    1818       2      0.00    17.73  42.27        9.1  2.10000 
 573.800  25765.2    16.51    -8.44   1.50      3027    1818       4      1.43    17.14  43.33       14.3  2.00000 
 573.900  25880.5    18.23   -13.84   4.28      3089    1808       5      1.43    15.24  46.67       14.0  2.10000 
 574.000  25984.5    16.61    -5.24   1.93      3085    1814       8      1.50    19.00  46.00       22.5  2.10000 
 574.100  25842.4    -0.04     4.13  -2.24      3070    1816      -1      0.48    17.62  39.52       19.6  1.90000 
 574.200  26053.3    -1.09     8.10  -1.60      2991    1823       5      0.48    19.52  42.86       10.0  2.00000 
 574.300  26006.8    -0.40     7.81  -2.42      3035    1816       3      0.53    19.47  41.05        8.3  1.80000 
 574.400  26048.5    -1.94    11.38  -4.86      3068    1812       0      0.50    20.50  37.50        7.6  1.80000 
 574.500  25918.9    32.75   -28.70   0.99      3088    1819     -10      2.22    11.67  33.89        5.5  1.70000 
 574.600  25856.1     8.11     5.85  -0.70      3079    1811      10      1.11    21.67  45.00        4.8  1.80000 
 574.700  25708.8    -4.49    -2.18  -0.12      3098    1805      -5      0.00    12.94  40.00        7.8  1.80000 
 574.800  25811.7     0.87     4.78  -1.98      3027    1818       1      0.56    18.33  40.56        9.7  1.70000 
 574.900  25977.8     3.15    -3.59  -2.65      2898    1822      -8      0.56    14.44  35.00        4.2  1.80000 
 575.000  25942.9     1.27     5.68   0.80      3010    1820       9      0.59    19.41  47.06        6.4  3.45000 
 575.100  25867.2    11.03    -3.41   3.74      3133    1813      11      1.11    18.33  50.00        5.5  2.15000 
 575.200  25816.5     8.34    -5.95  -0.65      2967    1821      -3      0.88    15.29  38.82        5.7  1.80000 
 575.300  26075.5    -4.69    18.97  -5.18      3012    1819       6      0.45    23.64  40.45        6.2  1.90000 
 575.400  25768.3    39.99   -27.63   2.27      3018    1812      -2      2.78    15.00  38.33        1.3  1.90000 
 575.500  25912.6    21.64   -19.31   2.53      3073    1811      -3      1.58    13.16  40.53        0.9  2.10000 
 575.600  25821.6    -1.24    11.01  -1.68      2983    1818       8      0.53    21.05  44.21        2.6  2.10000 
 575.700  25993.3     8.92    -4.67  -0.68      3080    1806      -2      0.95    16.19  39.52        1.7  2.10000 
 575.800  25871.0     1.32     0.36   1.72      3051    1816       5      0.48    16.67  46.19        4.0  2.20000 
 575.900  25996.2    -6.26     3.67  -1.90      2990    1818      -4      0.00    15.24  39.05        6.2  2.10000 
 576.000  25727.7    14.60    -5.81  -2.49      2927    1818      -4      1.36    17.27  35.91        9.8  2.10000 
 576.100  25831.0     7.50     0.92   1.14      2954    1813       8      0.95    19.05  46.19        5.5  2.00000 
 576.200  25891.9    -5.99     3.51   1.01      3054    1816       3      0.00    15.71  45.24        1.9  2.00000 
 576.300  25953.5    13.29   -16.20   6.08      2971    1819       4      1.00    12.50  48.50       10.4  2.00000 
 576.400  25955.5    -5.71     2.72   1.78      2954    1823       4      0.00    15.50  46.50        7.9  2.00000 
 576.500  25970.0    -1.10     8.23  -5.30      2966    1817      -4      0.50    19.00  35.00        1.7  1.90000 
 576.600  26043.0     8.40     0.10   1.65      2992    1819       9      1.00    19.00  47.00        3.7  1.93000 
 576.700  26113.7     3.97    -5.36   6.70      2996    1824      12      0.53    15.26  54.21        1.7  1.77000 
 576.800  25926.3    29.94   -23.75   2.80      3028    1817      -2      2.11    13.68  40.00       -0.0  1.80000 
 576.900  25681.7     4.80    -8.64   0.57      3037    1820      -5      0.56    12.78  39.44        2.4  1.70000 
 577.000  25760.6    39.42   -25.91   1.11      3041    1810      -3      2.78    15.56  36.67        1.0  1.80000 
 577.100  25812.4     2.44     1.59   1.19      3022    1814       6      0.59    17.65  45.88        2.7  1.80000 
 577.200  25911.1    10.26    -1.75  -0.25      3027    1818       3      1.11    18.33  42.22        6.7  1.90000 
 577.300  25780.0    32.44   -27.04   2.93      2966    1821      -4      2.22    12.78  38.89        2.9  1.80000 
 577.400  25891.1    -7.35     7.91  -0.72      3103    1812       3      0.00    17.37  43.68        1.6  1.90000 
 577.500  26118.9    -5.62     1.10  -2.93      2942    1818      -9      0.00    13.89  35.56        3.3  1.80000 
 577.600  25870.5     9.61    -2.66  -1.75      2996    1809      -1      1.05    17.37  38.42        6.4  1.70000 
 577.700  25835.6     5.06    -8.70   3.68      3000    1815       2      0.56    13.33  46.11       10.6  1.80000 
 577.800  25859.4    -9.03    13.35  -2.85      3045    1824       3      0.00    19.41  41.76        9.1  1.90000 
 577.900  25957.8    -6.93     4.90  -6.12      3142    1804     -13      0.00    15.00  30.56       10.6  1.90000 
 578.000  25852.1     5.28   -10.99   3.35      2979    1821      -1      0.53    12.11  44.21        5.6  2.10000 
 578.100  25783.7    -9.97    16.35  -4.11      2936    1821       3      0.00    20.53  40.53        7.1  2.04000 
 578.200  25888.6     2.96    -5.29   2.57      3015    1817       2      0.48    14.29  45.24        6.8  2.06000 
 578.300  25933.0     3.08    -4.76   1.85      2930    1825       1      0.50    14.50  44.00        7.4  2.00000 
 578.400  25952.9    17.67   -11.34   5.92      2966    1824      11      1.43    16.67  51.43        3.5  2.00000 
 578.500  25886.5    13.70     4.60  -0.31      3037    1822      12      1.50    23.00  46.00        5.9  2.00000 
