~Version Information
 VERS.                2.0:  CWLS LOG ASCII STANDARD -VERSION 2.0
 WRAP.                 NO:  ONE LINE PER DEPTH STEP
~WELL INFORMATION BLOCK
#MNEM.UNIT       DATA		            DESCRIPTION OF MNEMONIC
#---------    -------------            ------------------------
 STRT.FT  5.900                          :START DEPTH
 STOP.FT  1425.400                       :STOP DEPTH
 STEP.FT  0.100                          :STEP    UP_HOLE  
 NULL.    0                              :NULL VALUE
 COMP.                             USGS  :COMPANY
 WELL.                             DMW1  :WELL
 FLD .      MARINA COAST WATER DISTRICT  :FIELD
 LOC .    None  None  None               :LOCATION
 CNTY.                        MONTERY ?  :COUNTY
 STAT.                     CA            :STATE
 SRVC.    PORTLAND, O                    :SERVICE COMPANY
 DATE.   11/17/00                        :LOG DATE
 UWI .                       	         :UNIQUE WELL ID
 LIC .                                   :LICENSE NUMBER
~Curve Information Block
#MNEM.UNIT      API CODE     Curve Description
#---------    -------------  ------------------------
 DEPT     .FT        00 001 00 00          :  1  DEPTH   
 TOT GAM  .CPS       00 000 00 00          :  2              TOT GAM
 THORIUM  .PPM       00 790 00 00          :  3              THORIUM
 URANIUM  .PPM       00 792 00 00          :  4              URANIUM
 POTASIUM .PERCENT   00 719 00 00          :  5             POTASIUM
 PILOT W  .CPS       00 000 00 00          :  6              PILOT W
 DAC      .MV        00 000 00 00          :  7                  DAC
 GAM(KUT) .CPS       00 310 00 00          :  8             GAM(KUT)
 THORIUM  .CPS       00 790 00 00          :  9              THORIUM
 URANIUM  .CPS       00 792 00 00          : 10              URANIUM
 POTASIUM .CPS       00 719 00 00          : 11             POTASIUM
 TENSION  .POUNDS    00 000 00 00          : 12              TENSION
 TIME     .MINUTES   00 000 00 00          : 13                 TIME
~Parameter Information Block
#MNEM.UNIT   Information     Description
#---------- ---------------  ------------------------
~Other Information
#MNEM.UNIT  Information      Description
#---------- ---------------  ------------------------
 FILE.      ORIGINAL           File Type
 FIID.      9080C              File Type Identifier
 VERS.      1.0                System Version
 SER .      1                  System Serial Number
 TRUK.      0.50000            Truck Calibration Number
 TOOL.         263             Tool Serial Number
 TIME.      11:55:             Time
 LAT .          None           Latitude
 LON .          None           Longitude
 LMF .       TOC-PVC           Log Measured From
 DMF .          None           Driller Measured From
 PD  .           TOC           Permanent Data
 PDEV.          None           Elevation Permanent Data
 EKB .M         None           Elevation Kelly Bushing
 ELEV.DF        None           Elevation DF
 EGL .M         None           Elevation Ground Level
 DRDP.          None           Driller's Depth
 CASD.         3               Casing Diameter
 CASB.          1870           Casing Bottom
 CASX.           PVC           Casing Type
 CAST.         0               Casing Thickness
 TNOC.          None           Time Circulation Stopped
 LOGU.       CENT              Logging Unit
 RECB.          KKNUTSON       Recorded By
 OSR1.          None           Other Services
 OSR2.          None           Other Services
 OSR3.          None           Other Services
 BS  .MM           6           Bit Size
 MST .                         Mean Surface Temperature
 TGRD.        0                Temperature Gradiant
 MAGN.             0           Magnetic Declination
 MDEN.      2.71               Density Matrix
 MATR.       Dolomite          Neutron Matrix
 DTMT.            54           Delta T Matrix
 DTFL.                         Delta T Fluid
 MUDS.               0         Mud Sample Source
 MRS .           0             Mud Resistivity
 MTP .           0             Mud Temperature
 MFRS.                         Resistivity Mud Filtrate
 MFTP.                         Temperature Mud Filtrate
 MCRS.         0               Resistivity Mud Cake
 MCTP.                         Temperature Mud Cake
 FTYP.             0           Fluid Type
 FD  .K/M3                     Fluid Density
 DFV .S                        Fluid Viscosity
 FPH .                         Fuild PH
 ELCO.        2500             Electron Cutoff
# -------------------------- 
~A DEPTH  TOT GAM  THORIUM  URANIUM  POTASIUM PILOT W DAC     GAM(KUT) THORIUM  URANIUM  POTASIUM TENSION  TIME    
# ...
1040.900  26370.0    13.39   -10.96   7.02      2956    1808      12      1.11    15.56  53.33       31.9  1.80000 
1041.000  26210.6    -3.18    18.44  -5.11      2869    1817       7      0.56    23.89  40.56       36.1  1.90000 
1041.100  26022.8     3.09    -3.47  -2.93      2989    1803      -9      0.56    14.44  34.44       32.8  1.90000 
1041.200  26263.7     7.91   -19.93   5.15      3027    1811      -6      0.53     8.42  43.68       18.9  2.00000 
1041.300  25892.1    11.97   -10.53   0.30      3017    1802      -4      1.05    14.21  38.95       16.2  2.10000 
1041.400  26304.5     1.42     0.58  -0.30      3006    1805       1      0.50    16.50  42.00       10.1  2.00000 
1041.500  26387.1     9.93    -7.27   3.01      2989    1810       5      0.95    15.71  46.19        0.2  2.10000 
1041.600  26206.5    -2.23    -8.78   5.34      3035    1806       1      0.00    11.00  48.50        8.4  2.00000 
1041.700  26180.5   -10.66    19.50  -1.76      2996    1808      11      0.00    22.38  47.14       12.9  2.00000 
1041.800  26157.5    -7.17     7.63   0.66      3013    1803       6      0.00    17.50  46.50       23.6  2.00000 
1041.900  26275.0     9.03    -2.14   1.70      3032    1805       7      1.00    18.00  46.00       30.5  2.00000 
1042.000  26156.0    10.59    -7.27   3.34      3058    1808       6      1.00    16.00  47.00       24.8  2.00000 
1042.100  26366.0    -8.13    10.15  -2.70      2965    1810       0      0.00    18.00  40.50       17.6  1.90000 
1042.200  25979.0     6.04   -14.70   4.36      3058    1802      -3      0.50    10.50  44.50        8.0  1.90000 
1042.300  26200.5     1.36     3.08   3.31      3042    1805      12      0.53    18.42  51.05        1.0  1.80000 
1042.400  26157.9     4.79    -9.47   2.51      3071    1804      -2      0.53    12.63  43.16        2.0  1.90000 
1042.500  26340.6    12.80   -10.18   2.20      2984    1811       1      1.11    15.00  43.33        0.8  1.80000 
1042.600  26165.3     5.05   -10.03   3.86      3032    1806       1      0.53    12.63  45.79        0.2  1.80000 
1042.700  26171.1    29.88   -18.07   2.17      3017    1806       2      2.22    16.67  41.67       11.0  1.97000 
1042.800  26193.3     1.58     3.24   1.72      3049    1806       8      0.56    18.33  47.78       20.9  1.73000 
1042.900  26359.5    -6.39     5.38   2.55      2930    1816       8      0.00    16.84  49.47       13.4  1.90000 
1043.000  26543.3     3.90    -4.72   3.03      3045    1808       4      0.56    15.00  46.67        8.0  1.80000 
1043.100  26153.2    11.69    -8.06   5.60      2965    1812      11      1.05    16.32  51.58        2.0  1.90000 
1043.200  26302.2     4.71    -7.45   3.65      3036    1808       3      0.56    13.89  46.67        3.9  1.90000 
1043.300  26324.7   -10.45    17.87  -4.95      3108    1807       2      0.00    21.05  39.47        7.8  1.90000 
1043.400  26307.4    -8.05    11.29   2.42      2962    1811      13      0.00    19.47  52.11        6.5  2.10000 
1043.500  26203.2    12.33   -11.32   2.19      2993    1805      -0      1.05    14.21  42.63        9.1  2.00000 
1043.600  26241.9    -7.14     7.69   1.16      2981    1811       7      0.00    17.62  47.62        3.2  2.10000 
1043.700  26147.5     4.19    -8.93   1.18      3037    1800      -5      0.50    12.50  40.50       12.3  2.00000 
1043.800  26289.0    14.23    -0.55   0.36      3017    1808       8      1.43    20.48  44.76       15.8  2.00000 
1043.900  26234.5    -0.48     7.80   1.07      2989    1804      11      0.50    20.00  48.50       13.7  2.00000 
1044.000  26368.0     0.64     3.15  -1.12      3050    1804       1      0.50    17.50  41.50        0.9  2.00000 
1044.100  26236.0    -8.61    12.07  -1.98      2947    1813       4      0.00    19.00  43.00        5.5  1.90000 
1044.200  26003.5    -2.42    13.31  -4.14      3012    1806       4      0.50    21.50  40.00        0.6  2.00000 
1044.300  26198.9    -8.62    12.53  -0.55      3023    1806       8      0.00    19.47  46.32        1.0  2.00000 
1044.400  26169.0    -5.71    24.85  -5.15      3021    1811      12      0.50    26.50  43.50        5.5  1.90000 
1044.500  26238.5     2.13    -1.40   1.78      3085    1798       4      0.50    16.00  45.50        7.8  1.80000 
1044.600  26033.7     4.48    -7.39   5.95      3056    1806       8      0.53    14.21  51.58        6.5  1.80000 
1044.700  26190.6     2.04     0.27  -3.01      2912    1810      -5      0.56    16.11  36.11        6.3  1.70000 
1044.800  25940.0    -6.16     3.24  -2.13      2979    1804      -5      0.00    15.00  38.33        6.9  1.60000 
1044.900  25994.7    -5.23     0.46  -0.18      2958    1811      -3      0.00    14.12  41.18       10.4  1.60000 
1045.000  25921.9    -5.08    -0.19  -0.57      2999    1805      -4      0.00    13.75  40.00       20.8  1.70000 
1045.100  26318.1     1.74     6.09   2.04      3072    1810      12      0.63    20.00  50.00       19.2  1.80000 
1045.200  26074.1    -0.17     9.83  -2.88      2982    1814       4      0.59    20.59  41.18       16.9  1.80000 
1045.300  26182.8     4.51    -7.51   0.83      2984    1808      -4      0.56    13.33  40.56       24.9  1.90000 
1045.400  26192.2     4.66    -7.33   3.37      2953    1810       2      0.56    13.89  46.11       10.5  1.90000 
1045.500  25988.4     8.34     0.55  -6.64      3010    1815     -10      1.05    17.89  29.47        6.0  2.40000 
1045.600  26124.7    14.58     4.32  -3.60      2996    1810       5      1.58    22.63  38.95       12.9  2.70000 
1045.700  25907.9     4.78     3.95  -2.51      2952    1812       1      0.83    19.17  39.58       10.5  2.90000 
1045.800  26125.9    -8.08    10.50  -0.78      3017    1807       5      0.00    18.52  44.81        8.2  2.90000 
1045.900  26040.7     5.91    -6.20   0.46      2970    1811      -2      0.69    14.48  40.69        2.5  3.10000 
1046.000  26199.3    18.39    -1.74  -1.23      3021    1807       6      1.72    21.03  41.38        1.9  2.80000 
1046.100  26072.3     2.84     1.94  -2.27      2991    1810      -1      0.65    17.42  38.71        2.7  2.70000 
1046.200  26071.4     4.78    -0.78   1.04      3045    1798       4      0.71    17.14  44.64        1.7  2.70000 
1046.300  25900.7     0.98    12.56  -4.54      2988    1809       4      0.74    22.22  39.26        2.6  2.70000 
1046.400  25986.3     4.70     0.61   0.43      2914    1811       4      0.74    17.78  44.07        1.4  2.50000 
1046.500  26128.1    -0.13    -0.11  -0.43      3030    1809      -1      0.37    15.56  41.11        6.3  2.30000 
1046.600  26084.8     0.34    -0.35  -0.36      3018    1811      -1      0.40    15.60  41.20       11.6  2.10000 
1046.700  26212.6     5.84     1.38  -4.39      3021    1809      -5      0.87    17.83  34.35       18.7  2.00000 
1046.800  26159.0    -1.48    10.64   2.46      2979    1810      17      0.48    21.43  52.86       24.8  2.00000 
1046.900  26217.0     9.12    -3.21  -1.07      3038    1803      -1      1.00    17.00  39.50       23.1  1.80000 
1047.000  26108.0     2.65    -2.95   2.83      3035    1805       5      0.50    15.50  47.00       15.0  1.80000 
1047.100  25747.8    22.38   -17.60   3.11      3015    1804       1      1.67    14.44  42.78       10.9  1.80000 
1047.200  26230.0     3.40    -3.65   0.46      3018    1812      -1      0.56    15.00  41.67        0.3  1.90000 
1047.300  26100.6    -9.65    15.71  -2.40      3078    1800       6      0.00    20.56  43.89        0.3  1.80000 
1047.400  26222.6    -6.22     4.54   1.77      3042    1809       5      0.00    16.32  47.37        0.9  1.80000 
1047.500  26185.6    -6.69     5.37  -1.33      2991    1813      -1      0.00    16.11  41.11        3.7  1.81000 
1047.600  26151.7     4.10    -4.66   5.85      2983    1809      11      0.56    15.56  52.78        4.0  1.79000 
1047.700  25974.4    19.14    -6.67   0.61      2908    1801       5      1.67    18.89  42.78        2.6  1.90000 
