~Version Information
 VERS.                2.0:  CWLS LOG ASCII STANDARD -VERSION 2.0
 WRAP.                 NO:  ONE LINE PER DEPTH STEP
~WELL INFORMATION BLOCK
#MNEM.UNIT       DATA		            DESCRIPTION OF MNEMONIC
#---------    -------------            ------------------------
 STRT.FT  5.900                          :START DEPTH
 STOP.FT  1425.400                       :STOP DEPTH
 STEP.FT  0.100                          :STEP    UP_HOLE  
 NULL.    0                              :NULL VALUE
 COMP.                             USGS  :COMPANY
 WELL.                             DMW1  :WELL
 FLD .      MARINA COAST WATER DISTRICT  :FIELD
 LOC .    None  None  None               :LOCATION
 CNTY.                        MONTERY ?  :COUNTY
 STAT.                     CA            :STATE
 SRVC.    PORTLAND, O                    :SERVICE COMPANY
 DATE.   11/17/00                        :LOG DATE
 UWI .                       	         :UNIQUE WELL ID
 LIC .                                   :LICENSE NUMBER
~Curve Information Block
#MNEM.UNIT      API CODE     Curve Description
#---------    -------------  ------------------------
 DEPT     .FT        00 001 00 00          :  1  DEPTH   
 TOT GAM  .CPS       00 000 00 00          :  2              TOT GAM
 THORIUM  .PPM       00 790 00 00          :  3              THORIUM
 URANIUM  .PPM       00 792 00 00          :  4              URANIUM
 POTASIUM .PERCENT   00 719 00 00          :  5             POTASIUM
 PILOT W  .CPS       00 000 00 00          :  6              PILOT W
 DAC      .MV        00 000 00 00          :  7                  DAC
 GAM(KUT) .CPS       00 310 00 00          :  8             GAM(KUT)
 THORIUM  .CPS       00 790 00 00          :  9              THORIUM
 URANIUM  .CPS       00 792 00 00          : 10              URANIUM
 POTASIUM .CPS       00 719 00 00          : 11             POTASIUM
 TENSION  .POUNDS    00 000 00 00          : 12              TENSION
 TIME     .MINUTES   00 000 00 00          : 13                 TIME
~Parameter Information Block
#MNEM.UNIT   Information     Description
#---------- ---------------  ------------------------
~Other Information
#MNEM.UNIT  Information      Description
#---------- ---------------  ------------------------
 FILE.      ORIGINAL           File Type
 FIID.      9080C              File Type Identifier
 VERS.      1.0                System Version
 SER .      1                  System Serial Number
 TRUK.      0.50000            Truck Calibration Number
 TOOL.         263             Tool Serial Number
 TIME.      11:55:             Time
 LAT .          None           Latitude
 LON .          None           Longitude
 LMF .       TOC-PVC           Log Measured From
 DMF .          None           Driller Measured From
 PD  .           TOC           Permanent Data
 PDEV.          None           Elevation Permanent Data
 EKB .M         None           Elevation Kelly Bushing
 ELEV.DF        None           Elevation DF
 EGL .M         None           Elevation Ground Level
 DRDP.          None           Driller's Depth
 CASD.         3               Casing Diameter
 CASB.          1870           Casing Bottom
 CASX.           PVC           Casing Type
 CAST.         0               Casing Thickness
 TNOC.          None           Time Circulation Stopped
 LOGU.       CENT              Logging Unit
 RECB.          KKNUTSON       Recorded By
 OSR1.          None           Other Services
 OSR2.          None           Other Services
 OSR3.          None           Other Services
 BS  .MM           6           Bit Size
 MST .                         Mean Surface Temperature
 TGRD.        0                Temperature Gradiant
 MAGN.             0           Magnetic Declination
 MDEN.      2.71               Density Matrix
 MATR.       Dolomite          Neutron Matrix
 DTMT.            54           Delta T Matrix
 DTFL.                         Delta T Fluid
 MUDS.               0         Mud Sample Source
 MRS .           0             Mud Resistivity
 MTP .           0             Mud Temperature
 MFRS.                         Resistivity Mud Filtrate
 MFTP.                         Temperature Mud Filtrate
 MCRS.         0               Resistivity Mud Cake
 MCTP.                         Temperature Mud Cake
 FTYP.             0           Fluid Type
 FD  .K/M3                     Fluid Density
 DFV .S                        Fluid Viscosity
 FPH .                         Fuild PH
 ELCO.        2500             Electron Cutoff
# -------------------------- 
~A DEPTH  TOT GAM  THORIUM  URANIUM  POTASIUM PILOT W DAC     GAM(KUT) THORIUM  URANIUM  POTASIUM TENSION  TIME    
# ...
 951.200  26196.5     6.42     5.72  -3.81      3060    1803       1      1.00    20.50  38.00       14.4  2.10000 
 951.300  26170.5    18.09   -10.64   1.54      2989    1809       2      1.50    16.50  42.50       20.6  1.90000 
 951.400  26006.7     8.26    -1.98   0.47      2958    1806       4      0.95    17.62  43.33       13.9  2.00000 
 951.500  26033.2    -7.65     9.49   1.12      2999    1797       9      0.00    18.42  48.42       19.9  1.90000 
 951.600  26120.5     2.27    -1.24   4.06      3053    1799       9      0.50    16.50  50.50       10.4  1.99000 
 951.700  26070.5    12.30   -11.71   0.32      2978    1803      -5      1.05    13.68  38.42        5.1  1.81000 
 951.800  26243.7     9.75    -2.49   0.66      3014    1806       4      1.05    17.89  43.68        8.4  1.90000 
 951.900  26128.9     1.06     3.25   0.09      3106    1797       4      0.53    17.89  44.21        6.6  1.80000 
 952.000  26327.9     3.71    -6.20   0.30      3042    1797      -4      0.53    13.68  40.00       13.4  1.80000 
 952.100  26195.6     1.49     2.94  -0.53      2869    1814       3      0.56    17.78  42.78        8.0  1.80000 
 952.200  26113.3    14.01   -14.28   3.13      3009    1811      -0      1.11    13.33  43.33        1.9  1.80000 
 952.300  25887.8    21.83   -16.41   0.25      3040    1799      -5      1.67    14.44  37.22        2.6  1.70000 
 952.400  25957.8    22.95   -17.84   9.61      3030    1802      16      1.67    15.56  56.67        5.5  1.80000 
 952.500  26132.9    24.96   -22.61   1.50      3010    1804      -7      1.76    12.35  37.06        4.6  1.79000 
 952.600  26045.0     2.41    -0.03   0.66      2983    1802       3      0.56    16.67  43.89        1.6  1.81000 
 952.700  26127.1    14.10   -11.11   4.35      2997    1799       6      1.18    15.29  47.65        1.0  1.80000 
 952.800  26048.4    -5.64     1.89  -0.32      2991    1808      -2      0.00    14.74  41.58        1.7  1.70000 
 952.900  26350.0     0.52     6.03  -2.01      2934    1807       2      0.56    18.89  41.11        6.3  1.80000 
 953.000  26247.6    -4.14    -2.94   1.69      3060    1801      -2      0.00    12.94  43.53        3.4  1.70000 
 953.100  26122.2     9.97    -0.62   0.01      3075    1799       5      1.11    18.89  43.33        1.6  1.90000 
 953.200  26211.2    15.17   -15.51   2.35      3075    1799      -3      1.18    12.94  41.18       -0.0  1.80000 
 953.300  25999.5    11.24    -7.55   1.57      3005    1806       2      1.05    15.79  43.16        1.2  2.00000 
 953.400  26281.7    -0.02     8.17  -1.21      2999    1809       6      0.56    20.00  43.89        6.6  2.00000 
 953.500  26040.5    -0.04     5.50  -1.42      3034    1804       3      0.50    18.50  42.00        5.4  2.00000 
 953.600  26142.0    16.93    -6.36   1.96      3032    1809       7      1.50    18.50  45.50        0.7  2.00000 
 953.700  26243.5    23.88    -8.55  -2.66      2960    1806      -2      2.00    19.00  35.50        1.4  2.00000 
 953.800  26174.0   -13.69    28.80  -7.43      3020    1808       7      0.00    25.50  39.50        1.8  2.00000 
 953.900  25926.5    16.76    -6.89  -2.10      2918    1809      -3      1.50    17.50  36.50        6.6  1.90000 
 954.000  26302.5    -5.15     1.06   3.09      2925    1814       5      0.00    15.00  48.50        8.4  1.90000 
 954.100  26056.3    12.61   -12.39   1.94      3009    1801      -2      1.05    13.68  41.58        7.2  1.80000 
 954.200  26201.6    -1.24    11.01  -1.68      2923    1813       8      0.53    21.05  44.21        6.7  1.90000 
 954.300  26211.1   -10.66    18.38  -5.85      3047    1800       1      0.00    21.11  37.78        7.1  1.90000 
 954.400  26086.8    -4.40    -1.71   2.71      3053    1805       2      0.00    13.68  46.32        7.4  1.80000 
 954.500  26167.4    -8.33    12.36   2.67      3017    1802      15      0.00    20.00  53.16        7.9  1.80000 
 954.600  26102.8     3.55    -3.47   3.00      2992    1808       5      0.56    15.56  47.22        8.1  1.80000 
 954.700  26275.0    -6.65     5.79   0.64      3087    1798       4      0.00    16.67  45.56       10.9  1.70000 
 954.800  26243.3    -5.86     3.59   2.95      3060    1808       7      0.00    16.11  49.44       13.8  1.80000 
 954.900  26290.0    -4.69    -1.24   0.76      3004    1804      -2      0.00    13.53  42.35        9.9  1.80000 
 955.000  25981.1     1.90     1.58  -0.22      2959    1799       2      0.56    17.22  42.78        3.2  1.70000 
 955.100  26076.1    10.50    -2.76  -0.79      3006    1806       1      1.11    17.78  40.56        0.2  1.80000 
 955.200  26186.5     2.15     2.22  -0.32      3049    1804       3      0.59    17.65  42.94        0.7  1.80000 
 955.300  26365.0     8.86     1.76  -5.69      3091    1797      -6      1.11    18.89  32.22       -0.0  1.70000 
 955.400  25962.2    -8.51    10.78  -5.40      2918    1813      -5      0.00    17.78  35.00       -0.0  1.90000 
 955.500  26244.1    45.66   -37.63  11.19      3031    1806      11      2.94    12.94  52.94       -0.0  1.98000 
 955.600  26012.6    19.65   -12.22   2.38      2886    1808       3      1.58    16.32  43.68       -0.0  1.92000 
 955.700  26132.6    -9.77    16.41  -1.44      3043    1808       9      0.00    21.05  46.32       -0.0  2.00000 
 955.800  26029.0   -12.45    24.79  -5.82      2986    1800       7      0.00    24.00  41.00        3.9  1.90000 
 955.900  26238.5     7.26     2.57  -4.25      2989    1800      -3      1.00    19.00  35.50        2.5  2.00000 
 956.000  26247.9    10.36    -4.74   0.44      3127    1804       2      1.05    16.84  42.11        0.5  1.90000 
 956.100  26297.5    -5.91     3.15   0.75      3037    1802       2      0.00    15.50  44.50       -0.0  1.90000 
 956.200  26263.2     4.43    -8.68   0.62      3035    1813      -6      0.53    12.63  39.47        3.5  1.89000 
 956.300  26085.8    -7.72     8.70  -2.61      2927    1809      -1      0.00    17.37  40.00       15.6  1.91000 
 956.400  26151.1    -2.67    18.32   1.11      2948    1810      21      0.56    25.00  53.89       22.6  1.90000 
 956.500  26100.5    17.79    -8.66   4.81      2996    1794      12      1.50    18.00  50.50       25.0  1.80000 
 956.600  26260.5    11.20    -7.94  -0.29      3080    1803      -3      1.05    15.26  38.95       18.6  1.80000 
 956.700  26225.0    -8.27    11.25  -0.61      2963    1811       6      0.00    18.89  45.56       12.5  1.80000 
 956.800  25965.6    10.32    -1.87   0.04      3028    1802       4      1.11    18.33  42.78       10.7  1.70000 
 956.900  26192.8     5.43    -9.00   7.36      2994    1806      10      0.56    13.89  53.89       13.7  1.80000 
 957.000  26081.2     1.76     2.54  -4.22      3051    1806      -6      0.59    17.06  34.71        5.2  1.80000 
 957.100  26369.4     5.43    -9.00   7.36      3014    1804      10      0.56    13.89  53.89        1.5  1.70000 
 957.200  26219.4     3.26    -2.35   3.26      3037    1801       7      0.56    16.11  48.33       -0.0  1.80000 
 957.300  26370.0    -2.11    -9.92   2.74      3078    1802      -6      0.00    10.00  42.35       -0.0  1.90000 
 957.400  26248.9     0.76     5.02  -2.55      3067    1806       0      0.56    18.33  39.44       -0.0  1.70000 
 957.500  26077.9     0.26     5.44  -2.36      2939    1808       1      0.53    18.42  40.00       -0.0  1.80000 
 957.600  26147.6     4.60    -6.20   1.06      2998    1801      -2      0.59    14.12  41.76        0.6  1.80000 
 957.700  26280.0    -0.59     9.89  -2.38      3014    1806       5      0.56    20.56  42.22        3.5  1.90000 
 957.800  26177.8    -6.89     6.80   1.18      2978    1806       6      0.00    17.22  47.22        8.4  1.90000 
 957.900  26242.1    -7.65     9.49   1.12      2969    1806       9      0.00    18.42  48.42        5.8  1.90000 
 958.000  26123.2     2.06    -0.30   0.17      3089    1797       1      0.53    16.32  42.63        5.2  2.04000 
