~Version Information
 VERS.                2.0:  CWLS LOG ASCII STANDARD -VERSION 2.0
 WRAP.                 NO:  ONE LINE PER DEPTH STEP
~WELL INFORMATION BLOCK
#MNEM.UNIT       DATA		            DESCRIPTION OF MNEMONIC
#---------    -------------            ------------------------
 STRT.FT  5.900                          :START DEPTH
 STOP.FT  1425.400                       :STOP DEPTH
 STEP.FT  0.100                          :STEP    UP_HOLE  
 NULL.    0                              :NULL VALUE
 COMP.                             USGS  :COMPANY
 WELL.                             DMW1  :WELL
 FLD .      MARINA COAST WATER DISTRICT  :FIELD
 LOC .    None  None  None               :LOCATION
 CNTY.                        MONTERY ?  :COUNTY
 STAT.                     CA            :STATE
 SRVC.    PORTLAND, O                    :SERVICE COMPANY
 DATE.   11/17/00                        :LOG DATE
 UWI .                       	         :UNIQUE WELL ID
 LIC .                                   :LICENSE NUMBER
~Curve Information Block
#MNEM.UNIT      API CODE     Curve Description
#---------    -------------  ------------------------
 DEPT     .FT        00 001 00 00          :  1  DEPTH   
 TOT GAM  .CPS       00 000 00 00          :  2              TOT GAM
 THORIUM  .PPM       00 790 00 00          :  3              THORIUM
 URANIUM  .PPM       00 792 00 00          :  4              URANIUM
 POTASIUM .PERCENT   00 719 00 00          :  5             POTASIUM
 PILOT W  .CPS       00 000 00 00          :  6              PILOT W
 DAC      .MV        00 000 00 00          :  7                  DAC
 GAM(KUT) .CPS       00 310 00 00          :  8             GAM(KUT)
 THORIUM  .CPS       00 790 00 00          :  9              THORIUM
 URANIUM  .CPS       00 792 00 00          : 10              URANIUM
 POTASIUM .CPS       00 719 00 00          : 11             POTASIUM
 TENSION  .POUNDS    00 000 00 00          : 12              TENSION
 TIME     .MINUTES   00 000 00 00          : 13                 TIME
~Parameter Information Block
#MNEM.UNIT   Information     Description
#---------- ---------------  ------------------------
~Other Information
#MNEM.UNIT  Information      Description
#---------- ---------------  ------------------------
 FILE.      ORIGINAL           File Type
 FIID.      9080C              File Type Identifier
 VERS.      1.0                System Version
 SER .      1                  System Serial Number
 TRUK.      0.50000            Truck Calibration Number
 TOOL.         263             Tool Serial Number
 TIME.      11:55:             Time
 LAT .          None           Latitude
 LON .          None           Longitude
 LMF .       TOC-PVC           Log Measured From
 DMF .          None           Driller Measured From
 PD  .           TOC           Permanent Data
 PDEV.          None           Elevation Permanent Data
 EKB .M         None           Elevation Kelly Bushing
 ELEV.DF        None           Elevation DF
 EGL .M         None           Elevation Ground Level
 DRDP.          None           Driller's Depth
 CASD.         3               Casing Diameter
 CASB.          1870           Casing Bottom
 CASX.           PVC           Casing Type
 CAST.         0               Casing Thickness
 TNOC.          None           Time Circulation Stopped
 LOGU.       CENT              Logging Unit
 RECB.          KKNUTSON       Recorded By
 OSR1.          None           Other Services
 OSR2.          None           Other Services
 OSR3.          None           Other Services
 BS  .MM           6           Bit Size
 MST .                         Mean Surface Temperature
 TGRD.        0                Temperature Gradiant
 MAGN.             0           Magnetic Declination
 MDEN.      2.71               Density Matrix
 MATR.       Dolomite          Neutron Matrix
 DTMT.            54           Delta T Matrix
 DTFL.                         Delta T Fluid
 MUDS.               0         Mud Sample Source
 MRS .           0             Mud Resistivity
 MTP .           0             Mud Temperature
 MFRS.                         Resistivity Mud Filtrate
 MFTP.                         Temperature Mud Filtrate
 MCRS.         0               Resistivity Mud Cake
 MCTP.                         Temperature Mud Cake
 FTYP.             0           Fluid Type
 FD  .K/M3                     Fluid Density
 DFV .S                        Fluid Viscosity
 FPH .                         Fuild PH
 ELCO.        2500             Electron Cutoff
# -------------------------- 
~A DEPTH  TOT GAM  THORIUM  URANIUM  POTASIUM PILOT W DAC     GAM(KUT) THORIUM  URANIUM  POTASIUM TENSION  TIME    
# ...
1137.500  26250.5    11.65   -11.33   2.41      3006    1814      -0      1.00    14.00  43.00       26.6  2.04000 
1137.600  26199.0    -0.30     6.52  -1.19      2985    1813       4      0.50    19.00  43.00       25.9  1.86000 
1137.700  26217.5     4.92   -11.39   1.74      3069    1809      -6      0.50    11.50  40.50       23.9  2.00000 
1137.800  26219.5    13.00   -12.28   7.29      3031    1808      11      1.05    14.74  53.16       33.1  2.00000 
1137.900  26059.5    -0.66     7.75  -1.47      2982    1815       5      0.50    19.50  43.00       41.8  2.00000 
1138.000  26086.0     3.06    -4.28   3.37      2943    1811       5      0.50    15.00  47.50       33.4  1.90000 
1138.100  26132.5    -2.37    14.53   0.92      3042    1812      17      0.50    23.00  51.50       18.1  1.80000 
1138.200  26122.1     9.96    -2.94   1.74      3115    1808       7      1.05    17.89  45.79       12.2  1.82000 
1138.300  26169.4     1.03     4.43  -1.13      3054    1811       3      0.56    18.33  42.22       16.1  1.68000 
1138.400  25897.8     0.06     7.51  -2.61      3044    1812       2      0.56    19.44  40.56       14.9  1.70000 
1138.500  26178.8    29.87   -11.85   1.76      3069    1814       8      2.35    20.00  44.12       14.9  1.80000 
1138.600  26007.6    13.26    -8.78   1.91      3082    1810       2      1.18    15.88  43.53       14.3  1.70000 
1138.700  26111.7    -6.58     5.14  -0.76      2973    1812       0      0.00    16.11  42.22       15.7  1.80000 
1138.800  26114.7   -11.66    22.15  -5.14      3018    1819       6      0.00    22.94  41.18       14.2  1.70000 
1138.900  26229.4    20.14   -10.30   0.40      3120    1804       1      1.67    17.22  40.56       18.5  1.80000 
1139.000  26040.0    -6.93     5.68  -3.28      3021    1807      -5      0.00    15.88  37.06       14.7  1.70000 
1139.100  26090.6    -1.99    14.88  -2.49      3037    1808      10      0.56    22.78  44.44       12.7  1.90000 
1139.200  26061.8    13.19    -8.09   3.39      2985    1809       6      1.18    16.47  47.06       15.7  1.80000 
1139.300  26285.8    -0.77     8.59  -4.31      2985    1818      -1      0.53    19.47  37.37       12.7  2.00000 
1139.400  26146.1    -8.44    11.61  -1.47      3016    1810       5      0.00    18.89  43.89       10.2  2.00000 
1139.500  26206.5     3.53    -5.73   4.16      2933    1818       5      0.50    14.50  48.50       11.1  2.00000 
1139.600  26155.0    -4.93     0.15   2.60      3020    1813       3      0.00    14.50  47.00        9.7  2.00000 
1139.700  26169.5     1.52     0.37   0.21      2988    1818       2      0.50    16.50  43.00       14.5  2.00000 
1139.800  26069.0    -2.73    14.43  -4.16      3012    1809       5      0.50    22.00  40.50       12.2  2.00000 
1139.900  26320.5    -9.02    13.41  -2.52      3021    1811       4      0.00    19.50  42.50       12.5  1.90000 
1140.000  26093.0     2.79    18.87  -3.33      2916    1820      15      1.00    26.50  45.50       11.1  1.90000 
1140.100  26254.2    13.19   -13.63   4.91      3014    1813       4      1.05    13.68  47.37        8.9  1.90000 
1140.200  26362.1    14.02     6.46  -3.11      3063    1812       8      1.58    23.68  41.05       11.1  1.90000 
1140.300  26197.4    -5.83     3.24   2.06      3001    1813       5      0.00    15.79  47.37       12.8  1.80000 
1140.400  26202.1    -7.32     6.90  -3.91      3161    1810      -6      0.00    16.32  36.32       11.5  1.80000 
1140.500  26288.3     2.38     1.04   4.03      3047    1811      12      0.56    17.78  51.67       13.1  1.70000 
1140.600  26181.7   -12.67    26.16  -3.76      3018    1823      13      0.00    25.00  46.11       14.4  1.70000 
1140.700  26302.9    -4.10    -2.50   3.78      2997    1804       4      0.00    13.53  48.24       21.6  1.85000 
1140.800  25786.5    22.14   -12.86   0.09      3037    1809      -1      1.76    16.47  38.82       19.7  1.65000 
1140.900  26038.3     0.55     4.96  -5.38      3038    1814      -7      0.56    17.78  33.33       13.4  1.80000 
1141.000  26175.9    24.67   -21.98  -0.01      2948    1817     -10      1.76    12.35  34.12       14.7  1.80000 
1141.100  26096.1     2.63    -1.99  -3.53      3003    1821      -9      0.56    15.00  33.89       11.3  1.80000 
1141.200  26161.1     1.75     1.40  -2.76      3062    1815      -4      0.56    16.67  37.22       10.7  1.80000 
1141.300  26244.4    17.16     0.57   1.01      2909    1816      13      1.67    22.22  47.22       12.0  1.80000 
1141.400  26152.8    49.37   -33.63   5.69      2986    1813       5      3.33    15.56  43.89       16.9  1.90000 
1141.500  26068.9    -1.84    13.57  -5.28      3062    1812       2      0.56    21.67  37.78       18.5  2.00000 
1141.600  26091.1    -0.84     9.21  -2.98      3012    1808       3      0.53    20.00  40.53       24.9  2.00000 
1141.700  26017.5    -5.16     0.21  -0.20      2970    1813      -3      0.00    14.00  41.00       21.3  2.10000 
1141.800  26314.0     2.91    -3.96   2.60      3085    1812       3      0.50    15.00  46.00       16.7  2.00000 
1141.900  26032.4     2.35    -3.96  -0.61      2988    1812      -4      0.48    14.29  39.05       15.8  2.00000 
1142.000  26067.5    -0.02     5.02  -2.94      3075    1812      -1      0.50    18.00  38.50       25.6  2.00000 
1142.100  26065.5    30.33    -6.99  -0.24      2988    1813       9      2.50    22.50  42.50       25.8  1.97000 
1142.200  26091.0    -7.05     6.94  -0.35      3011    1815       3      0.00    17.00  44.00       33.0  1.93000 
1142.300  25994.7    -5.87     2.85   0.20      2950    1817       0      0.00    15.26  43.16       41.3  1.90000 
1142.400  25954.0    -8.66    12.18  -2.24      3053    1807       3      0.00    19.00  42.50       26.0  1.90000 
1142.500  26104.7     5.40   -10.32   7.35      3028    1808       9      0.53    13.16  53.16       22.3  1.80000 
1142.600  25986.8    -2.61    15.85  -2.06      2949    1821      11      0.53    23.16  45.79       28.8  1.70000 
1142.700  26156.7     4.51    -7.51   0.83      2981    1813      -4      0.56    13.33  40.56       28.9  1.77000 
1142.800  26122.4     2.65     0.08  -1.47      3091    1806      -2      0.59    16.47  39.41       38.2  1.73000 
1142.900  26152.9    -8.80    12.84  -1.64      3005    1818       5      0.00    19.41  44.12       33.8  1.70000 
1143.000  26086.7     4.91    -8.88   1.14      3084    1809      -4      0.56    12.78  40.56       20.3  1.80000 
1143.100  26041.8    -3.71    -4.38   2.02      3052    1812      -2      0.00    12.35  43.53       17.7  1.70000 
1143.200  26124.4    11.29    -4.95   1.52      3086    1811       5      1.11    17.22  44.44       13.1  1.80000 
1143.300  26389.4    34.11   -26.76   2.98      3064    1809      -3      2.35    13.53  39.41       12.8  1.70000 
1143.400  26374.4     3.17    -2.64   1.00      2984    1817       1      0.56    15.56  43.33       12.2  1.80000 
1143.500  26199.4     1.62     4.92   2.61      3002    1815      12      0.59    19.41  50.59        9.5  1.90000 
1143.600  26148.3    25.08   -26.39   6.40      3054    1812       0      1.67    11.11  45.56       14.6  1.90000 
1143.700  26063.7    -6.43     6.39   5.74      3013    1813      17      0.00    17.89  56.84       14.7  1.90000 
1143.800  25993.7     4.69    -7.84   7.03      3005    1811      10      0.53    14.21  53.68       18.2  2.10000 
1143.900  26072.1    35.06   -17.11   1.76      3017    1814       5      2.63    18.95  42.11       20.8  2.10000 
1144.000  26321.4     2.96    -5.29   2.57      3005    1808       2      0.48    14.29  45.24       18.6  2.10000 
1144.100  26138.1   -10.61    18.13  -6.09      2974    1814      -0      0.00    20.95  37.14       32.8  2.00000 
1144.200  26146.7    -1.60    10.03  -1.15      3008    1810       7      0.48    20.48  44.76       16.8  2.00000 
1144.300  26104.0    -7.12     7.53   0.91      2999    1815       6      0.00    17.50  47.00        9.1  1.90000 
