~Version Information
 VERS.                2.0:  CWLS LOG ASCII STANDARD -VERSION 2.0
 WRAP.                 NO:  ONE LINE PER DEPTH STEP
~WELL INFORMATION BLOCK
#MNEM.UNIT       DATA		            DESCRIPTION OF MNEMONIC
#---------    -------------            ------------------------
 STRT.FT  5.900                          :START DEPTH
 STOP.FT  1425.400                       :STOP DEPTH
 STEP.FT  0.100                          :STEP    UP_HOLE  
 NULL.    0                              :NULL VALUE
 COMP.                             USGS  :COMPANY
 WELL.                             DMW1  :WELL
 FLD .      MARINA COAST WATER DISTRICT  :FIELD
 LOC .    None  None  None               :LOCATION
 CNTY.                        MONTERY ?  :COUNTY
 STAT.                     CA            :STATE
 SRVC.    PORTLAND, O                    :SERVICE COMPANY
 DATE.   11/17/00                        :LOG DATE
 UWI .                       	         :UNIQUE WELL ID
 LIC .                                   :LICENSE NUMBER
~Curve Information Block
#MNEM.UNIT      API CODE     Curve Description
#---------    -------------  ------------------------
 DEPT     .FT        00 001 00 00          :  1  DEPTH   
 TOT GAM  .CPS       00 000 00 00          :  2              TOT GAM
 THORIUM  .PPM       00 790 00 00          :  3              THORIUM
 URANIUM  .PPM       00 792 00 00          :  4              URANIUM
 POTASIUM .PERCENT   00 719 00 00          :  5             POTASIUM
 PILOT W  .CPS       00 000 00 00          :  6              PILOT W
 DAC      .MV        00 000 00 00          :  7                  DAC
 GAM(KUT) .CPS       00 310 00 00          :  8             GAM(KUT)
 THORIUM  .CPS       00 790 00 00          :  9              THORIUM
 URANIUM  .CPS       00 792 00 00          : 10              URANIUM
 POTASIUM .CPS       00 719 00 00          : 11             POTASIUM
 TENSION  .POUNDS    00 000 00 00          : 12              TENSION
 TIME     .MINUTES   00 000 00 00          : 13                 TIME
~Parameter Information Block
#MNEM.UNIT   Information     Description
#---------- ---------------  ------------------------
~Other Information
#MNEM.UNIT  Information      Description
#---------- ---------------  ------------------------
 FILE.      ORIGINAL           File Type
 FIID.      9080C              File Type Identifier
 VERS.      1.0                System Version
 SER .      1                  System Serial Number
 TRUK.      0.50000            Truck Calibration Number
 TOOL.         263             Tool Serial Number
 TIME.      11:55:             Time
 LAT .          None           Latitude
 LON .          None           Longitude
 LMF .       TOC-PVC           Log Measured From
 DMF .          None           Driller Measured From
 PD  .           TOC           Permanent Data
 PDEV.          None           Elevation Permanent Data
 EKB .M         None           Elevation Kelly Bushing
 ELEV.DF        None           Elevation DF
 EGL .M         None           Elevation Ground Level
 DRDP.          None           Driller's Depth
 CASD.         3               Casing Diameter
 CASB.          1870           Casing Bottom
 CASX.           PVC           Casing Type
 CAST.         0               Casing Thickness
 TNOC.          None           Time Circulation Stopped
 LOGU.       CENT              Logging Unit
 RECB.          KKNUTSON       Recorded By
 OSR1.          None           Other Services
 OSR2.          None           Other Services
 OSR3.          None           Other Services
 BS  .MM           6           Bit Size
 MST .                         Mean Surface Temperature
 TGRD.        0                Temperature Gradiant
 MAGN.             0           Magnetic Declination
 MDEN.      2.71               Density Matrix
 MATR.       Dolomite          Neutron Matrix
 DTMT.            54           Delta T Matrix
 DTFL.                         Delta T Fluid
 MUDS.               0         Mud Sample Source
 MRS .           0             Mud Resistivity
 MTP .           0             Mud Temperature
 MFRS.                         Resistivity Mud Filtrate
 MFTP.                         Temperature Mud Filtrate
 MCRS.         0               Resistivity Mud Cake
 MCTP.                         Temperature Mud Cake
 FTYP.             0           Fluid Type
 FD  .K/M3                     Fluid Density
 DFV .S                        Fluid Viscosity
 FPH .                         Fuild PH
 ELCO.        2500             Electron Cutoff
# -------------------------- 
~A DEPTH  TOT GAM  THORIUM  URANIUM  POTASIUM PILOT W DAC     GAM(KUT) THORIUM  URANIUM  POTASIUM TENSION  TIME    
   5.900      0.0     0.00     0.00   0.00         0       0       0      0.00    16.15  41.15        1.5  1.54000 
   6.000  25040.8    -6.72     5.47  -1.33      3120    1858      -1      0.00    16.15  41.15        3.4  1.56000 
   6.100  24938.7    13.38    -3.28  -3.93      3090    1860      -5      1.33    18.00  34.00        0.4  1.88000 
   6.200  24875.6    17.67   -20.03   5.67      3048    1861       1      1.25    11.88  46.25       -0.0  10.00000
   6.300  24916.8     5.91   -13.74   1.53      3106    1863      -8      0.53    10.53  38.95       -0.0  2.40000 
   6.400  24850.8     3.15    -1.02  -1.10      3079    1856      -2      0.60    16.10  39.70        1.3  1.70000 
   6.500  24858.8    -8.70    12.41  -1.91      2999    1863       4      0.00    19.17  43.33        0.2  1.88000 
   6.600  25034.1    14.33   -13.18  -0.09      3110    1854      -6      1.18    13.53  37.06        2.4  1.67000 
   6.700  24829.4    16.77   -21.04   3.07      3076    1858      -6      1.18    10.59  40.00        0.9  1.76000 
   6.800  25063.9    11.18    -4.72   0.95      3060    1866       3      1.11    17.22  43.33        1.0  1.79000 
   6.900  24983.3     2.15     0.03  -2.44      3028    1852      -4      0.56    16.11  37.22        1.1  1.90000 
   7.000  24860.6    30.86   -21.16   3.65      3070    1860       3      2.22    15.56  43.33       -0.0  2.04000 
   7.100  24771.1     2.63    -2.94  -1.91      2952    1856      -6      0.53    14.74  36.84        4.4  2.06000 
   7.200  24697.0    37.65   -32.54   2.35      3007    1856      -9      2.50    11.50  35.50        4.1  1.90000 
   7.300  24663.8    17.02   -10.37   1.05      3072    1855       1      1.43    16.19  41.43       -0.0  1.88000 
   7.400  24890.5     1.62     1.11  -0.40      3093    1855       1      0.53    16.84  42.11        0.2  1.92000 
   7.500  24986.7    -8.68    11.14  -6.26      3041    1861      -7      0.00    17.78  33.33        0.4  1.96000 
   7.600  25065.3    18.38    -7.61   2.55      2994    1866       8      1.58    18.42  46.32        1.8  1.94000 
   7.700  24847.5    11.35   -10.69   0.87      2994    1861      -3      1.00    14.00  40.00       10.1  2.00000 
   7.800  24900.5     9.33    -4.12  -1.56      3084    1859      -3      1.00    16.50  38.00        8.5  2.00000 
   7.900  24996.0    18.30   -10.21   5.86      3027    1866      13      1.50    17.50  52.00        4.1  2.06000 
   8.000  24749.0    -0.63     6.79  -4.50      3159    1854      -3      0.50    18.50  36.00        4.0  1.94000 
   8.100  24824.0     3.03    -4.66   1.59      3103    1849       0      0.50    14.50  43.50        1.6  1.90000 
   8.200  24872.0    10.42    -7.80  -0.72      3134    1854      -4      1.00    15.00  38.00        0.9  1.89000 
   8.300  24895.3    -3.95    -3.62   1.68      3056    1859      -2      0.00    12.63  43.16       -0.0  1.76000 
   8.400  24878.9     2.34    -0.86  -3.27      3098    1853      -7      0.56    15.56  35.00        2.4  1.79000 
   8.500  25111.7     3.27    -4.36  -3.76      3112    1859     -12      0.56    13.89  32.22        1.4  1.66000 
   8.600  24920.0    -2.40    -9.30   1.25      3075    1852      -9      0.00    10.00  39.44        1.8  1.73000 
   8.700  24950.6    -1.73   -11.80   0.99      3086    1857     -12      0.00     8.82  37.65        1.9  1.76000 
   8.800  24994.7     7.81   -16.27   6.36      2972    1863       1      0.59    10.59  48.24        1.5  1.71000 
   8.900  25030.6    15.09   -14.82   3.83      3143    1852       1      1.18    13.53  44.71        4.1  1.60000 
   9.000  25193.5    -8.11    10.33  -1.89      3041    1856       2      0.00    18.24  42.35        5.7  1.87000 
   9.100  25020.6    34.27   -26.57   5.67      3076    1859       4      2.35    14.12  45.29       11.5  1.63000 
   9.200  24858.9    -6.82     6.14  -0.22      3071    1851       2      0.00    16.67  43.89        7.4  1.86000 
   9.300  24787.6    24.61   -20.28   5.34      3062    1857       4      1.76    14.12  46.47        0.6  1.68000 
   9.400  24950.0    34.95   -30.65  -0.23      3146    1852     -14      2.35    11.18  30.59       -0.0  1.66000 
   9.500  24916.7    -4.39    -2.05   1.66      3012    1859      -1      0.00    13.33  43.89        1.5  1.80000 
   9.600  25093.5     9.66     3.17  -1.65      3119    1851       5      1.18    20.59  41.76        1.4  1.88000 
   9.700  24962.8    20.63   -11.37   2.97      3067    1858       6      1.67    17.22  45.56        2.8  1.82000 
   9.800  24908.3     2.80    -2.34  -2.67      3082    1850      -7      0.56    15.00  35.56        7.9  2.08000 
   9.900  24872.1    10.02    -3.05   2.01      3108    1852       7      1.05    17.89  46.32       15.9  2.00000 
  10.000  24740.0     3.01    -4.23  -1.62      2979    1857      -7      0.53    14.21  36.84       12.4  1.98000 
  10.100  24850.0    -8.74    11.97  -4.02      2990    1856      -1      0.00    18.57  38.57        9.4  1.92000 
  10.200  24971.5    -3.56    -5.03   1.69      3118    1846      -4      0.00    12.00  42.50        5.9  1.83000 
  10.300  24954.7    10.43    -6.76  -5.94      3131    1847     -15      1.05    14.74  27.37        2.7  1.98000 
  10.400  25036.3    -0.19     7.35  -1.33      3063    1851       5      0.53    19.47  43.16        1.8  1.91000 
  10.500  25022.6     9.56    -2.54  -2.02      3105    1861      -2      1.05    17.37  37.89        1.6  1.90000 
  10.600  24678.5    28.33   -23.03   2.74      2964    1854      -3      2.00    13.50  40.00        8.6  2.03000 
  10.700  25073.7    30.17   -24.70   2.29      3026    1857      -5      2.11    13.16  38.42        7.9  1.97000 
  10.800  24893.5     0.38     2.83  -5.69      3013    1853     -10      0.50    16.50  31.50        6.6  1.90000 
  10.900  24910.5    12.87     5.94  -6.19      3104    1855      -0      1.50    22.50  34.00        6.6  1.99000 
  11.000  24705.3     4.20    -7.72   1.14      3082    1851      -3      0.53    13.16  41.05        4.0  1.71000 
  11.100  24771.1     1.41     1.56  -1.48      3047    1857      -1      0.53    16.84  40.00        3.5  1.84000 
  11.200  25028.3    -5.88     2.64  -0.70      3111    1851      -2      0.00    15.00  41.11       10.1  1.76000 
  11.300  24906.1    -2.73    -7.10   4.88      3201    1849       2      0.00    11.67  48.33       12.6  1.80000 
  11.400  24839.4     0.79     5.44  -0.58      3027    1857       5      0.56    18.89  43.89        7.6  1.87000 
  11.500  25349.4    11.77    -6.97   0.43      3068    1857       0      1.11    16.11  41.11        2.7  1.73000 
  11.600  25040.0    11.73    -7.39  -1.54      3103    1848      -5      1.11    15.56  36.67        4.8  1.70000 
  11.700  25205.0    16.44     2.12  -2.69      2951    1867       6      1.67    22.22  40.00        7.3  1.89000 
  11.800  25027.6    24.95   -22.04   3.28      3106    1846      -2      1.76    12.94  41.18        7.9  1.71000 
  11.900  25132.8    13.11   -11.84   0.26      3084    1852      -5      1.11    13.89  38.33       11.9  1.95000 
  12.000  25073.9     4.34    -7.15  -0.03      3012    1859      -5      0.56    13.33  38.89        6.0  1.65000 
  12.100  25061.6    20.21   -14.36   1.89      3091    1849       0      1.58    15.26  41.58        4.2  1.80000 
  12.200  24870.0    -4.63    -1.37   1.06      3049    1862      -2      0.00    13.53  42.94        0.8  1.80000 
  12.300  24966.7     0.87     4.78  -1.98      3075    1858       1      0.56    18.33  40.56        4.9  1.80000 
  12.400  25093.3    -5.83     1.04  -5.75      3046    1853     -15      0.00    13.33  29.44        2.6  1.93000 
  12.500  24956.1     2.08     0.69  -1.05      3058    1862      -0      0.56    16.67  40.56        5.6  1.87000 
  12.600  24993.7    11.32    -8.68  -1.35      3113    1849      -6      1.05    14.74  36.32        9.5  2.01000 
  12.700  24944.7    12.96   -12.67   5.43      3072    1854       6      1.05    14.21  48.95        7.0  1.98000 
