~Version Information
 VERS.                2.0:  CWLS LOG ASCII STANDARD -VERSION 2.0
 WRAP.                 NO:  ONE LINE PER DEPTH STEP
~WELL INFORMATION BLOCK
#MNEM.UNIT       DATA		            DESCRIPTION OF MNEMONIC
#---------    -------------            ------------------------
 STRT.FT  0.800                          :START DEPTH
 STOP.FT  1867.700                       :STOP DEPTH
 STEP.FT  0.100                          :STEP    UP_HOLE  
 NULL.    0                              :NULL VALUE
 COMP.                             USGS  :COMPANY
 WELL.                             DMW1  :WELL
 FLD .      MARINA COAST WATER DISTRICT  :FIELD
 LOC .    None  None  None               :LOCATION
 CNTY.                        MONTERY ?  :COUNTY
 STAT.                     CA            :STATE
 SRVC.    PORTLAND OR                    :SERVICE COMPANY
 DATE.   11/17/00                        :LOG DATE
 UWI .                       	         :UNIQUE WELL ID
 LIC .                                   :LICENSE NUMBER
~Curve Information Block
#MNEM.UNIT      API CODE     Curve Description
#---------    -------------  ------------------------
 DEPT     .FT        00 001 00 00          :  1  DEPTH   
 GAM(NAT) .API-GR    00 310 00 00          :  2             GAM(NAT)
 COND     .MMHO/M    00 000 00 00          :  3                 COND
 RES      .OHM-M     00 000 00 00          :  4                  RES
 TEMP     .DEG F     00 660 00 00          :  5                 TEMP
 AP-COND  .MMHO/M    00 000 00 00          :  6              AP-COND
 TEMP     .CPS       00 660 00 00          :  7                 TEMP
 AP-COND  .CPS       00 000 00 00          :  8              AP-COND
 TENSION  .POUNDS    00 000 00 00          :  9              TENSION
 TIME     .MINUTES   00 000 00 00          : 10                 TIME
~Parameter Information Block
#MNEM.UNIT   Information     Description
#---------- ---------------  ------------------------
~Other Information
#MNEM.UNIT  Information      Description
#---------- ---------------  ------------------------
 FILE.      ORIGINAL           File Type
 FIID.      9511A              File Type Identifier
 VERS.      1.0                System Version
 SER .      1                  System Serial Number
 TRUK.      0.50000            Truck Calibration Number
 TOOL.         989             Tool Serial Number
 TIME.      20:51:             Time
 LAT .          None           Latitude
 LON .          None           Longitude
 LMF .       TOC-PVC           Log Measured From
 DMF .          None           Driller Measured From
 PD  .           TOC           Permanent Data
 PDEV.          None           Elevation Permanent Data
 EKB .M         None           Elevation Kelly Bushing
 ELEV.DF        None           Elevation DF
 EGL .M         None           Elevation Ground Level
 DRDP.          None           Driller's Depth
 CASD.         3               Casing Diameter
 CASB.          1870           Casing Bottom
 CASX.           PVC           Casing Type
 CAST.         0               Casing Thickness
 TNOC.          None           Time Circulation Stopped
 LOGU.       CENT              Logging Unit
 RECB.          KKNUTSON       Recorded By
 OSR1.          None           Other Services
 OSR2.          None           Other Services
 OSR3.          None           Other Services
 BS  .MM           6           Bit Size
 MST .                         Mean Surface Temperature
 TGRD.        0                Temperature Gradiant
 MAGN.             0           Magnetic Declination
 MDEN.      2.71               Density Matrix
 MATR.       Dolomite          Neutron Matrix
 DTMT.            54           Delta T Matrix
 DTFL.                         Delta T Fluid
 MUDS.               0         Mud Sample Source
 MRS .           0             Mud Resistivity
 MTP .           0             Mud Temperature
 MFRS.                         Resistivity Mud Filtrate
 MFTP.                         Temperature Mud Filtrate
 MCRS.         0               Resistivity Mud Cake
 MCTP.                         Temperature Mud Cake
 FTYP.             0           Fluid Type
 FD  .K/M3                     Fluid Density
 DFV .S                        Fluid Viscosity
 FPH .                         Fuild PH
 ELCO.        2500             Electron Cutoff
# -------------------------- 
~A DEPTH  GAM(NAT) COND     RES      TEMP  AP-COND  TEMP  AP-COND  TENSION  TIME    
# ...
 619.800     30.5    314.7      3.2  5457.3   278.7  28650.0 85273.3     14.4  0.40000 
 619.900     71.2    317.5      3.1  5458.0   281.1  28653.3 85543.3     14.8  0.30000 
 620.000     33.9    320.3      3.1  5458.4   283.5  28655.0 85820.0     14.2  0.30000 
 620.100     57.7    325.7      3.1  5458.0   288.1  28653.3 86343.3     13.7  0.30000 
 620.200     37.3    328.5      3.0  5458.7   290.5  28656.7 86616.7     13.4  0.30000 
 620.300     50.9    333.0      3.0  5457.3   294.5  28650.0 87063.3     13.0  0.30000 
 620.400     40.7    337.8      3.0  5458.0   298.6  28653.3 87533.3     14.9  0.30000 
 620.500     47.5    340.8      2.9  5458.7   301.2  28656.7 87826.7     13.9  0.30000 
 620.600     67.8    345.9      2.9  5458.0   305.6  28653.3 88323.3     13.3  0.30000 
 620.700     40.7    348.3      2.9  5458.7   307.6  28656.7 88553.3     13.6  0.20000 
 620.800     47.5    351.4      2.8  5458.0   310.3  28653.3 88860.0     14.3  0.30000 
 620.900     50.9    352.3      2.8  5458.4   311.1  28655.0 88945.0     15.1  0.30000 
 621.000     44.1    354.7      2.8  5458.7   313.2  28656.7 89186.7     15.9  0.30000 
 621.100     33.9    355.3      2.8  5458.0   313.7  28653.3 89243.3     15.6  0.40000 
 621.200     47.5    354.9      2.8  5458.7   313.4  28656.7 89203.3     15.3  0.20000 
 621.300     27.1    354.3      2.8  5458.4   312.8  28655.0 89145.0     14.2  0.30000 
 621.400     61.1    351.4      2.8  5458.4   310.4  28655.0 88865.0     12.8  0.30000 
 621.500     40.7    348.2      2.9  5458.7   307.5  28656.7 88543.3     12.2  0.30000 
 621.600     47.5    346.0      2.9  5458.7   305.7  28656.7 88333.3     12.6  0.30000 
 621.700     67.8    340.3      2.9  5458.0   300.8  28653.3 87780.0     13.0  0.30000 
 621.800     37.3    336.8      3.0  5458.7   297.7  28656.7 87430.0     12.8  0.30000 
 621.900     57.7    331.2      3.0  5458.7   292.9  28656.7 86886.7     11.4  0.30000 
 622.000     78.0    323.9      3.1  5458.7   286.6  28656.7 86170.0     10.8  0.30000 
 622.100     54.3    317.7      3.1  5458.7   281.2  28656.7 85560.0      9.8  0.30000 
 622.200     40.7    310.8      3.2  5458.0   275.3  28653.3 84886.7      8.4  0.40000 
 622.300     35.6    303.4      3.3  5458.7   268.8  28656.7 84156.7      8.1  0.30000 
 622.400     54.3    293.7      3.4  5458.9   260.5  28657.5 83212.5      8.1  0.30000 
 622.500     40.7    283.9      3.5  5458.7   252.0  28656.7 82246.7      8.8  0.30000 
 622.600     61.1    276.6      3.6  5458.7   245.6  28656.7 81526.7      9.0  0.30000 
 622.700     78.0    270.9      3.7  5458.7   240.7  28656.7 80973.3      9.4  0.30000 
 622.800     61.1    263.6      3.8  5458.7   234.4  28656.7 80253.3      9.4  0.30000 
 622.900     64.4    258.4      3.9  5458.7   229.8  28656.7 79736.7      8.4  0.30000 
 623.000     33.9    252.2      4.0  5458.7   224.5  28656.7 79130.0      7.7  0.30000 
 623.100     37.3    248.1      4.0  5458.7   220.9  28656.7 78723.3      8.2  0.30000 
 623.200     61.1    243.3      4.1  5458.0   216.7  28653.3 78250.0      6.9  0.30000 
 623.300     64.4    238.6      4.2  5458.7   212.6  28656.7 77790.0      6.6  0.30000 
 623.400     67.8    234.0      4.3  5458.0   208.6  28653.3 77336.7      8.3  0.30000 
 623.500     20.4    230.7      4.3  5458.7   205.8  28656.7 77013.3      6.6  0.30000 
 623.600     47.5    227.5      4.4  5459.4   202.9  28660.0 76693.3      5.2  0.30000 
 623.700     20.4    224.0      4.5  5458.7   199.9  28656.7 76350.0      6.8  0.30000 
 623.800     44.1    221.6      4.5  5458.0   197.8  28653.3 76110.0      6.3  0.30000 
 623.900     33.9    219.2      4.6  5459.4   195.7  28660.0 75873.3      7.3  0.20000 
 624.000     74.6    216.1      4.6  5458.7   193.0  28656.7 75570.0     10.1  0.30000 
 624.100     23.7    213.2      4.7  5458.4   190.4  28655.0 75275.0     11.6  0.30000 
 624.200     54.3    210.2      4.8  5458.7   187.9  28656.7 74986.7     11.4  0.30000 
 624.300     37.3    209.3      4.8  5458.7   187.0  28656.7 74890.0     11.6  0.30000 
 624.400     54.3    207.2      4.8  5459.4   185.3  28660.0 74690.0     11.8  0.30000 
 624.500     54.3    205.2      4.9  5457.3   183.5  28650.0 74486.7     10.9  0.40000 
 624.600     50.9    201.9      5.0  5459.4   180.6  28660.0 74156.7     11.0  0.30000 
 624.700     40.7    200.0      5.0  5458.9   179.0  28657.5 73975.0     11.6  0.30000 
 624.800     54.3    196.4      5.1  5459.4   175.8  28660.0 73616.7     12.0  0.33000 
 624.900     47.5    192.8      5.2  5459.4   172.7  28660.0 73263.3     13.3  0.33000 
 625.000     37.3    190.8      5.2  5458.7   170.9  28656.7 73060.0     11.7  0.33000 
 625.100     57.7    187.5      5.3  5459.4   168.0  28660.0 72733.3     10.1  0.21000 
 625.200     61.1    185.0      5.4  5459.4   165.8  28660.0 72490.0     11.3  0.30000 
 625.300     44.1    182.4      5.5  5458.0   163.6  28653.3 72230.0     12.0  0.30000 
 625.400     40.7    180.1      5.6  5459.4   161.6  28660.0 72003.3     12.1  0.30000 
 625.500     47.5    176.9      5.7  5459.4   158.8  28660.0 71686.7     14.9  0.30000 
 625.600     27.1    174.0      5.7  5459.4   156.1  28660.0 71390.0     14.9  0.30000 
 625.700     44.1    172.1      5.8  5458.7   154.5  28656.7 71210.0     14.1  0.30000 
 625.800     57.7    170.7      5.9  5458.7   153.3  28656.7 71066.7     13.1  0.30000 
 625.900     44.1    167.2      6.0  5459.4   150.2  28660.0 70720.0     12.2  0.30000 
 626.000     50.9    166.6      6.0  5459.4   149.7  28660.0 70663.3      9.8  0.30000 
 626.100     44.1    164.5      6.1  5459.4   147.8  28660.0 70446.7      9.0  0.30000 
 626.200     47.5    162.3      6.2  5459.4   145.9  28660.0 70230.0      7.7  0.30000 
 626.300     57.7    160.5      6.2  5459.4   144.3  28660.0 70053.3      5.9  0.30000 
 626.400     50.9    159.5      6.3  5459.4   143.5  28660.0 69953.3      4.8  0.30000 
 626.500     57.7    157.3      6.4  5459.4   141.5  28660.0 69736.7      3.5  0.20000 
 626.600     50.9    154.9      6.5  5459.4   139.4  28660.0 69493.3      2.7  0.30000 
 626.700     64.4    154.2      6.5  5459.4   138.7  28660.0 69420.0      3.7  0.40000 
 626.800     61.1    153.9      6.5  5459.4   138.5  28660.0 69396.7      2.7  0.30000 
 626.900     47.5    152.4      6.6  5459.4   137.2  28660.0 69245.0      2.2  0.30000 
 627.000     30.5    152.6      6.6  5459.4   137.4  28660.0 69270.0      2.2  0.30000 
 627.100     64.4    150.6      6.6  5459.4   135.6  28660.0 69066.7      2.0  0.30000 
 627.200     30.5    150.9      6.6  5460.1   135.9  28663.3 69093.3      2.9  0.30000 
 627.300     61.1    151.1      6.6  5459.4   136.1  28660.0 69120.0      3.4  0.30000 
 627.400     44.1    152.0      6.6  5459.4   136.8  28660.0 69203.3      3.6  0.30000 
 627.500     84.8    151.6      6.6  5460.1   136.5  28663.3 69170.0      4.1  0.30000 
 627.600     71.2    152.5      6.6  5459.4   137.3  28660.0 69256.7      5.9  0.30000 
 627.700     61.1    154.0      6.5  5459.4   138.6  28660.0 69400.0      7.0  0.30000 
 627.800     64.4    155.6      6.4  5459.4   140.0  28660.0 69563.3      8.3  0.30000 
 627.900     44.1    156.5      6.4  5459.4   140.8  28660.0 69653.3      9.3  0.30000 
 628.000     50.9    159.4      6.3  5459.4   143.4  28660.0 69943.3     10.1  0.30000 
 628.100     54.3    161.1      6.2  5460.1   144.8  28663.3 70110.0     11.2  0.30000 
 628.200     84.8    164.5      6.1  5459.4   147.9  28660.0 70453.3     11.8  0.30000 
 628.300     61.1    167.5      6.0  5460.1   150.5  28663.3 70746.7     11.8  0.30000 
 628.400     30.5    171.5      5.8  5460.1   154.0  28663.3 71146.7     11.7  0.32000 
 628.500     61.1    172.7      5.8  5459.4   155.0  28660.0 71263.3     12.1  0.33000 
 628.600     57.7    176.6      5.7  5460.1   158.5  28663.3 71653.3     11.8  0.33000 
 628.700     37.3    179.3      5.6  5460.1   160.8  28663.3 71923.3     11.2  0.22000 
 628.800     61.1    182.2      5.5  5460.1   163.4  28663.3 72210.0     11.7  0.30000 
