~Version Information
 VERS.                2.0:  CWLS LOG ASCII STANDARD -VERSION 2.0
 WRAP.                 NO:  ONE LINE PER DEPTH STEP
~WELL INFORMATION BLOCK
#MNEM.UNIT       DATA		            DESCRIPTION OF MNEMONIC
#---------    -------------            ------------------------
 STRT.FT  5.900                          :START DEPTH
 STOP.FT  1425.400                       :STOP DEPTH
 STEP.FT  0.100                          :STEP    UP_HOLE  
 NULL.    0                              :NULL VALUE
 COMP.                             USGS  :COMPANY
 WELL.                             DMW1  :WELL
 FLD .      MARINA COAST WATER DISTRICT  :FIELD
 LOC .    None  None  None               :LOCATION
 CNTY.                        MONTERY ?  :COUNTY
 STAT.                     CA            :STATE
 SRVC.    PORTLAND, O                    :SERVICE COMPANY
 DATE.   11/17/00                        :LOG DATE
 UWI .                       	         :UNIQUE WELL ID
 LIC .                                   :LICENSE NUMBER
~Curve Information Block
#MNEM.UNIT      API CODE     Curve Description
#---------    -------------  ------------------------
 DEPT     .FT        00 001 00 00          :  1  DEPTH   
 TOT GAM  .CPS       00 000 00 00          :  2              TOT GAM
 THORIUM  .PPM       00 790 00 00          :  3              THORIUM
 URANIUM  .PPM       00 792 00 00          :  4              URANIUM
 POTASIUM .PERCENT   00 719 00 00          :  5             POTASIUM
 PILOT W  .CPS       00 000 00 00          :  6              PILOT W
 DAC      .MV        00 000 00 00          :  7                  DAC
 GAM(KUT) .CPS       00 310 00 00          :  8             GAM(KUT)
 THORIUM  .CPS       00 790 00 00          :  9              THORIUM
 URANIUM  .CPS       00 792 00 00          : 10              URANIUM
 POTASIUM .CPS       00 719 00 00          : 11             POTASIUM
 TENSION  .POUNDS    00 000 00 00          : 12              TENSION
 TIME     .MINUTES   00 000 00 00          : 13                 TIME
~Parameter Information Block
#MNEM.UNIT   Information     Description
#---------- ---------------  ------------------------
~Other Information
#MNEM.UNIT  Information      Description
#---------- ---------------  ------------------------
 FILE.      ORIGINAL           File Type
 FIID.      9080C              File Type Identifier
 VERS.      1.0                System Version
 SER .      1                  System Serial Number
 TRUK.      0.50000            Truck Calibration Number
 TOOL.         263             Tool Serial Number
 TIME.      11:55:             Time
 LAT .          None           Latitude
 LON .          None           Longitude
 LMF .       TOC-PVC           Log Measured From
 DMF .          None           Driller Measured From
 PD  .           TOC           Permanent Data
 PDEV.          None           Elevation Permanent Data
 EKB .M         None           Elevation Kelly Bushing
 ELEV.DF        None           Elevation DF
 EGL .M         None           Elevation Ground Level
 DRDP.          None           Driller's Depth
 CASD.         3               Casing Diameter
 CASB.          1870           Casing Bottom
 CASX.           PVC           Casing Type
 CAST.         0               Casing Thickness
 TNOC.          None           Time Circulation Stopped
 LOGU.       CENT              Logging Unit
 RECB.          KKNUTSON       Recorded By
 OSR1.          None           Other Services
 OSR2.          None           Other Services
 OSR3.          None           Other Services
 BS  .MM           6           Bit Size
 MST .                         Mean Surface Temperature
 TGRD.        0                Temperature Gradiant
 MAGN.             0           Magnetic Declination
 MDEN.      2.71               Density Matrix
 MATR.       Dolomite          Neutron Matrix
 DTMT.            54           Delta T Matrix
 DTFL.                         Delta T Fluid
 MUDS.               0         Mud Sample Source
 MRS .           0             Mud Resistivity
 MTP .           0             Mud Temperature
 MFRS.                         Resistivity Mud Filtrate
 MFTP.                         Temperature Mud Filtrate
 MCRS.         0               Resistivity Mud Cake
 MCTP.                         Temperature Mud Cake
 FTYP.             0           Fluid Type
 FD  .K/M3                     Fluid Density
 DFV .S                        Fluid Viscosity
 FPH .                         Fuild PH
 ELCO.        2500             Electron Cutoff
# -------------------------- 
~A DEPTH  TOT GAM  THORIUM  URANIUM  POTASIUM PILOT W DAC     GAM(KUT) THORIUM  URANIUM  POTASIUM TENSION  TIME    
# ...
1323.800  26061.7    22.27   -17.36   2.53      3083    1826      -0      1.67    14.44  41.67        0.1  1.80000 
1323.900  26028.4    -5.80     2.23  -1.13      3049    1834      -3      0.00    14.74  40.00        0.9  1.90000 
1324.000  25813.3    -7.02     7.57   2.30      2962    1826      10      0.00    17.78  50.00        0.4  2.00000 
1324.100  25911.6    41.61   -15.42   1.36      3063    1826      10      3.16    22.11  43.16       -0.0  2.07000 
1324.200  26046.0    -2.02    12.45  -2.08      2953    1834       8      0.50    21.50  44.00       -0.0  1.93000 
1324.300  25897.0    18.12   -11.60  -1.49      3016    1827      -6      1.50    15.50  35.50        1.1  2.10000 
1324.400  25788.5    -0.78     8.44  -0.47      3019    1830       8      0.50    20.00  45.50        0.5  2.00000 
1324.500  26011.9    -7.43     8.30  -0.30      2935    1838       4      0.00    17.62  44.76        3.5  2.00000 
1324.600  25778.5    -1.04     9.45  -0.24      3072    1827       9      0.50    20.50  46.50        1.3  2.00000 
1324.700  26004.0   -10.20    18.16  -0.59      2979    1830      13      0.00    22.00  49.00       -0.0  1.90000 
1324.800  26114.5     9.53    -3.21   4.27      2965    1838      12      1.00    18.00  51.00        0.2  2.00000 
1324.900  25978.4    11.18    -7.44   1.30      2984    1832       1      1.05    15.79  42.63        0.3  2.00000 
1325.000  25832.0     2.28    -1.72   2.55      3002    1829       5      0.50    16.00  47.00        0.2  1.90000 
1325.100  25924.0    -0.00     5.87   0.35      3052    1830       7      0.50    19.00  46.00        0.3  1.80000 
1325.200  26215.3     2.42    -1.09   2.06      3065    1825       5      0.53    16.32  46.32        0.1  1.80000 
1325.300  26013.9     1.51     3.89   3.12      3059    1829      12      0.56    18.89  51.11       -0.0  1.80000 
1325.400  26075.0    -7.48     7.57  -3.64      2964    1836      -4      0.00    16.67  37.22        3.0  1.80000 
1325.500  25743.3    19.40    -6.73   3.72      2979    1828      12      1.67    19.44  49.44        0.4  1.70000 
1325.600  25969.4     1.40     2.65  -2.78      3085    1818      -3      0.56    17.22  37.78        0.2  1.80000 
1325.700  25725.3    25.22   -22.11   6.58      3042    1828       5      1.76    13.53  48.24       -0.0  1.90000 
1325.800  25801.1    12.05    -7.57   1.86      3061    1828       3      1.11    16.11  43.89       -0.0  1.80000 
1325.900  25837.4    17.75    -6.25  -0.69      3009    1829       2      1.58    18.42  40.00       -0.0  1.90000 
1326.000  26049.4    -4.08    -2.23   5.05      3111    1824       7      0.00    13.89  51.11        0.7  1.90000 
1326.100  26132.6    35.08   -16.21   5.22      3015    1836      14      2.63    20.00  50.00       -0.0  2.00000 
1326.200  25862.1    19.93   -13.29   2.13      3016    1824       2      1.58    15.79  42.63       -0.0  2.10000 
1326.300  26036.5    19.01   -12.19   7.93      3007    1829      16      1.50    17.00  55.50       -0.0  2.00000 
1326.400  25792.9    28.04   -25.74   5.66      3005    1825       1      1.90    12.38  44.76       -0.0  2.04000 
1326.500  25890.5    -8.72    12.77  -0.98      3012    1827       7      0.00    19.50  45.50       -0.0  1.96000 
1326.600  25941.5     7.36     3.68   1.07      3003    1831      11      1.00    20.50  47.50        0.1  2.00000 
1326.700  26044.0    -8.82    14.31   3.31      3009    1831      18      0.00    21.00  55.50        3.4  2.00000 
1326.800  25995.0     9.08    -3.58  -2.84      2988    1831      -5      1.00    16.50  35.50       -0.0  2.10000 
1326.900  25860.0    -2.02    11.12  -6.89      2967    1832      -5      0.50    20.00  33.00       -0.0  1.90000 
1327.000  25986.7    12.30     5.71  -1.96      3062    1826       9      1.43    22.86  42.86       -0.0  1.90000 
1327.100  25842.1    10.47    -4.96   0.98      3041    1825       3      1.05    16.84  43.16       -0.0  1.90000 
1327.200  25944.2    -9.20    13.77  -3.52      3002    1832       2      0.00    19.47  40.53        2.9  1.80000 
1327.300  25929.5    36.49   -22.06   2.40      2975    1831       2      2.63    16.84  41.05        1.2  1.70000 
1327.400  25907.8     5.47   -10.07   3.99      2893    1838       1      0.56    12.78  46.11        2.6  1.80000 
1327.500  25827.1     4.66    -6.33   1.36      3048    1824      -1      0.59    14.12  42.35        0.3  1.80000 
1327.600  25563.3    16.81     1.82   0.99      3007    1825      14      1.67    22.78  47.78       -0.0  1.80000 
1327.700  25812.8    30.23   -19.32   2.19      3055    1824       1      2.22    16.11  41.11       -0.0  1.80000 
1327.800  25748.9    16.51     1.47  -4.09      2993    1828       2      1.67    21.67  36.67       -0.0  1.91000 
1327.900  26027.2    38.41   -21.75   2.99      3016    1831       5      2.78    17.78  42.78        1.3  1.79000 
1328.000  25936.8     1.46     1.45  -1.21      3003    1832      -0      0.53    16.84  40.53        3.3  2.00000 
1328.100  25714.4    -1.53    13.39  -1.89      2956    1831      10      0.56    22.22  45.00       -0.0  2.00000 
1328.200  25893.0    -1.94    11.38  -4.86      3022    1827       0      0.50    20.50  37.50        1.3  2.00000 
1328.300  25757.5    -2.02    12.45  -2.08      3048    1834       8      0.50    21.50  44.00        0.4  2.10000 
1328.400  26064.5     1.44     0.10  -1.81      3046    1827      -3      0.50    16.00  38.50        0.7  2.00000 
1328.500  26143.8     6.79     2.45  -2.53      3005    1832       1      0.95    19.05  39.05       -0.0  2.10000 
1328.600  26076.5     7.39     2.72  -1.96      3049    1827       3      1.00    19.50  40.50       -0.0  2.00000 
1328.700  26082.4    23.94   -12.25   1.25      3022    1831       3      1.90    17.62  41.90       -0.0  2.00000 
1328.800  25896.0    42.79   -26.39   4.41      3004    1830       6      3.00    17.00  44.00       -0.0  1.90000 
1328.900  26020.5     8.01     0.96  -0.40      3090    1830       5      1.00    19.00  43.00        1.6  2.00000 
1329.000  25971.1    26.74   -12.16   3.08      2920    1837       9      2.11    18.95  46.32        1.5  1.90000 
1329.100  25990.0    14.73     1.50   1.79      3036    1831      14      1.50    22.00  49.00        0.6  1.80000 
1329.200  26150.5    11.76    -8.68   4.27      2851    1842       7      1.05    15.79  48.42       -0.0  1.80000 
1329.300  25859.4     7.76     7.10  -0.72      3033    1821      11      1.11    22.22  45.56       -0.0  1.70000 
1329.400  25833.9    -2.42    -8.76   2.93      2923    1835      -4      0.00    10.56  43.33        0.1  1.80000 
1329.500  25944.7    10.32     1.22  -0.11      2943    1841       7      1.18    20.00  44.12        1.9  1.80000 
1329.600  25865.6    -5.18     0.15  -0.65      2917    1832      -4      0.00    13.89  40.00        0.4  1.80000 
1329.700  26049.4    -5.37     1.04   0.18      3096    1824      -2      0.00    14.44  42.22       -0.0  1.90000 
1329.800  25777.8    40.34   -28.88   2.30      2976    1831      -3      2.78    14.44  37.78       -0.0  1.80000 
1329.900  25994.2    19.72   -12.84   1.05      2969    1825      -0      1.58    15.79  40.53       -0.0  1.80000 
1330.000  26050.0    34.35    -7.56   1.55      3062    1830      15      2.78    23.89  46.67       -0.0  1.90000 
1330.100  25845.6    -4.68    -0.92   1.92      3007    1831       1      0.00    13.89  45.00       -0.0  2.09000 
1330.200  26046.3     1.88     0.55   0.95      3082    1831       4      0.53    16.84  44.74       -0.0  2.01000 
1330.300  26071.5    16.02    -3.95  -1.15      2990    1833       2      1.50    19.00  40.00       -0.0  2.10000 
1330.400  26129.5    10.64   -10.07   2.10      3030    1832      -0      0.95    14.29  42.86        1.1  2.00000 
1330.500  26094.8    12.51     4.85  -2.43      3041    1831       7      1.43    22.38  41.43        1.0  2.00000 
1330.600  25949.5     2.98    -4.55   1.34      3038    1829      -0      0.50    14.50  43.00       -0.0  2.00000 
