~Version Information
 VERS.                2.0:  CWLS LOG ASCII STANDARD -VERSION 2.0
 WRAP.                 NO:  ONE LINE PER DEPTH STEP
~WELL INFORMATION BLOCK
#MNEM.UNIT       DATA		            DESCRIPTION OF MNEMONIC
#---------    -------------            ------------------------
 STRT.FT  0.800                          :START DEPTH
 STOP.FT  1867.700                       :STOP DEPTH
 STEP.FT  0.100                          :STEP    UP_HOLE  
 NULL.    0                              :NULL VALUE
 COMP.                             USGS  :COMPANY
 WELL.                             DMW1  :WELL
 FLD .      MARINA COAST WATER DISTRICT  :FIELD
 LOC .    None  None  None               :LOCATION
 CNTY.                        MONTERY ?  :COUNTY
 STAT.                     CA            :STATE
 SRVC.    PORTLAND OR                    :SERVICE COMPANY
 DATE.   11/17/00                        :LOG DATE
 UWI .                       	         :UNIQUE WELL ID
 LIC .                                   :LICENSE NUMBER
~Curve Information Block
#MNEM.UNIT      API CODE     Curve Description
#---------    -------------  ------------------------
 DEPT     .FT        00 001 00 00          :  1  DEPTH   
 GAM(NAT) .API-GR    00 310 00 00          :  2             GAM(NAT)
 COND     .MMHO/M    00 000 00 00          :  3                 COND
 RES      .OHM-M     00 000 00 00          :  4                  RES
 TEMP     .DEG F     00 660 00 00          :  5                 TEMP
 AP-COND  .MMHO/M    00 000 00 00          :  6              AP-COND
 TEMP     .CPS       00 660 00 00          :  7                 TEMP
 AP-COND  .CPS       00 000 00 00          :  8              AP-COND
 TENSION  .POUNDS    00 000 00 00          :  9              TENSION
 TIME     .MINUTES   00 000 00 00          : 10                 TIME
~Parameter Information Block
#MNEM.UNIT   Information     Description
#---------- ---------------  ------------------------
~Other Information
#MNEM.UNIT  Information      Description
#---------- ---------------  ------------------------
 FILE.      ORIGINAL           File Type
 FIID.      9511A              File Type Identifier
 VERS.      1.0                System Version
 SER .      1                  System Serial Number
 TRUK.      0.50000            Truck Calibration Number
 TOOL.         989             Tool Serial Number
 TIME.      20:51:             Time
 LAT .          None           Latitude
 LON .          None           Longitude
 LMF .       TOC-PVC           Log Measured From
 DMF .          None           Driller Measured From
 PD  .           TOC           Permanent Data
 PDEV.          None           Elevation Permanent Data
 EKB .M         None           Elevation Kelly Bushing
 ELEV.DF        None           Elevation DF
 EGL .M         None           Elevation Ground Level
 DRDP.          None           Driller's Depth
 CASD.         3               Casing Diameter
 CASB.          1870           Casing Bottom
 CASX.           PVC           Casing Type
 CAST.         0               Casing Thickness
 TNOC.          None           Time Circulation Stopped
 LOGU.       CENT              Logging Unit
 RECB.          KKNUTSON       Recorded By
 OSR1.          None           Other Services
 OSR2.          None           Other Services
 OSR3.          None           Other Services
 BS  .MM           6           Bit Size
 MST .                         Mean Surface Temperature
 TGRD.        0                Temperature Gradiant
 MAGN.             0           Magnetic Declination
 MDEN.      2.71               Density Matrix
 MATR.       Dolomite          Neutron Matrix
 DTMT.            54           Delta T Matrix
 DTFL.                         Delta T Fluid
 MUDS.               0         Mud Sample Source
 MRS .           0             Mud Resistivity
 MTP .           0             Mud Temperature
 MFRS.                         Resistivity Mud Filtrate
 MFTP.                         Temperature Mud Filtrate
 MCRS.         0               Resistivity Mud Cake
 MCTP.                         Temperature Mud Cake
 FTYP.             0           Fluid Type
 FD  .K/M3                     Fluid Density
 DFV .S                        Fluid Viscosity
 FPH .                         Fuild PH
 ELCO.        2500             Electron Cutoff
# -------------------------- 
~A DEPTH  GAM(NAT) COND     RES      TEMP  AP-COND  TEMP  AP-COND  TENSION  TIME    
# ...
1730.000     67.8     48.8     20.5  5710.0    45.1  29860.0 58810.0      2.5  0.30000 
1730.100     66.1     49.3     20.3  5710.0    45.5  29860.0 58860.0      1.8  0.30000 
1730.200     91.6     49.0     20.4  5710.7    45.3  29863.3 58830.0      1.8  0.30000 
1730.300     88.2     47.7     21.0  5710.0    44.1  29860.0 58693.3      2.5  0.30000 
1730.400     67.8     47.8     20.9  5710.7    44.2  29863.3 58706.7      2.5  0.30000 
1730.500     64.4     47.3     21.1  5710.7    43.8  29863.3 58660.0      2.7  0.30000 
1730.600     61.1     48.3     20.7  5710.0    44.7  29860.0 58763.3      2.0  0.30000 
1730.700     81.4     48.3     20.7  5710.0    44.7  29860.0 58763.3      2.0  0.30000 
1730.800    108.5     47.7     21.0  5710.7    44.1  29863.3 58700.0      1.2  0.30000 
1730.900     61.1     49.5     20.2  5710.7    45.7  29863.3 58883.3      1.2  0.30000 
1731.000     74.6     50.1     20.0  5710.0    46.2  29860.0 58940.0      0.7  0.30000 
1731.100     67.8     50.9     19.7  5710.0    47.0  29860.0 59023.3      1.6  0.30000 
1731.200     88.2     50.9     19.7  5710.0    47.0  29860.0 59023.3      1.5  0.30000 
1731.300     71.2     51.3     19.5  5710.7    47.4  29863.3 59066.7      2.9  0.30000 
1731.400     61.1     49.8     20.1  5710.7    46.0  29863.3 58913.3      4.0  0.30000 
1731.500     64.4     51.7     19.3  5710.0    47.8  29860.0 59110.0      4.6  0.30000 
1731.600     50.9     51.8     19.3  5710.7    47.8  29863.3 59113.3      4.9  0.30000 
1731.700     50.9     51.8     19.3  5710.7    47.8  29863.3 59120.0      6.0  0.30000 
1731.800     44.1     53.7     18.6  5710.0    49.5  29860.0 59313.3      6.5  0.30000 
1731.900     74.6     53.8     18.6  5710.0    49.6  29860.0 59320.0      7.4  0.30000 
1732.000     44.1     54.3     18.4  5710.0    50.0  29860.0 59370.0      7.7  0.30000 
1732.100     91.6     57.1     17.5  5710.7    52.6  29863.3 59656.7      7.9  0.30000 
1732.200     54.3     55.9     17.9  5710.7    51.5  29863.3 59536.7      8.4  0.30000 
1732.300     71.2     56.5     17.7  5710.7    52.0  29863.3 59593.3      8.9  0.30000 
1732.400     71.2     57.6     17.3  5710.7    53.1  29863.3 59713.3      9.1  0.30000 
1732.500     81.4     58.1     17.2  5710.7    53.5  29863.3 59763.3      9.6  0.30000 
1732.600     47.5     57.8     17.3  5710.7    53.2  29863.3 59730.0      9.5  0.30000 
1732.700     61.1     59.2     16.9  5710.7    54.5  29863.3 59876.7     10.3  0.30000 
1732.800     91.6     59.2     16.9  5710.7    54.5  29863.3 59870.0      9.7  0.30000 
1732.900     37.3     60.0     16.7  5710.7    55.2  29863.3 59950.0      9.5  0.30000 
1733.000     71.2     61.2     16.3  5710.7    56.3  29863.3 60076.7      8.6  0.30000 
1733.100     78.0     61.9     16.2  5710.7    56.9  29863.3 60143.3      7.9  0.30000 
1733.200     50.9     62.2     16.1  5710.7    57.2  29863.3 60180.0      8.0  0.30000 
1733.300     64.4     63.5     15.8  5710.7    58.3  29863.3 60306.7      7.9  0.30000 
1733.400     44.1     62.6     16.0  5710.7    57.5  29863.3 60220.0      7.3  0.30000 
1733.500     71.2     64.5     15.5  5710.7    59.3  29863.3 60413.3      7.7  0.30000 
1733.600     71.2     64.8     15.4  5710.7    59.5  29863.3 60440.0      8.3  0.30000 
1733.700     71.2     65.1     15.3  5711.4    59.8  29866.7 60476.7      7.4  0.30000 
1733.800     57.7     67.8     14.8  5710.7    62.2  29863.3 60743.3      7.1  0.30000 
1733.900     64.4     67.9     14.7  5710.7    62.3  29863.3 60760.0      7.5  0.30000 
1734.000     54.3     66.4     15.1  5710.7    61.0  29863.3 60606.7      7.5  0.30000 
1734.100     67.8     68.7     14.6  5710.7    63.0  29863.3 60833.3      7.6  0.30000 
1734.200     50.9     68.4     14.6  5711.4    62.7  29866.7 60806.7      7.2  0.30000 
1734.300     67.8     69.1     14.5  5710.7    63.3  29863.3 60873.3      6.3  0.20000 
1734.400     61.1     69.8     14.3  5710.7    64.0  29863.3 60950.0      7.4  0.30000 
1734.500     50.9     70.0     14.3  5710.0    64.2  29860.0 60970.0      7.0  0.30000 
1734.600     61.1     70.4     14.2  5710.7    64.5  29863.3 61013.3      6.8  0.30000 
1734.700     57.7     70.6     14.2  5711.4    64.7  29866.7 61030.0      6.7  0.30000 
1734.800     61.1     70.5     14.2  5710.7    64.6  29863.3 61020.0      7.1  0.30000 
1734.900     74.6     71.6     14.0  5710.7    65.6  29863.3 61133.3      7.4  0.30000 
1735.000     57.7     72.5     13.8  5711.4    66.4  29866.7 61223.3      8.3  0.30000 
1735.100     44.1     72.7     13.7  5710.7    66.6  29863.3 61246.7      8.0  0.30000 
1735.200     64.4     72.8     13.7  5710.7    66.7  29863.3 61256.7      6.6  0.30000 
1735.300    105.2     75.2     13.3  5710.7    68.8  29863.3 61496.7      5.3  0.30000 
1735.400     64.4     74.0     13.5  5710.7    67.8  29863.3 61380.0      5.6  0.30000 
1735.500     71.2     74.3     13.5  5711.4    68.0  29866.7 61406.7      6.1  0.30000 
1735.600     74.6     76.3     13.1  5710.7    69.8  29863.3 61610.0      6.9  0.30000 
1735.700     47.5     74.8     13.4  5711.4    68.4  29866.7 61453.3      7.1  0.30000 
1735.800     57.7     76.3     13.1  5710.7    69.8  29863.3 61606.7      6.8  0.30000 
1735.900     67.8     73.8     13.5  5711.4    67.6  29866.7 61356.7      6.7  0.30000 
1736.000     47.5     76.1     13.1  5710.0    69.6  29860.0 61590.0      5.2  0.30000 
1736.100     78.0     74.2     13.5  5710.0    68.0  29860.0 61400.0      4.0  0.30000 
1736.200     61.1     75.1     13.3  5710.0    68.7  29860.0 61483.3      2.8  0.32000 
1736.300     64.4     74.8     13.4  5710.7    68.5  29863.3 61456.7      2.6  0.33000 
1736.400     91.6     75.2     13.3  5711.4    68.8  29866.7 61493.3      2.4  0.33000 
1736.500     67.8     75.0     13.3  5710.0    68.6  29860.0 61473.3      2.8  0.22000 
1736.600     67.8     74.2     13.5  5710.7    67.9  29863.3 61393.3      2.7  0.30000 
1736.700     78.0     74.2     13.5  5711.4    68.0  29866.7 61400.0      3.6  0.30000 
1736.800     64.4     73.6     13.6  5710.7    67.4  29863.3 61336.7      3.1  0.30000 
1736.900     78.0     72.8     13.7  5711.4    66.7  29866.7 61256.7      4.2  0.30000 
1737.000     47.5     72.8     13.7  5710.7    66.7  29863.3 61253.3      3.7  0.30000 
1737.100     40.7     71.4     14.0  5711.4    65.4  29866.7 61113.3      3.1  0.30000 
1737.200     64.4     71.6     14.0  5710.7    65.6  29863.3 61133.3      1.4  0.30000 
1737.300     57.7     72.0     13.9  5710.7    65.9  29863.3 61170.0      1.1  0.30000 
1737.400     64.4     71.6     14.0  5711.4    65.6  29866.7 61133.3      0.5  0.30000 
1737.500     54.3     71.7     13.9  5710.7    65.7  29863.3 61146.7      0.9  0.30000 
1737.600     81.4     72.4     13.8  5710.7    66.3  29863.3 61216.7      0.7  0.30000 
1737.700     98.4     70.3     14.2  5711.4    64.4  29866.7 60996.7      0.7  0.30000 
1737.800     78.0     70.8     14.1  5710.7    64.9  29863.3 61053.3      0.3  0.30000 
1737.900     64.4     70.5     14.2  5711.4    64.6  29866.7 61020.0      0.3  0.30000 
1738.000     54.3     69.1     14.5  5711.4    63.3  29866.7 60873.3      0.3  0.30000 
1738.100     88.2     68.3     14.6  5711.4    62.6  29866.7 60796.7     -0.0  0.30000 
1738.200     64.4     68.7     14.6  5710.7    63.0  29863.3 60833.3     -0.0  0.30000 
1738.300     67.8     66.7     15.0  5711.4    61.2  29866.7 60630.0     -0.0  0.30000 
1738.400     67.8     67.3     14.8  5711.4    61.8  29866.7 60700.0     -0.0  0.30000 
1738.500     67.8     67.5     14.8  5710.7    61.9  29863.3 60713.3     -0.0  0.30000 
1738.600     78.0     65.6     15.2  5710.7    60.2  29863.3 60523.3     -0.0  0.30000 
1738.700     84.8     65.9     15.2  5711.4    60.5  29866.7 60550.0     -0.0  0.20000 
1738.800     57.7     66.4     15.1  5711.4    61.0  29866.7 60606.7      0.1  0.30000 
1738.900     61.1     65.0     15.4  5711.0    59.7  29865.0 60460.0      0.1  0.30000 
1739.000     61.1     64.1     15.6  5711.4    58.9  29866.7 60370.0      0.3  0.30000 
