~Version Information
 VERS.                2.0:  CWLS LOG ASCII STANDARD -VERSION 2.0
 WRAP.                 NO:  ONE LINE PER DEPTH STEP
~WELL INFORMATION BLOCK
#MNEM.UNIT       DATA		            DESCRIPTION OF MNEMONIC
#---------    -------------            ------------------------
 STRT.FT  5.900                          :START DEPTH
 STOP.FT  1425.400                       :STOP DEPTH
 STEP.FT  0.100                          :STEP    UP_HOLE  
 NULL.    0                              :NULL VALUE
 COMP.                             USGS  :COMPANY
 WELL.                             DMW1  :WELL
 FLD .      MARINA COAST WATER DISTRICT  :FIELD
 LOC .    None  None  None               :LOCATION
 CNTY.                        MONTERY ?  :COUNTY
 STAT.                     CA            :STATE
 SRVC.    PORTLAND, O                    :SERVICE COMPANY
 DATE.   11/17/00                        :LOG DATE
 UWI .                       	         :UNIQUE WELL ID
 LIC .                                   :LICENSE NUMBER
~Curve Information Block
#MNEM.UNIT      API CODE     Curve Description
#---------    -------------  ------------------------
 DEPT     .FT        00 001 00 00          :  1  DEPTH   
 TOT GAM  .CPS       00 000 00 00          :  2              TOT GAM
 THORIUM  .PPM       00 790 00 00          :  3              THORIUM
 URANIUM  .PPM       00 792 00 00          :  4              URANIUM
 POTASIUM .PERCENT   00 719 00 00          :  5             POTASIUM
 PILOT W  .CPS       00 000 00 00          :  6              PILOT W
 DAC      .MV        00 000 00 00          :  7                  DAC
 GAM(KUT) .CPS       00 310 00 00          :  8             GAM(KUT)
 THORIUM  .CPS       00 790 00 00          :  9              THORIUM
 URANIUM  .CPS       00 792 00 00          : 10              URANIUM
 POTASIUM .CPS       00 719 00 00          : 11             POTASIUM
 TENSION  .POUNDS    00 000 00 00          : 12              TENSION
 TIME     .MINUTES   00 000 00 00          : 13                 TIME
~Parameter Information Block
#MNEM.UNIT   Information     Description
#---------- ---------------  ------------------------
~Other Information
#MNEM.UNIT  Information      Description
#---------- ---------------  ------------------------
 FILE.      ORIGINAL           File Type
 FIID.      9080C              File Type Identifier
 VERS.      1.0                System Version
 SER .      1                  System Serial Number
 TRUK.      0.50000            Truck Calibration Number
 TOOL.         263             Tool Serial Number
 TIME.      11:55:             Time
 LAT .          None           Latitude
 LON .          None           Longitude
 LMF .       TOC-PVC           Log Measured From
 DMF .          None           Driller Measured From
 PD  .           TOC           Permanent Data
 PDEV.          None           Elevation Permanent Data
 EKB .M         None           Elevation Kelly Bushing
 ELEV.DF        None           Elevation DF
 EGL .M         None           Elevation Ground Level
 DRDP.          None           Driller's Depth
 CASD.         3               Casing Diameter
 CASB.          1870           Casing Bottom
 CASX.           PVC           Casing Type
 CAST.         0               Casing Thickness
 TNOC.          None           Time Circulation Stopped
 LOGU.       CENT              Logging Unit
 RECB.          KKNUTSON       Recorded By
 OSR1.          None           Other Services
 OSR2.          None           Other Services
 OSR3.          None           Other Services
 BS  .MM           6           Bit Size
 MST .                         Mean Surface Temperature
 TGRD.        0                Temperature Gradiant
 MAGN.             0           Magnetic Declination
 MDEN.      2.71               Density Matrix
 MATR.       Dolomite          Neutron Matrix
 DTMT.            54           Delta T Matrix
 DTFL.                         Delta T Fluid
 MUDS.               0         Mud Sample Source
 MRS .           0             Mud Resistivity
 MTP .           0             Mud Temperature
 MFRS.                         Resistivity Mud Filtrate
 MFTP.                         Temperature Mud Filtrate
 MCRS.         0               Resistivity Mud Cake
 MCTP.                         Temperature Mud Cake
 FTYP.             0           Fluid Type
 FD  .K/M3                     Fluid Density
 DFV .S                        Fluid Viscosity
 FPH .                         Fuild PH
 ELCO.        2500             Electron Cutoff
# -------------------------- 
~A DEPTH  TOT GAM  THORIUM  URANIUM  POTASIUM PILOT W DAC     GAM(KUT) THORIUM  URANIUM  POTASIUM TENSION  TIME    
# ...
 102.500  26152.9    25.45   -22.61   7.78      3149    1856       8      1.76    13.53  50.59        5.4  1.70000 
 102.600  25848.3     3.13    -3.06  -0.96      3048    1847      -4      0.56    15.00  38.89        5.3  1.70000 
 102.700  25759.4     0.76     6.25  -3.70      3066    1848      -1      0.59    18.82  37.65        8.1  1.60000 
 102.800  26177.1    -3.15    20.96  -1.33      3045    1859      18      0.59    25.88  50.00       10.4  1.70000 
 102.900  26001.9    32.46   -13.81   2.76      3117    1845      10      2.50    20.00  45.63       10.4  1.70000 
 103.000  25933.5    13.32    -8.91   2.21      3088    1847       3      1.18    15.88  44.12        7.1  1.80000 
 103.100  25832.4     3.28    -0.74   3.63      3005    1851       9      0.59    17.06  50.00        1.2  1.80000 
 103.200  25921.7    15.23   -18.38   4.07      3029    1856      -2      1.11    11.67  43.33       -0.0  1.90000 
 103.300  25975.6     3.90    -4.72   3.03      3133    1853       4      0.56    15.00  46.67        0.9  1.97000 
 103.400  25971.6     2.51    -2.21  -0.86      3036    1843      -3      0.53    15.26  39.47        1.4  1.93000 
 103.500  25887.4    -8.12    10.50  -1.31      3049    1858       4      0.00    18.42  43.68       -0.0  1.90000 
 103.600  25814.0     5.92     8.12  -1.57      2994    1857       9      1.00    22.00  44.00       -0.0  1.90000 
 103.700  25726.3     0.71     3.53  -3.39      3066    1852      -3      0.53    17.37  36.84        0.8  1.90000 
 103.800  25945.3    -6.85     5.89  -1.47      3053    1847      -1      0.00    16.32  41.05        2.6  1.90000 
 103.900  25746.8    20.89   -17.22   0.35      3096    1849      -6      1.58    13.68  36.84        4.0  1.90000 
 104.000  25811.1    -2.63    14.95  -5.52      3043    1851       2      0.53    22.11  37.89        6.8  2.00000 
 104.100  25710.5    26.96   -13.12   2.57      3035    1854       7      2.11    18.42  44.74        5.3  1.90000 
 104.200  25898.5    41.14   -21.05   2.26      3037    1857       6      3.00    19.00  42.00        5.6  1.90000 
 104.300  26013.7    18.85   -10.02  -0.08      3078    1851      -0      1.58    16.84  39.47        0.5  1.80000 
 104.400  25835.3    -6.97     6.62  -0.42      2996    1853       2      0.00    16.84  43.68        4.0  1.80000 
 104.500  25817.2    -5.24     1.75   4.40      3031    1851       9      0.00    15.56  51.67        3.7  1.70000 
 104.600  26051.1     0.00     7.63  -2.89      3124    1853       2      0.56    19.44  40.00       12.4  1.79000 
 104.700  26067.6    -7.26     7.44  -1.22      3062    1854       1      0.00    17.06  42.35        8.1  1.71000 
 104.800  25973.5    38.61   -15.12   1.12      3098    1846       8      2.94    21.18  42.35        5.8  1.70000 
 104.900  25831.1    31.17   -21.34   7.04      3081    1844      11      2.22    16.11  50.56        1.3  1.60000 
 105.000  26010.0    -0.85    12.35  -2.64      3120    1844       7      0.59    21.76  42.94        2.5  1.70000 
 105.100  26009.4     2.61     2.55   0.53      3096    1858       6      0.63    18.13  45.00        3.3  1.70000 
 105.200  26155.9    30.43   -12.55   6.56      3052    1855      19      2.35    20.59  54.12        6.9  1.70000 
 105.300  25988.2     1.58     2.92  -5.12      3139    1847      -8      0.59    17.06  32.94       13.3  1.77000 
 105.400  25992.4    11.37    -2.62  -0.32      3066    1852       3      1.18    18.24  41.76       20.0  1.63000 
 105.500  26067.6     1.80     4.55   3.52      3181    1848      14      0.59    19.41  52.35       11.9  1.70000 
 105.600  25894.1    -5.87     3.41   2.15      3083    1845       5      0.00    15.88  47.65        5.1  1.70000 
 105.700  25994.7    -1.28    13.79  -2.97      3041    1854       8      0.59    22.35  42.94        1.2  1.70000 
 105.800  26027.1    14.70   -12.93   5.59      3024    1854       7      1.18    14.71  49.41        2.3  1.80000 
 105.900  26027.1    32.23   -19.02   6.40      3139    1848      12      2.35    17.65  50.59       -0.0  1.90000 
 106.000  25762.8    -2.46    15.42  -6.73      3135    1843       0      0.56    22.22  35.56       -0.0  2.00000 
 106.100  25872.6    -6.91     7.91   4.90      3067    1852      16      0.00    18.42  55.79        5.9  2.00000 
 106.200  25791.5     6.52     5.50  -3.29      3058    1853       2      1.00    20.50  39.00        7.8  1.90000 
 106.300  26028.0    31.21    -9.77   1.09      3064    1858      10      2.50    21.50  44.00       13.4  1.90000 
 106.400  25918.4    -2.39    13.49  -7.62      3057    1852      -4      0.53    21.05  32.63       10.7  1.90000 
 106.500  25930.5    17.51    -4.79   1.41      3029    1855       8      1.58    19.47  45.26        9.2  1.89000 
 106.600  25771.6    -0.63     8.76  -1.90      3007    1850       5      0.53    20.00  42.63        5.4  1.91000 
 106.700  25994.4   -10.65    19.33  -2.20      3039    1851      10      0.00    22.22  46.11       18.2  1.90000 
 106.800  25847.5     1.41     1.06   1.22      3035    1857       5      0.50    17.00  45.50       12.0  1.90000 
 106.900  25801.1    36.04   -21.55  -1.62      3012    1851      -7      2.63    16.32  32.63        5.7  1.90000 
 107.000  25888.4    -0.24     7.47  -1.60      3092    1853       4      0.53    19.47  42.63        8.8  1.80000 
 107.100  25888.4    50.10   -20.70   0.84      3024    1858       8      3.68    22.11  40.53       12.6  1.80000 
 107.200  25982.2   -11.86    21.95  -8.47      3086    1858      -2      0.00    22.22  33.89        5.3  1.70000 
 107.300  26016.1    -6.97     5.97  -2.75      3150    1847      -4      0.00    16.11  38.33        1.1  1.70000 
 107.400  25972.4    40.63   -22.10   2.17      3002    1856       4      2.94    18.24  41.18        0.2  1.70000 
 107.500  25774.7    10.38     1.09   0.19      3048    1850       8      1.18    20.00  44.71       -0.0  1.70000 
 107.600  26181.2     0.37     8.13  -1.95      3039    1859       5      0.59    20.00  42.35       -0.0  1.80000 
 107.700  25812.9    32.21   -20.03   2.53      3082    1847       2      2.35    16.47  41.76        1.0  1.70000 
 107.800  25892.2    -1.97    14.34  -4.17      3059    1848       5      0.56    22.22  40.56        4.6  1.70000 
 107.900  25928.8    -2.82    19.20  -3.38      3051    1856      12      0.59    24.71  44.71        7.0  1.70000 
 108.000  25997.6    10.20     1.47  -0.71      3102    1854       6      1.18    20.00  42.94        1.4  1.70000 
 108.100  25675.3    -4.96     0.39   3.12      3011    1848       5      0.00    14.71  48.24       -0.0  1.70000 
 108.200  25958.8    35.54   -31.91   2.79      3035    1851      -8      2.35    11.18  36.47        2.5  1.75000 
 108.300  26004.7    23.06   -15.88   1.06      3072    1851      -2      1.76    15.29  39.41        5.4  1.65000 
 108.400  25588.8     2.71    -0.04  -1.17      2979    1845      -1      0.59    16.47  40.00        2.1  1.80000 
 108.500  26018.2    20.23    -7.70  -6.00      3037    1855     -11      1.76    17.65  28.24        2.7  1.90000 
 108.600  25790.6     4.32    -8.10  -3.68      3083    1849     -15      0.56    12.22  30.56        0.7  1.90000 
 108.700  25739.5    -0.51     8.03  -2.96      3142    1846       2      0.53    19.47  40.00        9.8  1.90000 
 108.800  25801.6    21.24   -17.51   3.83      3011    1853       2      1.58    14.21  44.21        8.0  1.96000 
 108.900  25828.4     0.61     3.76  -3.93      3096    1848      -5      0.53    17.37  35.79       13.1  1.84000 
 109.000  25791.1     1.72     0.88   0.14      3025    1856       2      0.53    16.84  43.16        8.3  1.90000 
 109.100  25833.2    -4.46    -1.60   2.44      3089    1846       1      0.00    13.68  45.79        7.8  1.90000 
 109.200  25944.7     8.74     0.16  -2.88      3108    1851      -1      1.05    18.42  37.37        6.4  1.80000 
 109.300  25776.8    -0.14     7.24  -1.06      3034    1851       5      0.53    19.47  43.68        9.7  1.90000 
