~Version Information
 VERS.                2.0:  CWLS LOG ASCII STANDARD -VERSION 2.0
 WRAP.                 NO:  ONE LINE PER DEPTH STEP
~WELL INFORMATION BLOCK
#MNEM.UNIT       DATA		            DESCRIPTION OF MNEMONIC
#---------    -------------            ------------------------
 STRT.FT  5.900                          :START DEPTH
 STOP.FT  1425.400                       :STOP DEPTH
 STEP.FT  0.100                          :STEP    UP_HOLE  
 NULL.    0                              :NULL VALUE
 COMP.                             USGS  :COMPANY
 WELL.                             DMW1  :WELL
 FLD .      MARINA COAST WATER DISTRICT  :FIELD
 LOC .    None  None  None               :LOCATION
 CNTY.                        MONTERY ?  :COUNTY
 STAT.                     CA            :STATE
 SRVC.    PORTLAND, O                    :SERVICE COMPANY
 DATE.   11/17/00                        :LOG DATE
 UWI .                       	         :UNIQUE WELL ID
 LIC .                                   :LICENSE NUMBER
~Curve Information Block
#MNEM.UNIT      API CODE     Curve Description
#---------    -------------  ------------------------
 DEPT     .FT        00 001 00 00          :  1  DEPTH   
 TOT GAM  .CPS       00 000 00 00          :  2              TOT GAM
 THORIUM  .PPM       00 790 00 00          :  3              THORIUM
 URANIUM  .PPM       00 792 00 00          :  4              URANIUM
 POTASIUM .PERCENT   00 719 00 00          :  5             POTASIUM
 PILOT W  .CPS       00 000 00 00          :  6              PILOT W
 DAC      .MV        00 000 00 00          :  7                  DAC
 GAM(KUT) .CPS       00 310 00 00          :  8             GAM(KUT)
 THORIUM  .CPS       00 790 00 00          :  9              THORIUM
 URANIUM  .CPS       00 792 00 00          : 10              URANIUM
 POTASIUM .CPS       00 719 00 00          : 11             POTASIUM
 TENSION  .POUNDS    00 000 00 00          : 12              TENSION
 TIME     .MINUTES   00 000 00 00          : 13                 TIME
~Parameter Information Block
#MNEM.UNIT   Information     Description
#---------- ---------------  ------------------------
~Other Information
#MNEM.UNIT  Information      Description
#---------- ---------------  ------------------------
 FILE.      ORIGINAL           File Type
 FIID.      9080C              File Type Identifier
 VERS.      1.0                System Version
 SER .      1                  System Serial Number
 TRUK.      0.50000            Truck Calibration Number
 TOOL.         263             Tool Serial Number
 TIME.      11:55:             Time
 LAT .          None           Latitude
 LON .          None           Longitude
 LMF .       TOC-PVC           Log Measured From
 DMF .          None           Driller Measured From
 PD  .           TOC           Permanent Data
 PDEV.          None           Elevation Permanent Data
 EKB .M         None           Elevation Kelly Bushing
 ELEV.DF        None           Elevation DF
 EGL .M         None           Elevation Ground Level
 DRDP.          None           Driller's Depth
 CASD.         3               Casing Diameter
 CASB.          1870           Casing Bottom
 CASX.           PVC           Casing Type
 CAST.         0               Casing Thickness
 TNOC.          None           Time Circulation Stopped
 LOGU.       CENT              Logging Unit
 RECB.          KKNUTSON       Recorded By
 OSR1.          None           Other Services
 OSR2.          None           Other Services
 OSR3.          None           Other Services
 BS  .MM           6           Bit Size
 MST .                         Mean Surface Temperature
 TGRD.        0                Temperature Gradiant
 MAGN.             0           Magnetic Declination
 MDEN.      2.71               Density Matrix
 MATR.       Dolomite          Neutron Matrix
 DTMT.            54           Delta T Matrix
 DTFL.                         Delta T Fluid
 MUDS.               0         Mud Sample Source
 MRS .           0             Mud Resistivity
 MTP .           0             Mud Temperature
 MFRS.                         Resistivity Mud Filtrate
 MFTP.                         Temperature Mud Filtrate
 MCRS.         0               Resistivity Mud Cake
 MCTP.                         Temperature Mud Cake
 FTYP.             0           Fluid Type
 FD  .K/M3                     Fluid Density
 DFV .S                        Fluid Viscosity
 FPH .                         Fuild PH
 ELCO.        2500             Electron Cutoff
# -------------------------- 
~A DEPTH  TOT GAM  THORIUM  URANIUM  POTASIUM PILOT W DAC     GAM(KUT) THORIUM  URANIUM  POTASIUM TENSION  TIME    
# ...
 854.600  26074.2     6.72     8.26   0.16      2970    1804      13      1.05    22.63  47.89       24.7  1.90000 
 854.700  26480.5    -4.45    21.20  -6.45      3063    1804       6      0.53    24.74  38.95        7.4  2.00000 
 854.800  26121.1    22.33   -21.28   4.45      3025    1804      -0      1.58    12.63  43.68        3.1  2.00000 
 854.900  26148.5    -7.80     9.88   0.61      3031    1803       8      0.00    18.50  47.50        0.4  1.90000 
 855.000  26123.0    32.70   -14.32   3.98      3024    1809      12      2.50    20.00  48.00        0.4  2.00000 
 855.100  26108.4     7.96     4.65   3.18      3045    1807      17      1.05    21.58  52.63       -0.0  2.00000 
 855.200  26370.0    37.64    -7.74   5.02      3078    1808      25      3.00    25.50  54.50       -0.0  1.90000 
 855.300  26142.5    34.09   -19.98   1.56      2986    1805       1      2.50    17.00  40.00        3.9  2.00000 
 855.400  26041.1     0.70     5.44   3.26      2971    1806      14      0.53    19.47  52.11        4.6  1.90000 
 855.500  26059.0    12.94     6.68  -2.65      3085    1798       9      1.50    23.50  42.00       -0.0  1.90000 
 855.600  26034.2    14.88     5.56   4.67      3045    1807      25      1.58    24.74  57.37        0.3  1.90000 
 855.700  26070.5    27.96   -16.66   2.65      3074    1805       4      2.11    16.84  43.16        2.9  1.90000 
 855.800  26187.4    13.10   -12.51   7.83      3026    1805      12      1.05    14.74  54.21        3.0  1.80000 
 855.900  26203.2    24.72    -5.46   1.07      3031    1810      11      2.11    21.58  45.26        8.2  1.80000 
 856.000  26316.7     6.07    13.22  -0.57      2919    1803      17      1.11    25.00  48.89       -0.0  1.80000 
 856.100  26178.3    40.20   -26.09  10.43      2947    1813      18      2.78    17.22  56.67       -0.0  1.80000 
 856.200  26077.2    18.92    -4.72   4.80      3001    1807      17      1.67    20.56  52.78       -0.0  1.90000 
 856.300  26316.1    27.42    -8.81   3.66      2993    1819      15      2.22    21.11  49.44        0.5  1.80000 
 856.400  26352.6    -0.75     9.49  -0.85      3062    1799       8      0.53    20.53  45.26        7.2  1.80000 
 856.500  26226.1    70.27   -30.11  -0.06      3003    1811       7      5.00    23.89  36.67       17.7  1.80000 
 856.600  26289.4    14.21    10.37  -1.74      3026    1807      16      1.67    26.11  46.11       10.4  1.90000 
 856.700  26255.6   -10.20    18.38   0.08      2988    1810      15      0.00    22.22  50.56        2.2  1.80000 
 856.800  26189.5     7.05     7.08   0.18      2926    1817      12      1.05    22.11  47.37        1.7  1.80000 
 856.900  26256.7    -0.90    11.55  -0.44      3027    1806      11      0.56    21.67  47.22        3.4  1.90000 
 857.000  26146.1     5.66    14.58  -0.89      3033    1808      17      1.11    25.56  48.89       11.6  2.10000 
 857.100  26106.3    17.63    -4.12   5.41      3074    1803      18      1.58    20.53  54.21        9.7  2.00000 
 857.200  26278.1     5.51     7.74   0.02      3024    1803      12      0.95    21.90  47.14        4.2  2.00000 
 857.300  26288.5     2.73    19.45  -2.07      3074    1804      18      1.00    27.00  48.50       11.0  2.00000 
 857.400  26192.0    43.09   -27.04   5.95      3038    1806       9      3.00    17.00  47.00        3.8  2.00000 
 857.500  26437.5    47.61   -18.64   7.96      2921    1817      25      3.50    23.50  56.50        8.0  2.00000 
 857.600  26141.5     3.07    18.70  -0.28      3014    1802      22      1.00    27.00  52.00        4.1  1.90000 
 857.700  26204.0    -1.84    11.17  -4.34      2999    1804       1      0.50    20.50  38.50        6.9  2.00000 
 857.800  26233.7    -5.46    25.25  -4.94      2969    1811      13      0.53    26.84  44.21        5.5  2.00000 
 857.900  26124.5    17.41    -8.28   1.24      2990    1806       4      1.50    17.50  43.00        6.3  1.90000 
 858.000  26346.0   -10.71    19.71  -1.64      3050    1807      12      0.00    22.50  47.50       13.0  1.90000 
 858.100  26165.3    24.77    -5.58   1.34      2955    1808      11      2.11    21.58  45.79        9.2  1.80000 
 858.200  26267.9    16.22     0.33   3.18      3106    1800      17      1.58    22.11  51.58       10.6  1.80000 
 858.300  26073.9     2.69    -0.62   2.09      3078    1802       6      0.56    16.67  46.67        9.4  1.80000 
 858.400  26188.9    -2.57    17.13  -1.97      3077    1803      13      0.56    23.89  46.67       10.2  1.80000 
 858.500  26330.0    19.95    -7.92   6.57      3082    1809      18      1.67    19.44  55.00        6.2  1.80000 
 858.600  26076.7    22.23     9.78   3.54      2996    1807      32      2.22    29.44  58.33       10.7  1.80000 
 858.700  25992.8    18.43    -3.65   2.24      3123    1797      12      1.67    20.56  47.78       14.8  1.80000 
 858.800  26354.4    10.59    -2.46   1.46      3026    1807       7      1.11    18.33  45.56        7.6  1.80000 
 858.900  26045.6    -1.67    13.22  -4.43      2971    1808       3      0.56    21.67  39.44        1.3  1.90000 
 859.000  26140.0    -3.27    19.63  -2.02      2911    1816      15      0.56    25.00  47.78        2.2  1.80000 
 859.100  25938.9    -0.47     9.83   3.96      3021    1806      20      0.53    21.58  55.79        2.5  1.80000 
 859.200  25937.8    28.96   -13.62   6.31      2998    1806      16      2.22    19.44  52.78        7.8  2.00000 
 859.300  26122.8     8.90     5.14   6.95      3098    1795      27      1.11    22.78  61.11        8.3  2.00000 
 859.400  26050.0    31.85   -12.50  -0.38      3019    1801       4      2.50    20.00  39.50        6.7  2.00000 
 859.500  26007.0    12.32     8.45  -4.21      2973    1803       7      1.50    24.00  39.50       19.1  2.00000 
 859.600  25974.0     7.79     1.87   0.09      3059    1802       7      1.00    19.50  44.50       18.5  2.08000 
 859.700  26107.0    27.39   -19.66   2.67      2990    1812       0      2.00    15.00  41.50       13.4  1.92000 
 859.800  26258.5    22.04    -0.59   2.25      3023    1801      17      2.00    23.50  50.00       12.4  1.90000 
 859.900  26148.0    27.74   -19.08   9.26      3002    1810      16      2.00    16.50  56.00        5.2  1.90000 
 860.000  25962.1    12.12   -10.87   1.11      2983    1796      -2      1.05    14.21  40.53        9.2  2.00000 
 860.100  26229.5     7.37     5.00  -3.25      2988    1803       2      1.05    20.53  38.95       10.0  1.90000 
 860.200  26158.0    51.66   -33.61   6.51      3032    1804       8      3.50    16.50  46.00       14.4  2.00000 
 860.300  26101.6     1.88     0.55   0.95      2983    1808       4      0.53    16.84  44.74       14.5  1.92000 
 860.400  26167.5     2.12    -2.25  -1.51      2978    1810      -5      0.50    15.00  38.00        7.4  1.88000 
 860.500  26225.3     9.21    -0.86  -0.45      3004    1811       3      1.05    18.42  42.11       11.3  1.80000 
 860.600  26081.1    -2.00    13.60  -2.27      2944    1808       9      0.53    22.11  44.21       10.2  1.80000 
 860.700  26186.1     2.88    22.54  -8.12      3069    1802       8      1.11    27.78  37.22        7.7  1.80000 
 860.800  26205.6    13.68   -12.08   6.76      3081    1801      10      1.11    15.00  52.22        8.8  1.90000 
 860.900  26199.4     6.10    13.63   1.40      3032    1803      22      1.11    25.56  53.33        6.3  1.80000 
 861.000  26254.2     9.82    21.59  -2.91      3046    1805      23      1.58    30.53  48.95       10.7  1.80000 
 861.100  26243.9    44.15   -15.45   3.60      2987    1811      17      3.33    23.33  48.33        9.1  1.90000 
 861.200  26112.2    -3.26    19.09  -3.71      3011    1803      11      0.56    24.44  43.89       17.0  1.90000 
 861.300  26074.7     2.96    -2.72   3.17      3035    1809       6      0.53    15.79  47.89       19.0  1.80000 
 861.400  26114.2    19.63    11.58  -3.32      3101    1796      17      2.11    28.42  44.21       14.9  1.80000 
