~Version Information
 VERS.                2.0:  CWLS LOG ASCII STANDARD -VERSION 2.0
 WRAP.                 NO:  ONE LINE PER DEPTH STEP
~WELL INFORMATION BLOCK
#MNEM.UNIT       DATA		            DESCRIPTION OF MNEMONIC
#---------    -------------            ------------------------
 STRT.FT  0.800                          :START DEPTH
 STOP.FT  1867.700                       :STOP DEPTH
 STEP.FT  0.100                          :STEP    UP_HOLE  
 NULL.    0                              :NULL VALUE
 COMP.                             USGS  :COMPANY
 WELL.                             DMW1  :WELL
 FLD .      MARINA COAST WATER DISTRICT  :FIELD
 LOC .    None  None  None               :LOCATION
 CNTY.                        MONTERY ?  :COUNTY
 STAT.                     CA            :STATE
 SRVC.    PORTLAND OR                    :SERVICE COMPANY
 DATE.   11/17/00                        :LOG DATE
 UWI .                       	         :UNIQUE WELL ID
 LIC .                                   :LICENSE NUMBER
~Curve Information Block
#MNEM.UNIT      API CODE     Curve Description
#---------    -------------  ------------------------
 DEPT     .FT        00 001 00 00          :  1  DEPTH   
 GAM(NAT) .API-GR    00 310 00 00          :  2             GAM(NAT)
 COND     .MMHO/M    00 000 00 00          :  3                 COND
 RES      .OHM-M     00 000 00 00          :  4                  RES
 TEMP     .DEG F     00 660 00 00          :  5                 TEMP
 AP-COND  .MMHO/M    00 000 00 00          :  6              AP-COND
 TEMP     .CPS       00 660 00 00          :  7                 TEMP
 AP-COND  .CPS       00 000 00 00          :  8              AP-COND
 TENSION  .POUNDS    00 000 00 00          :  9              TENSION
 TIME     .MINUTES   00 000 00 00          : 10                 TIME
~Parameter Information Block
#MNEM.UNIT   Information     Description
#---------- ---------------  ------------------------
~Other Information
#MNEM.UNIT  Information      Description
#---------- ---------------  ------------------------
 FILE.      ORIGINAL           File Type
 FIID.      9511A              File Type Identifier
 VERS.      1.0                System Version
 SER .      1                  System Serial Number
 TRUK.      0.50000            Truck Calibration Number
 TOOL.         989             Tool Serial Number
 TIME.      20:51:             Time
 LAT .          None           Latitude
 LON .          None           Longitude
 LMF .       TOC-PVC           Log Measured From
 DMF .          None           Driller Measured From
 PD  .           TOC           Permanent Data
 PDEV.          None           Elevation Permanent Data
 EKB .M         None           Elevation Kelly Bushing
 ELEV.DF        None           Elevation DF
 EGL .M         None           Elevation Ground Level
 DRDP.          None           Driller's Depth
 CASD.         3               Casing Diameter
 CASB.          1870           Casing Bottom
 CASX.           PVC           Casing Type
 CAST.         0               Casing Thickness
 TNOC.          None           Time Circulation Stopped
 LOGU.       CENT              Logging Unit
 RECB.          KKNUTSON       Recorded By
 OSR1.          None           Other Services
 OSR2.          None           Other Services
 OSR3.          None           Other Services
 BS  .MM           6           Bit Size
 MST .                         Mean Surface Temperature
 TGRD.        0                Temperature Gradiant
 MAGN.             0           Magnetic Declination
 MDEN.      2.71               Density Matrix
 MATR.       Dolomite          Neutron Matrix
 DTMT.            54           Delta T Matrix
 DTFL.                         Delta T Fluid
 MUDS.               0         Mud Sample Source
 MRS .           0             Mud Resistivity
 MTP .           0             Mud Temperature
 MFRS.                         Resistivity Mud Filtrate
 MFTP.                         Temperature Mud Filtrate
 MCRS.         0               Resistivity Mud Cake
 MCTP.                         Temperature Mud Cake
 FTYP.             0           Fluid Type
 FD  .K/M3                     Fluid Density
 DFV .S                        Fluid Viscosity
 FPH .                         Fuild PH
 ELCO.        2500             Electron Cutoff
# -------------------------- 
~A DEPTH  GAM(NAT) COND     RES      TEMP  AP-COND  TEMP  AP-COND  TENSION  TIME    
# ...
 374.100     95.0    231.9      4.3  5388.4   206.8  28320.0 77126.7      2.6  0.30000 
 374.200     67.8    236.2      4.2  5388.4   210.5  28320.0 77550.0      4.1  0.30000 
 374.300     95.0    240.0      4.2  5388.4   213.8  28320.0 77926.7      3.0  0.30000 
 374.400     74.6    245.9      4.1  5388.4   219.0  28320.0 78506.7      1.9  0.30000 
 374.500     71.2    252.3      4.0  5388.4   224.5  28320.0 79136.7      2.3  0.30000 
 374.600     84.8    259.6      3.9  5388.4   230.9  28320.0 79860.0      0.6  0.30000 
 374.700     84.8    266.9      3.7  5388.4   237.2  28320.0 80576.7      3.5  0.20000 
 374.800     78.0    275.5      3.6  5388.4   244.6  28320.0 81416.7      6.3  0.30000 
 374.900     76.3    284.4      3.5  5388.4   252.4  28320.0 82300.0      6.3  0.30000 
 375.000     44.1    291.1      3.4  5388.4   258.2  28320.0 82950.0      8.0  0.30000 
 375.100     71.2    302.2      3.3  5389.1   267.8  28323.3 84046.7      8.6  0.30000 
 375.200     47.5    311.5      3.2  5388.4   275.9  28320.0 84960.0      8.3  0.30000 
 375.300     71.2    324.1      3.1  5389.1   286.8  28323.3 86190.0      8.6  0.30000 
 375.400     64.4    336.1      3.0  5388.4   297.2  28320.0 87366.7     10.0  0.30000 
 375.500     67.8    348.3      2.9  5389.1   307.7  28323.3 88556.7      7.8  0.30000 
 375.600     54.3    359.1      2.8  5389.1   317.0  28323.3 89616.7      9.2  0.30000 
 375.700     50.9    372.4      2.7  5389.1   328.4  28323.3 90910.0      9.3  0.30000 
 375.800     57.7    384.6      2.6  5388.4   339.0  28320.0 92103.3      7.7  0.30000 
 375.900     61.1    396.5      2.5  5389.1   349.2  28323.3 93266.7      6.5  0.30000 
 376.000     47.5    409.8      2.4  5389.1   360.6  28323.3 94560.0      9.7  0.30000 
 376.100     50.9    420.8      2.4  5389.1   370.1  28323.3 95626.7     10.0  0.30000 
 376.200     40.7    432.7      2.3  5389.8   380.3  28326.7 96790.0     10.3  0.20000 
 376.300     76.3    445.1      2.2  5388.4   390.9  28320.0 97993.3     11.7  0.30000 
 376.400     73.8    453.8      2.2  5389.4   398.4  28325.0 98840.0     10.4  0.30000 
 376.500     33.9    463.1      2.2  5389.1   406.4  28323.3 99743.3      9.8  0.30000 
 376.600     74.6    474.2      2.1  5389.8   415.9  28326.7 100823.3    10.4  0.30000 
 376.700     40.7    484.0      2.1  5389.1   424.3  28323.3 101776.7     9.9  0.30000 
 376.800     47.5    495.5      2.0  5389.1   434.1  28323.3 102886.7     8.9  0.30000 
 376.900     74.6    506.9      2.0  5389.1   443.9  28323.3 103993.3     8.9  0.30000 
 377.000     71.2    517.3      1.9  5389.8   452.8  28326.7 105000.0     7.9  0.30000 
 377.100     64.4    526.9      1.9  5389.8   461.0  28326.7 105933.3     5.6  0.30000 
 377.200     33.9    537.8      1.9  5389.8   470.4  28326.7 106990.0     4.4  0.30000 
 377.300     54.3    546.7      1.8  5389.8   477.9  28326.7 107850.0     4.8  0.30000 
 377.400     64.4    557.6      1.8  5389.8   487.3  28326.7 108906.7     4.2  0.30000 
 377.500     78.0    569.2      1.8  5389.8   497.1  28326.7 110023.3     2.6  0.20000 
 377.600     67.8    579.6      1.7  5389.8   506.0  28326.7 111033.3     0.6  0.30000 
 377.700    101.8    589.1      1.7  5389.4   514.1  28325.0 111945.0     1.0  0.30000 
 377.800     74.6    596.6      1.7  5389.8   520.5  28326.7 112676.7     0.6  0.30000 
 377.900     81.4    608.8      1.6  5390.5   530.9  28330.0 113846.7     1.7  0.30000 
 378.000     50.9    619.3      1.6  5390.5   539.8  28330.0 114860.0     2.1  0.30000 
 378.100     50.9    631.2      1.6  5390.5   550.0  28330.0 116013.3     1.6  0.30000 
 378.200     67.8    639.0      1.6  5389.8   556.6  28326.7 116760.0     0.9  0.30000 
 378.300     47.5    649.0      1.5  5389.8   565.1  28326.7 117723.3     0.7  0.30000 
 378.400     50.9    658.9      1.5  5390.5   573.5  28330.0 118680.0     0.9  0.30000 
 378.500     67.8    668.3      1.5  5390.5   581.5  28330.0 119586.7     0.4  0.30000 
 378.600     44.1    675.2      1.5  5390.5   587.4  28330.0 120253.3     0.6  0.30000 
 378.700     74.6    685.0      1.5  5390.5   595.7  28330.0 121196.7     0.3  0.30000 
 378.800     47.5    693.9      1.4  5390.5   603.3  28330.0 122053.3     1.0  0.30000 
 378.900     61.1    700.4      1.4  5391.2   608.8  28333.3 122673.3     0.8  0.30000 
 379.000     74.6    707.3      1.4  5390.5   614.7  28330.0 123343.3     1.7  0.30000 
 379.100     71.2    714.1      1.4  5390.5   620.4  28330.0 123993.3     2.2  0.20000 
 379.200     47.5    719.6      1.4  5391.2   625.1  28333.3 124526.7     1.6  0.30000 
 379.300    101.8    724.3      1.4  5390.5   629.1  28330.0 124975.0     1.4  0.30000 
 379.400     44.1    726.7      1.4  5390.5   631.1  28330.0 125203.3     2.4  0.30000 
 379.500     44.1    731.6      1.4  5391.2   635.3  28333.3 125680.0     3.1  0.30000 
 379.600     64.4    736.1      1.4  5390.5   639.1  28330.0 126110.0     3.1  0.30000 
 379.700     67.8    741.2      1.3  5391.2   643.4  28333.3 126596.7     5.1  0.30000 
 379.800     64.4    743.8      1.3  5390.5   645.7  28330.0 126853.3     5.4  0.30000 
 379.900     54.3    746.5      1.3  5391.2   647.9  28333.3 127106.7     5.5  0.30000 
 380.000     61.1    748.1      1.3  5391.2   649.3  28333.3 127260.0     5.5  0.30000 
 380.100     64.4    750.3      1.3  5391.2   651.2  28333.3 127476.7     3.4  0.30000 
 380.200     64.4    749.8      1.3  5391.2   650.8  28333.3 127430.0     3.0  0.32000 
 380.300     61.1    748.8      1.3  5391.2   649.9  28333.3 127326.7     1.7  0.33000 
 380.400     81.4    745.9      1.3  5391.9   647.4  28336.7 127050.0     0.5  0.22000 
 380.500     50.9    742.1      1.3  5390.5   644.2  28330.0 126690.0    -0.0  0.22000 
 380.600     64.4    738.4      1.4  5391.5   641.1  28335.0 126335.0    -0.0  0.31000 
 380.700     57.7    736.1      1.4  5391.5   639.1  28335.0 126105.0     0.5  0.30000 
 380.800     44.1    734.1      1.4  5391.5   637.4  28335.0 125920.0     0.5  0.30000 
 380.900     74.6    732.1      1.4  5390.5   635.7  28330.0 125723.3     0.5  0.30000 
 381.000     50.9    728.4      1.4  5391.2   632.6  28333.3 125373.3     0.8  0.30000 
 381.100     64.4    726.4      1.4  5390.5   630.9  28330.0 125180.0     0.3  0.30000 
 381.200     61.1    717.1      1.4  5391.9   623.0  28336.7 124280.0     1.0  0.30000 
 381.300     50.9    707.5      1.4  5391.2   614.8  28333.3 123356.7     1.0  0.30000 
 381.400     78.0    697.1      1.4  5391.2   606.0  28333.3 122356.7     0.7  0.30000 
 381.500     37.3    688.2      1.5  5391.9   598.5  28336.7 121503.3    -0.0  0.30000 
 381.600     67.8    683.1      1.5  5391.9   594.1  28336.7 121010.0    -0.0  0.30000 
 381.700     71.2    677.9      1.5  5391.9   589.7  28336.7 120510.0    -0.0  0.30000 
 381.800     64.4    674.0      1.5  5391.9   586.4  28336.7 120136.7    -0.0  0.30000 
 381.900     66.1    669.9      1.5  5391.9   582.9  28336.7 119743.3    -0.0  0.20000 
 382.000     74.6    666.2      1.5  5391.9   579.7  28336.7 119383.3    -0.0  0.30000 
 382.100     88.2    659.8      1.5  5392.6   574.3  28340.0 118770.0    -0.0  0.30000 
 382.200     84.8    656.8      1.5  5391.9   571.8  28336.7 118480.0    -0.0  0.30000 
 382.300     88.2    650.9      1.5  5392.6   566.7  28340.0 117906.7    -0.0  0.30000 
 382.400     50.9    645.6      1.5  5391.9   562.2  28336.7 117400.0     0.9  0.30000 
 382.500     54.3    642.0      1.6  5391.9   559.2  28336.7 117053.3     1.3  0.30000 
 382.600     50.9    636.3      1.6  5391.9   554.3  28336.7 116506.7     1.3  0.30000 
 382.700     64.4    632.6      1.6  5392.6   551.2  28340.0 116146.7     0.4  0.30000 
 382.800     74.6    629.2      1.6  5392.6   548.3  28340.0 115820.0     0.4  0.30000 
 382.900     50.9    627.2      1.6  5391.2   546.6  28333.3 115630.0    -0.0  0.30000 
 383.000     71.2    624.3      1.6  5392.6   544.1  28340.0 115343.3     0.2  0.30000 
 383.100     98.4    622.8      1.6  5392.6   542.8  28340.0 115203.3     0.3  0.30000 
