~Version Information
 VERS.                2.0:  CWLS LOG ASCII STANDARD -VERSION 2.0
 WRAP.                 NO:  ONE LINE PER DEPTH STEP
~WELL INFORMATION BLOCK
#MNEM.UNIT       DATA		            DESCRIPTION OF MNEMONIC
#---------    -------------            ------------------------
 STRT.FT  0.800                          :START DEPTH
 STOP.FT  1867.700                       :STOP DEPTH
 STEP.FT  0.100                          :STEP    UP_HOLE  
 NULL.    0                              :NULL VALUE
 COMP.                             USGS  :COMPANY
 WELL.                             DMW1  :WELL
 FLD .      MARINA COAST WATER DISTRICT  :FIELD
 LOC .    None  None  None               :LOCATION
 CNTY.                        MONTERY ?  :COUNTY
 STAT.                     CA            :STATE
 SRVC.    PORTLAND OR                    :SERVICE COMPANY
 DATE.   11/17/00                        :LOG DATE
 UWI .                       	         :UNIQUE WELL ID
 LIC .                                   :LICENSE NUMBER
~Curve Information Block
#MNEM.UNIT      API CODE     Curve Description
#---------    -------------  ------------------------
 DEPT     .FT        00 001 00 00          :  1  DEPTH   
 GAM(NAT) .API-GR    00 310 00 00          :  2             GAM(NAT)
 COND     .MMHO/M    00 000 00 00          :  3                 COND
 RES      .OHM-M     00 000 00 00          :  4                  RES
 TEMP     .DEG F     00 660 00 00          :  5                 TEMP
 AP-COND  .MMHO/M    00 000 00 00          :  6              AP-COND
 TEMP     .CPS       00 660 00 00          :  7                 TEMP
 AP-COND  .CPS       00 000 00 00          :  8              AP-COND
 TENSION  .POUNDS    00 000 00 00          :  9              TENSION
 TIME     .MINUTES   00 000 00 00          : 10                 TIME
~Parameter Information Block
#MNEM.UNIT   Information     Description
#---------- ---------------  ------------------------
~Other Information
#MNEM.UNIT  Information      Description
#---------- ---------------  ------------------------
 FILE.      ORIGINAL           File Type
 FIID.      9511A              File Type Identifier
 VERS.      1.0                System Version
 SER .      1                  System Serial Number
 TRUK.      0.50000            Truck Calibration Number
 TOOL.         989             Tool Serial Number
 TIME.      20:51:             Time
 LAT .          None           Latitude
 LON .          None           Longitude
 LMF .       TOC-PVC           Log Measured From
 DMF .          None           Driller Measured From
 PD  .           TOC           Permanent Data
 PDEV.          None           Elevation Permanent Data
 EKB .M         None           Elevation Kelly Bushing
 ELEV.DF        None           Elevation DF
 EGL .M         None           Elevation Ground Level
 DRDP.          None           Driller's Depth
 CASD.         3               Casing Diameter
 CASB.          1870           Casing Bottom
 CASX.           PVC           Casing Type
 CAST.         0               Casing Thickness
 TNOC.          None           Time Circulation Stopped
 LOGU.       CENT              Logging Unit
 RECB.          KKNUTSON       Recorded By
 OSR1.          None           Other Services
 OSR2.          None           Other Services
 OSR3.          None           Other Services
 BS  .MM           6           Bit Size
 MST .                         Mean Surface Temperature
 TGRD.        0                Temperature Gradiant
 MAGN.             0           Magnetic Declination
 MDEN.      2.71               Density Matrix
 MATR.       Dolomite          Neutron Matrix
 DTMT.            54           Delta T Matrix
 DTFL.                         Delta T Fluid
 MUDS.               0         Mud Sample Source
 MRS .           0             Mud Resistivity
 MTP .           0             Mud Temperature
 MFRS.                         Resistivity Mud Filtrate
 MFTP.                         Temperature Mud Filtrate
 MCRS.         0               Resistivity Mud Cake
 MCTP.                         Temperature Mud Cake
 FTYP.             0           Fluid Type
 FD  .K/M3                     Fluid Density
 DFV .S                        Fluid Viscosity
 FPH .                         Fuild PH
 ELCO.        2500             Electron Cutoff
# -------------------------- 
~A DEPTH  GAM(NAT) COND     RES      TEMP  AP-COND  TEMP  AP-COND  TENSION  TIME    
# ...
1484.300     71.2     43.4     23.0  5660.6    40.2  29623.3 58256.7      1.5  0.22000 
1484.400     50.9     42.5     23.5  5661.3    39.4  29626.7 58163.3      1.5  0.31000 
1484.500     64.4     44.2     22.6  5660.9    40.9  29625.0 58335.0      1.1  0.30000 
1484.600     57.7     42.5     23.5  5660.9    39.4  29625.0 58162.5      1.2  0.30000 
1484.700     98.4     42.7     23.4  5661.3    39.6  29626.7 58186.7      1.1  0.30000 
1484.800     54.3     44.0     22.7  5661.3    40.8  29626.7 58323.3      0.7  0.30000 
1484.900     50.9     42.6     23.5  5661.3    39.5  29626.7 58170.0      0.7  0.30000 
1485.000     71.2     42.4     23.6  5661.3    39.3  29626.7 58156.7     -0.0  0.30000 
1485.100     54.3     42.8     23.3  5660.6    39.7  29623.3 58200.0      0.2  0.30000 
1485.200     44.1     43.9     22.8  5661.3    40.7  29626.7 58313.3      0.2  0.30000 
1485.300     50.9     42.9     23.3  5661.3    39.7  29626.7 58203.3      0.2  0.30000 
1485.400     64.4     41.9     23.9  5661.3    38.8  29626.7 58100.0     -0.0  0.30000 
1485.500     33.9     43.2     23.1  5660.6    40.1  29623.3 58240.0      0.2  0.30000 
1485.600     81.4     42.7     23.4  5661.3    39.6  29626.7 58183.3      0.2  0.30000 
1485.700     64.4     42.9     23.3  5662.0    39.7  29630.0 58203.3      0.2  0.30000 
1485.800     67.8     42.5     23.6  5661.3    39.4  29626.7 58160.0      0.2  0.30000 
1485.900     47.5     42.8     23.4  5661.3    39.7  29626.7 58193.3      0.1  0.30000 
1486.000     54.3     44.1     22.7  5661.3    40.9  29626.7 58333.3      0.1  0.30000 
1486.100     67.8     43.6     23.0  5662.0    40.4  29630.0 58273.3      0.3  0.30000 
1486.200     61.1     43.0     23.3  5660.6    39.9  29623.3 58216.7      0.3  0.33000 
1486.300     54.3     42.4     23.6  5662.0    39.3  29630.0 58156.7      0.4  0.33000 
1486.400     71.2     43.8     22.8  5661.3    40.6  29626.7 58296.7      1.0  0.33000 
1486.500     78.0     43.7     22.9  5662.0    40.5  29630.0 58283.3      1.2  0.21000 
1486.600     81.4     44.1     22.7  5661.3    40.9  29626.7 58330.0      2.2  0.30000 
1486.700     50.9     43.5     23.0  5662.0    40.3  29630.0 58270.0      4.0  0.30000 
1486.800     47.5     44.3     22.6  5662.0    41.0  29630.0 58346.7      4.7  0.30000 
1486.900     61.1     44.8     22.3  5661.3    41.5  29626.7 58396.7      5.7  0.30000 
1487.000     57.7     44.9     22.3  5662.0    41.6  29630.0 58410.0      6.4  0.30000 
1487.100     71.2     44.5     22.5  5662.0    41.2  29630.0 58366.7      6.8  0.30000 
1487.200    111.9     44.4     22.5  5662.0    41.1  29630.0 58360.0      7.4  0.30000 
1487.300     50.9     45.1     22.2  5662.0    41.8  29630.0 58433.3      7.4  0.30000 
1487.400     91.6     44.0     22.7  5662.0    40.8  29630.0 58320.0      7.7  0.30000 
1487.500     61.1     45.0     22.2  5662.0    41.7  29630.0 58420.0      7.9  0.30000 
1487.600     44.1     43.8     22.8  5662.0    40.6  29630.0 58296.7      7.7  0.30000 
1487.700     86.5     44.5     22.5  5662.0    41.2  29630.0 58373.3      6.9  0.30000 
1487.800     73.8     43.5     23.0  5662.0    40.3  29630.0 58270.0      6.5  0.30000 
1487.900     54.3     44.5     22.5  5662.0    41.2  29630.0 58373.3      6.1  0.30000 
1488.000     71.2     45.4     22.0  5662.0    42.0  29630.0 58460.0      4.7  0.31000 
1488.100     54.3     44.5     22.5  5662.0    41.2  29630.0 58370.0      3.5  0.33000 
1488.200     78.0     44.4     22.5  5662.0    41.1  29630.0 58356.7      1.8  0.33000 
1488.300     57.7     43.8     22.9  5662.0    40.5  29630.0 58293.3      1.0  0.22000 
1488.400     54.3     44.5     22.5  5662.0    41.2  29630.0 58366.7      0.5  0.31000 
1488.500     71.2     45.7     21.9  5662.0    42.3  29630.0 58490.0      0.5  0.30000 
1488.600    105.2     44.9     22.3  5662.0    41.5  29630.0 58407.5      0.1  0.30000 
1488.700     50.9     44.8     22.3  5662.6    41.5  29633.3 58400.0      0.5  0.30000 
1488.800     84.8     46.3     21.6  5662.0    42.8  29630.0 58553.3      0.4  0.30000 
1488.900     54.3     45.7     21.9  5662.6    42.3  29633.3 58496.7      1.6  0.30000 
1489.000     57.7     46.2     21.6  5662.0    42.7  29630.0 58543.3      2.2  0.30000 
1489.100     71.2     46.8     21.4  5662.0    43.3  29630.0 58603.3      2.4  0.30000 
1489.200     50.9     46.4     21.5  5662.6    43.0  29633.3 58566.7      2.6  0.30000 
1489.300     78.0     45.6     21.9  5662.0    42.2  29630.0 58480.0      2.2  0.30000 
1489.400     66.1     45.5     22.0  5662.6    42.2  29633.3 58476.7      1.9  0.30000 
1489.500     98.4     45.8     21.8  5662.6    42.4  29633.3 58503.3      2.4  0.30000 
1489.600     57.7     45.0     22.2  5662.6    41.6  29633.3 58416.7      1.3  0.30000 
1489.700     64.4     45.5     22.0  5662.6    42.1  29633.3 58470.0      1.8  0.30000 
1489.800     67.8     46.5     21.5  5662.0    43.0  29630.0 58570.0      0.9  0.30000 
1489.900     61.1     46.0     21.8  5662.0    42.5  29630.0 58520.0      1.4  0.30000 
1490.000     78.0     47.1     21.2  5662.6    43.6  29633.3 58636.7      0.6  0.30000 
1490.100     84.8     46.1     21.7  5662.6    42.6  29633.3 58530.0      0.6  0.30000 
1490.200     64.4     45.9     21.8  5662.6    42.5  29633.3 58516.7      0.5  0.30000 
1490.300     54.3     45.1     22.2  5662.6    41.8  29633.3 58433.3      0.4  0.30000 
1490.400     84.8     45.2     22.1  5662.6    41.8  29633.3 58436.7      1.0  0.30000 
1490.500     88.2     45.7     21.9  5662.6    42.3  29633.3 58496.7      0.6  0.30000 
1490.600     84.8     45.6     21.9  5662.6    42.2  29633.3 58483.3      0.8  0.30000 
1490.700     71.2     45.6     21.9  5663.3    42.2  29636.7 58486.7      0.4  0.30000 
1490.800     56.0     45.8     21.8  5662.6    42.4  29633.3 58500.0      0.7  0.30000 
1490.900     57.7     44.7     22.4  5662.6    41.4  29633.3 58386.7      0.5  0.30000 
1491.000     74.6     45.3     22.1  5663.3    42.0  29636.7 58453.3      0.5  0.30000 
1491.100     50.9     45.9     21.8  5662.6    42.5  29633.3 58513.3      0.3  0.30000 
1491.200     44.1     44.5     22.5  5663.3    41.2  29636.7 58370.0      0.3  0.30000 
1491.300     61.1     43.9     22.8  5662.6    40.7  29633.3 58313.3      0.8  0.30000 
1491.400     57.7     44.4     22.5  5663.3    41.2  29636.7 58363.3      0.5  0.30000 
1491.500     54.3     44.2     22.6  5662.6    41.0  29633.3 58343.3      0.8  0.30000 
1491.600     33.9     44.1     22.7  5662.6    40.8  29633.3 58326.7      0.8  0.31000 
1491.700     71.2     44.3     22.6  5663.3    41.1  29636.7 58353.3      1.3  0.33000 
1491.800     61.1     44.0     22.7  5663.3    40.8  29636.7 58323.3      3.7  0.33000 
1491.900     47.5     44.8     22.3  5662.6    41.5  29633.3 58396.7      4.9  0.22000 
1492.000     50.9     44.9     22.3  5663.3    41.6  29636.7 58410.0      4.8  0.31000 
1492.100     84.8     45.8     21.8  5663.0    42.4  29635.0 58505.0      4.8  0.30000 
1492.200     78.0     45.4     22.0  5663.5    42.0  29637.5 58462.5      3.8  0.30000 
1492.300     40.7     44.5     22.5  5662.6    41.2  29633.3 58366.7      2.3  0.30000 
1492.400     37.3     45.1     22.2  5663.3    41.7  29636.7 58426.7      3.1  0.30000 
1492.500     47.5     46.5     21.5  5663.3    43.0  29636.7 58576.7      2.4  0.30000 
1492.600     57.7     46.4     21.5  5663.3    43.0  29636.7 58566.7      2.7  0.30000 
1492.700     64.4     45.4     22.0  5662.6    42.0  29633.3 58463.3      3.1  0.30000 
1492.800     71.2     47.6     21.0  5663.3    44.0  29636.7 58683.3      2.7  0.30000 
1492.900     78.0     45.4     22.0  5662.6    42.1  29633.3 58466.7      4.1  0.30000 
1493.000     50.9     45.5     22.0  5663.3    42.1  29636.7 58470.0      3.4  0.30000 
1493.100     71.2     46.3     21.6  5663.3    42.9  29636.7 58556.7      3.1  0.30000 
1493.200     64.4     46.5     21.5  5662.6    43.0  29633.3 58570.0      1.8  0.30000 
1493.300     88.2     46.1     21.7  5663.3    42.6  29636.7 58530.0      2.2  0.30000 
