~Version Information
 VERS.                2.0:  CWLS LOG ASCII STANDARD -VERSION 2.0
 WRAP.                 NO:  ONE LINE PER DEPTH STEP
~WELL INFORMATION BLOCK
#MNEM.UNIT       DATA		            DESCRIPTION OF MNEMONIC
#---------    -------------            ------------------------
 STRT.FT  0.800                          :START DEPTH
 STOP.FT  1867.700                       :STOP DEPTH
 STEP.FT  0.100                          :STEP    UP_HOLE  
 NULL.    0                              :NULL VALUE
 COMP.                             USGS  :COMPANY
 WELL.                             DMW1  :WELL
 FLD .      MARINA COAST WATER DISTRICT  :FIELD
 LOC .    None  None  None               :LOCATION
 CNTY.                        MONTERY ?  :COUNTY
 STAT.                     CA            :STATE
 SRVC.    PORTLAND OR                    :SERVICE COMPANY
 DATE.   11/17/00                        :LOG DATE
 UWI .                       	         :UNIQUE WELL ID
 LIC .                                   :LICENSE NUMBER
~Curve Information Block
#MNEM.UNIT      API CODE     Curve Description
#---------    -------------  ------------------------
 DEPT     .FT        00 001 00 00          :  1  DEPTH   
 GAM(NAT) .API-GR    00 310 00 00          :  2             GAM(NAT)
 COND     .MMHO/M    00 000 00 00          :  3                 COND
 RES      .OHM-M     00 000 00 00          :  4                  RES
 TEMP     .DEG F     00 660 00 00          :  5                 TEMP
 AP-COND  .MMHO/M    00 000 00 00          :  6              AP-COND
 TEMP     .CPS       00 660 00 00          :  7                 TEMP
 AP-COND  .CPS       00 000 00 00          :  8              AP-COND
 TENSION  .POUNDS    00 000 00 00          :  9              TENSION
 TIME     .MINUTES   00 000 00 00          : 10                 TIME
~Parameter Information Block
#MNEM.UNIT   Information     Description
#---------- ---------------  ------------------------
~Other Information
#MNEM.UNIT  Information      Description
#---------- ---------------  ------------------------
 FILE.      ORIGINAL           File Type
 FIID.      9511A              File Type Identifier
 VERS.      1.0                System Version
 SER .      1                  System Serial Number
 TRUK.      0.50000            Truck Calibration Number
 TOOL.         989             Tool Serial Number
 TIME.      20:51:             Time
 LAT .          None           Latitude
 LON .          None           Longitude
 LMF .       TOC-PVC           Log Measured From
 DMF .          None           Driller Measured From
 PD  .           TOC           Permanent Data
 PDEV.          None           Elevation Permanent Data
 EKB .M         None           Elevation Kelly Bushing
 ELEV.DF        None           Elevation DF
 EGL .M         None           Elevation Ground Level
 DRDP.          None           Driller's Depth
 CASD.         3               Casing Diameter
 CASB.          1870           Casing Bottom
 CASX.           PVC           Casing Type
 CAST.         0               Casing Thickness
 TNOC.          None           Time Circulation Stopped
 LOGU.       CENT              Logging Unit
 RECB.          KKNUTSON       Recorded By
 OSR1.          None           Other Services
 OSR2.          None           Other Services
 OSR3.          None           Other Services
 BS  .MM           6           Bit Size
 MST .                         Mean Surface Temperature
 TGRD.        0                Temperature Gradiant
 MAGN.             0           Magnetic Declination
 MDEN.      2.71               Density Matrix
 MATR.       Dolomite          Neutron Matrix
 DTMT.            54           Delta T Matrix
 DTFL.                         Delta T Fluid
 MUDS.               0         Mud Sample Source
 MRS .           0             Mud Resistivity
 MTP .           0             Mud Temperature
 MFRS.                         Resistivity Mud Filtrate
 MFTP.                         Temperature Mud Filtrate
 MCRS.         0               Resistivity Mud Cake
 MCTP.                         Temperature Mud Cake
 FTYP.             0           Fluid Type
 FD  .K/M3                     Fluid Density
 DFV .S                        Fluid Viscosity
 FPH .                         Fuild PH
 ELCO.        2500             Electron Cutoff
# -------------------------- 
~A DEPTH  GAM(NAT) COND     RES      TEMP  AP-COND  TEMP  AP-COND  TENSION  TIME    
# ...
1111.200     50.9    644.8      1.6  5563.8   561.5  29160.0 117320.0     2.2  0.30000 
1111.300     54.3    645.0      1.6  5563.8   561.7  29160.0 117343.3     4.4  0.30000 
1111.400     71.2    644.9      1.6  5564.5   561.6  29163.3 117330.0     5.7  0.30000 
1111.500     98.4    646.5      1.5  5563.8   563.0  29160.0 117490.0     7.6  0.30000 
1111.600     91.6    643.7      1.6  5564.5   560.6  29163.3 117220.0     8.4  0.30000 
1111.700     67.8    642.6      1.6  5564.5   559.6  29163.3 117106.7     9.0  0.30000 
1111.800     44.1    643.2      1.6  5564.5   560.1  29163.3 117163.3     8.6  0.30000 
1111.900     84.8    643.4      1.6  5563.8   560.3  29160.0 117183.3     7.7  0.30000 
1112.000     67.8    641.7      1.6  5564.5   558.9  29163.3 117026.7     6.8  0.30000 
1112.100     74.6    638.2      1.6  5564.5   555.9  29163.3 116686.7     8.6  0.30000 
1112.200     64.4    638.0      1.6  5563.8   555.8  29160.0 116666.7     8.4  0.31000 
1112.300     57.7    637.7      1.6  5563.8   555.5  29160.0 116633.3     6.4  0.33000 
1112.400     54.3    637.0      1.6  5564.5   554.9  29163.3 116566.7     6.7  0.33000 
1112.500     61.1    636.2      1.6  5564.5   554.2  29163.3 116493.3     7.9  0.22000 
1112.600     88.2    636.2      1.6  5563.8   554.2  29160.0 116490.0     8.4  0.31000 
1112.700     61.1    633.9      1.6  5563.8   552.3  29160.0 116270.0     6.8  0.30000 
1112.800     57.7    633.7      1.6  5564.3   552.1  29162.5 116250.0     6.8  0.30000 
1112.900     67.8    632.9      1.6  5564.5   551.4  29163.3 116176.7     1.8  0.30000 
1113.000     71.2    630.2      1.6  5564.5   549.1  29163.3 115913.3     2.1  0.30000 
1113.100     78.0    630.2      1.6  5564.5   549.1  29163.3 115913.3     0.4  0.30000 
1113.200     61.1    628.7      1.6  5564.5   547.8  29163.3 115770.0     0.4  0.30000 
1113.300     64.4    625.5      1.6  5564.5   545.1  29163.3 115456.7     0.1  0.30000 
1113.400     84.8    624.4      1.6  5564.5   544.2  29163.3 115356.7    -0.0  0.30000 
1113.500     95.0    622.6      1.6  5564.5   542.7  29163.3 115183.3     0.1  0.30000 
1113.600     84.8    619.3      1.6  5565.2   539.8  29166.7 114863.3     0.1  0.30000 
1113.700     78.0    617.1      1.6  5564.5   538.0  29163.3 114653.3     2.7  0.30000 
1113.800     61.1    613.5      1.6  5564.5   534.9  29163.3 114300.0     2.7  0.30000 
1113.900     64.4    610.7      1.6  5564.5   532.5  29163.3 114036.7     8.2  0.30000 
1114.000     95.0    607.7      1.6  5563.8   530.0  29160.0 113743.3     6.7  0.30000 
1114.100     47.5    603.8      1.7  5565.2   526.7  29166.7 113370.0     9.4  0.30000 
1114.200     81.4    600.5      1.7  5564.5   523.9  29163.3 113053.3     6.1  0.30000 
1114.300     50.9    597.1      1.7  5564.5   520.9  29163.3 112720.0     9.1  0.30000 
1114.400     74.6    593.5      1.7  5564.5   517.8  29163.3 112370.0     6.6  0.30000 
1114.500     88.2    590.6      1.7  5564.5   515.4  29163.3 112090.0     8.6  0.30000 
1114.600     57.7    586.3      1.7  5565.2   511.7  29166.7 111673.3     4.6  0.30000 
1114.700     71.2    581.1      1.7  5564.5   507.3  29163.3 111176.7     4.3  0.30000 
1114.800     74.6    579.0      1.7  5563.8   505.5  29160.0 110970.0     1.9  0.30000 
1114.900     81.4    574.2      1.7  5565.2   501.4  29166.7 110510.0     1.2  0.30000 
1115.000     50.9    569.8      1.8  5564.5   497.6  29163.3 110080.0     1.1  0.30000 
1115.100     74.6    565.9      1.8  5565.2   494.4  29166.7 109710.0     0.7  0.30000 
1115.200     67.8    562.6      1.8  5565.2   491.5  29166.7 109386.7     0.7  0.30000 
1115.300     54.3    557.0      1.8  5565.2   486.7  29166.7 108846.7     0.7  0.30000 
1115.400     50.9    554.0      1.8  5564.5   484.2  29163.3 108556.7     1.3  0.30000 
1115.500     54.3    549.9      1.8  5564.5   480.7  29163.3 108160.0     1.0  0.30000 
1115.600    101.8    547.4      1.8  5564.5   478.6  29163.3 107920.0     1.6  0.30000 
1115.700     44.1    543.8      1.8  5565.2   475.5  29166.7 107570.0     2.3  0.30000 
1115.800     57.7    540.7      1.8  5565.2   472.8  29166.7 107263.3     4.6  0.30000 
1115.900     81.4    537.6      1.9  5565.2   470.1  29166.7 106963.3     4.4  0.30000 
1116.000     81.4    533.8      1.9  5565.2   466.9  29166.7 106596.7     4.3  0.30000 
1116.100     44.1    531.6      1.9  5565.2   465.0  29166.7 106386.7     1.8  0.30000 
1116.200     50.9    527.3      1.9  5565.2   461.4  29166.7 105970.0     3.0  0.30000 
1116.300     74.6    526.1      1.9  5565.2   460.3  29166.7 105856.7     2.7  0.30000 
1116.400     74.6    523.5      1.9  5565.2   458.1  29166.7 105603.3     8.9  0.30000 
1116.500     84.8    522.2      1.9  5565.2   457.0  29166.7 105476.7     7.7  0.30000 
1116.600     67.8    520.0      1.9  5565.9   455.1  29170.0 105263.3    14.0  0.30000 
1116.700     61.1    517.1      1.9  5565.2   452.6  29166.7 104980.0     8.4  0.30000 
1116.800     57.7    514.7      1.9  5564.5   450.6  29163.3 104746.7    12.9  0.30000 
1116.900     64.4    512.3      2.0  5565.2   448.5  29166.7 104516.7     7.1  0.30000 
1117.000     67.8    510.2      2.0  5565.9   446.8  29170.0 104316.7     9.1  0.30000 
1117.100     54.3    507.8      2.0  5565.2   444.6  29166.7 104076.7     3.7  0.30000 
1117.200     33.9    506.7      2.0  5564.5   443.7  29163.3 103973.3     4.6  0.30000 
1117.300     57.7    505.7      2.0  5565.9   442.9  29170.0 103876.7     4.0  0.30000 
1117.400     54.3    504.9      2.0  5564.5   442.2  29163.3 103796.7     5.5  0.30000 
1117.500     61.1    503.9      2.0  5565.9   441.3  29170.0 103700.0     5.9  0.30000 
1117.600     57.7    502.7      2.0  5565.2   440.3  29166.7 103583.3     6.3  0.30000 
1117.700     50.9    501.0      2.0  5565.9   438.8  29170.0 103420.0     4.2  0.30000 
1117.800     47.5    499.7      2.0  5565.2   437.7  29166.7 103293.3     4.8  0.30000 
1117.900     54.3    498.4      2.0  5565.9   436.6  29170.0 103170.0     4.4  0.30000 
1118.000     67.8    497.1      2.0  5565.9   435.5  29170.0 103043.3     3.8  0.30000 
1118.100     81.4    496.7      2.0  5565.2   435.2  29166.7 103003.3     1.8  0.30000 
1118.200     57.7    495.8      2.0  5565.9   434.4  29170.0 102920.0     2.9  0.30000 
1118.300     54.3    493.4      2.0  5565.9   432.3  29170.0 102680.0     2.3  0.30000 
1118.400     81.4    492.3      2.0  5564.5   431.4  29163.3 102580.0     2.9  0.30000 
1118.500     61.1    490.7      2.0  5565.9   430.0  29170.0 102420.0     1.5  0.30000 
1118.600     54.3    488.1      2.0  5565.9   427.8  29170.0 102166.7     2.9  0.30000 
1118.700     57.7    485.3      2.1  5565.9   425.5  29170.0 101903.3     2.2  0.30000 
1118.800     67.8    481.1      2.1  5565.9   421.8  29170.0 101490.0     4.3  0.30000 
1118.900     54.3    479.3      2.1  5565.9   420.3  29170.0 101320.0     2.3  0.30000 
1119.000     57.7    474.8      2.1  5564.5   416.4  29163.3 100880.0     2.6  0.30000 
1119.100     57.7    471.9      2.1  5565.9   414.0  29170.0 100600.0     2.4  0.30000 
1119.200     50.9    469.8      2.1  5565.9   412.2  29170.0 100396.7     3.5  0.30000 
1119.300     56.0    463.7      2.2  5565.9   406.9  29170.0 99803.3      5.5  0.30000 
1119.400     54.3    461.0      2.2  5565.9   404.6  29170.0 99536.7      5.7  0.30000 
1119.500     57.7    456.2      2.2  5565.2   400.5  29166.7 99073.3      6.9  0.30000 
1119.600     47.5    451.7      2.2  5565.9   396.6  29170.0 98633.3      5.6  0.30000 
1119.700     78.0    447.7      2.2  5565.9   393.2  29170.0 98243.3      6.1  0.30000 
1119.800     57.7    442.6      2.3  5565.9   388.8  29170.0 97750.0      5.1  0.30000 
1119.900     47.5    436.3      2.3  5565.9   383.4  29170.0 97140.0      5.8  0.30000 
1120.000     74.6    431.7      2.3  5565.9   379.5  29170.0 96693.3      5.2  0.30000 
1120.100     47.5    423.6      2.4  5565.9   372.5  29170.0 95903.3      5.5  0.30000 
1120.200     88.2    419.2      2.4  5565.9   368.7  29170.0 95470.0      7.2  0.30000 
