~Version Information
 VERS.                2.0:  CWLS LOG ASCII STANDARD -VERSION 2.0
 WRAP.                 NO:  ONE LINE PER DEPTH STEP
~WELL INFORMATION BLOCK
#MNEM.UNIT       DATA		            DESCRIPTION OF MNEMONIC
#---------    -------------            ------------------------
 STRT.FT  5.900                          :START DEPTH
 STOP.FT  1425.400                       :STOP DEPTH
 STEP.FT  0.100                          :STEP    UP_HOLE  
 NULL.    0                              :NULL VALUE
 COMP.                             USGS  :COMPANY
 WELL.                             DMW1  :WELL
 FLD .      MARINA COAST WATER DISTRICT  :FIELD
 LOC .    None  None  None               :LOCATION
 CNTY.                        MONTERY ?  :COUNTY
 STAT.                     CA            :STATE
 SRVC.    PORTLAND, O                    :SERVICE COMPANY
 DATE.   11/17/00                        :LOG DATE
 UWI .                       	         :UNIQUE WELL ID
 LIC .                                   :LICENSE NUMBER
~Curve Information Block
#MNEM.UNIT      API CODE     Curve Description
#---------    -------------  ------------------------
 DEPT     .FT        00 001 00 00          :  1  DEPTH   
 TOT GAM  .CPS       00 000 00 00          :  2              TOT GAM
 THORIUM  .PPM       00 790 00 00          :  3              THORIUM
 URANIUM  .PPM       00 792 00 00          :  4              URANIUM
 POTASIUM .PERCENT   00 719 00 00          :  5             POTASIUM
 PILOT W  .CPS       00 000 00 00          :  6              PILOT W
 DAC      .MV        00 000 00 00          :  7                  DAC
 GAM(KUT) .CPS       00 310 00 00          :  8             GAM(KUT)
 THORIUM  .CPS       00 790 00 00          :  9              THORIUM
 URANIUM  .CPS       00 792 00 00          : 10              URANIUM
 POTASIUM .CPS       00 719 00 00          : 11             POTASIUM
 TENSION  .POUNDS    00 000 00 00          : 12              TENSION
 TIME     .MINUTES   00 000 00 00          : 13                 TIME
~Parameter Information Block
#MNEM.UNIT   Information     Description
#---------- ---------------  ------------------------
~Other Information
#MNEM.UNIT  Information      Description
#---------- ---------------  ------------------------
 FILE.      ORIGINAL           File Type
 FIID.      9080C              File Type Identifier
 VERS.      1.0                System Version
 SER .      1                  System Serial Number
 TRUK.      0.50000            Truck Calibration Number
 TOOL.         263             Tool Serial Number
 TIME.      11:55:             Time
 LAT .          None           Latitude
 LON .          None           Longitude
 LMF .       TOC-PVC           Log Measured From
 DMF .          None           Driller Measured From
 PD  .           TOC           Permanent Data
 PDEV.          None           Elevation Permanent Data
 EKB .M         None           Elevation Kelly Bushing
 ELEV.DF        None           Elevation DF
 EGL .M         None           Elevation Ground Level
 DRDP.          None           Driller's Depth
 CASD.         3               Casing Diameter
 CASB.          1870           Casing Bottom
 CASX.           PVC           Casing Type
 CAST.         0               Casing Thickness
 TNOC.          None           Time Circulation Stopped
 LOGU.       CENT              Logging Unit
 RECB.          KKNUTSON       Recorded By
 OSR1.          None           Other Services
 OSR2.          None           Other Services
 OSR3.          None           Other Services
 BS  .MM           6           Bit Size
 MST .                         Mean Surface Temperature
 TGRD.        0                Temperature Gradiant
 MAGN.             0           Magnetic Declination
 MDEN.      2.71               Density Matrix
 MATR.       Dolomite          Neutron Matrix
 DTMT.            54           Delta T Matrix
 DTFL.                         Delta T Fluid
 MUDS.               0         Mud Sample Source
 MRS .           0             Mud Resistivity
 MTP .           0             Mud Temperature
 MFRS.                         Resistivity Mud Filtrate
 MFTP.                         Temperature Mud Filtrate
 MCRS.         0               Resistivity Mud Cake
 MCTP.                         Temperature Mud Cake
 FTYP.             0           Fluid Type
 FD  .K/M3                     Fluid Density
 DFV .S                        Fluid Viscosity
 FPH .                         Fuild PH
 ELCO.        2500             Electron Cutoff
# -------------------------- 
~A DEPTH  TOT GAM  THORIUM  URANIUM  POTASIUM PILOT W DAC     GAM(KUT) THORIUM  URANIUM  POTASIUM TENSION  TIME    
# ...
 385.400  26100.6    -0.26     7.70  -6.00      3011    1822      -5      0.56    18.89  33.33       10.0  1.72000 
 385.500  26287.2    -9.65    15.71  -2.40      3029    1824       6      0.00    20.56  43.89        6.1  1.80000 
 385.600  26078.3     2.01     1.34   0.35      3096    1821       3      0.56    17.22  43.89        4.0  1.80000 
 385.700  26256.1     8.77     2.95  -2.61      3002    1831       2      1.11    20.00  39.44       11.6  1.90000 
 385.800  26138.3    -7.72     8.58  -3.09      3027    1826      -2      0.00    17.22  38.89        0.8  1.90000 
 385.900  26189.5    21.37   -18.74   1.18      3106    1826      -6      1.58    13.16  37.89        5.6  1.99000 
 386.000  25985.3    16.95    -2.66   1.90      3074    1827      11      1.58    20.53  47.37        9.2  1.81000 
 386.100  26008.9    -4.30    -3.34  -1.81      2948    1833     -10      0.00    12.11  35.79        8.7  2.00000 
 386.200  26007.4    19.84   -13.57  -0.00      3072    1821      -3      1.58    15.26  37.89       19.0  1.90000 
 386.300  26034.0    11.15    -8.93   4.65      3045    1828       7      1.00    15.50  49.00       18.7  2.00000 
 386.400  25940.5    -0.23     6.96  -3.20      3034    1821       0      0.53    18.95  38.95       19.9  1.90000 
 386.500  26052.5    -7.05     6.94  -0.35      2965    1831       3      0.00    17.00  44.00       21.5  2.00000 
 386.600  26054.2    17.05    -2.88   2.44      3008    1827      12      1.58    20.53  48.42        5.6  1.98000 
 386.700  26077.0    14.46     2.51   2.02      3043    1831      16      1.50    22.50  50.00        8.1  1.82000 
 386.800  25767.9     2.84    -3.39  -0.83      2992    1829      -4      0.53    14.74  38.95        0.1  1.80000 
 386.900  25865.3    -8.07    10.39  -1.04      2997    1827       4      0.00    18.42  44.21        4.5  1.70000 
 387.000  26135.6     7.83     6.45  -2.12      3073    1830       7      1.11    21.67  42.22        7.7  1.80000 
 387.100  25892.4     7.48   -14.51   8.42      2937    1834       8      0.59    11.76  53.53        8.6  1.70000 
 387.200  25899.4     2.30     0.21   0.09      3104    1821       2      0.56    16.67  42.78        1.0  1.80000 
 387.300  26064.1    35.24   -29.71   6.93      3009    1829       4      2.35    12.94  46.47        5.6  1.80000 
 387.400  25921.7    -9.62    16.12  -0.43      3048    1823      11      0.00    21.11  48.33        4.0  1.70000 
 387.500  25909.4    13.13    13.70  -3.79      3059    1821      14      1.67    27.22  43.33        2.0  1.80000 
 387.600  25914.1     9.09     5.43  -0.80      2943    1833       9      1.18    21.76  44.71        0.5  1.70000 
 387.700  26138.9    12.23    -8.46   1.03      3099    1822       0      1.11    15.56  41.67       11.9  1.80000 
 387.800  26082.9    13.46    -8.15   6.68      3035    1830      14      1.18    17.06  54.12        1.8  1.70000 
 387.900  26215.0    30.23   -19.32   2.19      3045    1832       1      2.22    16.11  41.11       11.1  1.80000 
 388.000  26032.4     0.53     6.75  -4.91      3047    1824      -4      0.59    18.82  35.29        6.2  1.80000 
 388.100  26100.0    17.30    -0.73  -1.78      3019    1827       5      1.67    21.11  40.56        6.5  1.80000 
 388.200  26022.8    -6.34     4.13  -1.30      3037    1827      -2      0.00    15.56  40.56        5.7  1.90000 
 388.300  26021.7     5.90    13.57  -1.43      3031    1831      15      1.11    25.00  47.22        2.7  2.00000 
 388.400  25957.9    -5.15     0.37   0.52      3016    1827      -1      0.00    14.21  42.63        2.9  2.00000 
 388.500  26012.0     8.75    -0.65   3.45      3025    1834      12      1.00    19.00  50.50        0.7  2.00000 
 388.600  25872.0     8.42    -0.38   0.14      3063    1824       5      1.00    18.50  43.50       11.8  1.90000 
 388.700  26090.5    -0.47     7.32  -0.45      3135    1822       7      0.50    19.50  45.00        2.9  2.00000 
 388.800  25951.1    -5.99     3.58   1.25      3046    1829       3      0.00    15.79  45.79        6.2  2.00000 
 388.900  26159.0    29.75    -4.86  -0.04      3024    1828      12      2.50    23.50  44.00       16.9  2.00000 
 389.000  26318.0     1.01     1.92  -0.84      3089    1830       1      0.50    17.00  41.50       16.9  1.90000 
 389.100  25981.0    10.61    -7.75   1.83      2989    1828       2      1.00    15.50  43.50        7.7  2.00000 
 389.200  25992.6    -8.87    12.58  -3.49      3031    1824       1      0.00    18.95  40.00        8.4  1.90000 
 389.300  25938.0    -6.23    26.40  -6.20      3030    1830      11      0.50    27.00  42.00        8.5  1.80000 
 389.400  26063.2    28.81   -20.37   0.32      2983    1829      -5      2.11    14.74  36.32        2.3  1.80000 
 389.500  25975.0   -10.70    19.45  -2.48      3119    1818      10      0.00    22.22  45.56        2.4  1.80000 
 389.600  26193.3    56.93   -34.22   5.04      2999    1833       7      3.89    17.78  43.33        0.9  1.70000 
 389.700  26235.0   -10.72    19.98  -0.80      3045    1824      14      0.00    22.78  49.44        0.6  1.69000 
 389.800  26084.7     0.65     8.07   1.35      3035    1831      12      0.59    20.59  49.41       -0.0  1.81000 
 389.900  26052.5    24.04   -13.88   1.93      3023    1828       3      1.88    16.88  42.50        0.8  1.70000 
 390.000  25854.7    -1.80    13.15  -1.19      2986    1828      11      0.53    22.11  46.32        0.1  1.80000 
 390.100  25858.2     2.90    -0.98  -2.05      2998    1826      -4      0.59    15.88  37.65       -0.0  1.70000 
 390.200  26145.6    23.61   -20.75   7.69      3013    1828       8      1.67    13.89  51.11        6.5  1.80000 
 390.300  26008.8    -6.98     7.37   2.07      3069    1828       9      0.00    17.65  49.41        0.3  1.80000 
 390.400  25921.1    18.43    -3.65   2.24      2988    1827      12      1.67    20.56  47.78        0.2  1.80000 
 390.500  25988.3    24.38     0.69  -1.35      2946    1831      12      2.22    24.44  43.33        1.0  1.80000 
 390.600  26032.8    16.95     0.51  -1.81      2969    1828       6      1.67    21.67  41.11        5.8  1.88000 
 390.700  26076.7     9.99    -1.15  -1.67      3036    1828       1      1.11    18.33  39.44        1.1  1.72000 
 390.800  26001.7    -1.36    11.56  -6.37      3082    1828      -3      0.56    20.56  34.44        5.1  1.90000 
 390.900  26128.9    -0.04     8.70   0.47      3047    1825      11      0.56    20.56  47.78        2.5  2.00000 
 391.000  26041.1     7.09     7.47   2.05      3078    1828      17      1.05    22.63  51.58        2.9  2.10000 
 391.100  26217.5     4.37    -8.88   3.72      3078    1824       1      0.50    13.00  46.00        4.5  2.10000 
 391.200  26113.3    15.43    -4.82   0.45      2968    1824       5      1.43    18.57  42.86        2.6  2.01000 
 391.300  26182.9    11.36    10.29   2.30      3018    1828      23      1.43    25.71  54.29        3.2  1.99000 
 391.400  26174.0    10.08    -5.72   2.29      3079    1829       5      1.00    16.50  45.50        2.0  2.00000 
 391.500  26049.0     1.80     0.21   3.27      3017    1831       9      0.50    17.00  49.50        1.8  2.00000 
 391.600  25957.0    25.58   -11.33   9.35      3042    1823      24      2.00    20.00  60.00       -0.0  2.00000 
 391.700  26011.5     9.38    -2.89   3.50      3044    1831      10      1.00    18.00  49.50       12.7  2.00000 
 391.800  25953.5     1.67     0.05   0.98      3045    1826       3      0.50    16.50  44.50        5.4  2.00000 
 391.900  25892.5    23.15   -26.89   8.51      3099    1819       3      1.50    10.50  49.50        9.0  2.00000 
 392.000  25964.0    15.57    -1.66   1.35      3021    1831      10      1.50    20.50  46.50        0.5  1.90000 
 392.100  26008.0     8.04     1.33   1.37      3007    1830       9      1.00    19.50  47.00        0.1  1.90000 
 392.200  26107.9     2.93    -3.11   1.30      3114    1813       1      0.53    15.26  43.68       -0.0  1.80000 
