~Version Information
 VERS.                2.0:  CWLS LOG ASCII STANDARD -VERSION 2.0
 WRAP.                 NO:  ONE LINE PER DEPTH STEP
~WELL INFORMATION BLOCK
#MNEM.UNIT       DATA		            DESCRIPTION OF MNEMONIC
#---------    -------------            ------------------------
 STRT.FT  5.900                          :START DEPTH
 STOP.FT  1425.400                       :STOP DEPTH
 STEP.FT  0.100                          :STEP    UP_HOLE  
 NULL.    0                              :NULL VALUE
 COMP.                             USGS  :COMPANY
 WELL.                             DMW1  :WELL
 FLD .      MARINA COAST WATER DISTRICT  :FIELD
 LOC .    None  None  None               :LOCATION
 CNTY.                        MONTERY ?  :COUNTY
 STAT.                     CA            :STATE
 SRVC.    PORTLAND, O                    :SERVICE COMPANY
 DATE.   11/17/00                        :LOG DATE
 UWI .                       	         :UNIQUE WELL ID
 LIC .                                   :LICENSE NUMBER
~Curve Information Block
#MNEM.UNIT      API CODE     Curve Description
#---------    -------------  ------------------------
 DEPT     .FT        00 001 00 00          :  1  DEPTH   
 TOT GAM  .CPS       00 000 00 00          :  2              TOT GAM
 THORIUM  .PPM       00 790 00 00          :  3              THORIUM
 URANIUM  .PPM       00 792 00 00          :  4              URANIUM
 POTASIUM .PERCENT   00 719 00 00          :  5             POTASIUM
 PILOT W  .CPS       00 000 00 00          :  6              PILOT W
 DAC      .MV        00 000 00 00          :  7                  DAC
 GAM(KUT) .CPS       00 310 00 00          :  8             GAM(KUT)
 THORIUM  .CPS       00 790 00 00          :  9              THORIUM
 URANIUM  .CPS       00 792 00 00          : 10              URANIUM
 POTASIUM .CPS       00 719 00 00          : 11             POTASIUM
 TENSION  .POUNDS    00 000 00 00          : 12              TENSION
 TIME     .MINUTES   00 000 00 00          : 13                 TIME
~Parameter Information Block
#MNEM.UNIT   Information     Description
#---------- ---------------  ------------------------
~Other Information
#MNEM.UNIT  Information      Description
#---------- ---------------  ------------------------
 FILE.      ORIGINAL           File Type
 FIID.      9080C              File Type Identifier
 VERS.      1.0                System Version
 SER .      1                  System Serial Number
 TRUK.      0.50000            Truck Calibration Number
 TOOL.         263             Tool Serial Number
 TIME.      11:55:             Time
 LAT .          None           Latitude
 LON .          None           Longitude
 LMF .       TOC-PVC           Log Measured From
 DMF .          None           Driller Measured From
 PD  .           TOC           Permanent Data
 PDEV.          None           Elevation Permanent Data
 EKB .M         None           Elevation Kelly Bushing
 ELEV.DF        None           Elevation DF
 EGL .M         None           Elevation Ground Level
 DRDP.          None           Driller's Depth
 CASD.         3               Casing Diameter
 CASB.          1870           Casing Bottom
 CASX.           PVC           Casing Type
 CAST.         0               Casing Thickness
 TNOC.          None           Time Circulation Stopped
 LOGU.       CENT              Logging Unit
 RECB.          KKNUTSON       Recorded By
 OSR1.          None           Other Services
 OSR2.          None           Other Services
 OSR3.          None           Other Services
 BS  .MM           6           Bit Size
 MST .                         Mean Surface Temperature
 TGRD.        0                Temperature Gradiant
 MAGN.             0           Magnetic Declination
 MDEN.      2.71               Density Matrix
 MATR.       Dolomite          Neutron Matrix
 DTMT.            54           Delta T Matrix
 DTFL.                         Delta T Fluid
 MUDS.               0         Mud Sample Source
 MRS .           0             Mud Resistivity
 MTP .           0             Mud Temperature
 MFRS.                         Resistivity Mud Filtrate
 MFTP.                         Temperature Mud Filtrate
 MCRS.         0               Resistivity Mud Cake
 MCTP.                         Temperature Mud Cake
 FTYP.             0           Fluid Type
 FD  .K/M3                     Fluid Density
 DFV .S                        Fluid Viscosity
 FPH .                         Fuild PH
 ELCO.        2500             Electron Cutoff
# -------------------------- 
~A DEPTH  TOT GAM  THORIUM  URANIUM  POTASIUM PILOT W DAC     GAM(KUT) THORIUM  URANIUM  POTASIUM TENSION  TIME    
# ...
1420.400  26208.9     9.95    -0.09   1.69      2936    1854      10      1.11    19.44  47.22       -0.0  1.80000 
1420.500  26287.9     0.75     3.92  -1.53      3039    1847       1      0.53    17.89  41.05        0.6  2.00000 
1420.600  26162.8    10.83    -3.47   0.92      3093    1834       5      1.11    17.78  43.89        2.2  2.00000 
1420.700  26291.0     4.79    11.44  -4.19      3006    1846       6      1.00    23.00  40.00        4.2  2.10000 
1420.800  26167.5    -5.16     0.21  -0.20      3023    1843      -3      0.00    14.00  41.00        1.1  2.10000 
1420.900  26262.4    -0.37     6.11   0.63      2969    1850       8      0.48    19.05  46.67        2.5  2.10000 
1421.000  26344.8    -6.15     4.28   1.72      3040    1847       5      0.00    16.19  47.14       -0.0  2.10000 
1421.100  26271.9     1.08     0.87   0.50      3023    1839       3      0.48    16.67  43.81        4.2  2.10000 
1421.200  26321.9    -9.24    15.17   1.00      3015    1845      14      0.00    20.95  50.95        0.7  2.00000 
1421.300  26158.6    10.76    -9.92   4.28      3013    1853       5      0.95    14.76  47.62        2.0  2.10000 
1421.400  26382.0     3.71    -7.01   1.90      3080    1847      -1      0.50    13.50  43.00        7.0  2.00000 
1421.500  26275.7    16.37    -6.86   5.34      2994    1845      14      1.43    18.57  52.38       -0.0  2.10000 
1421.600  26115.0     9.43    -4.33  -1.05      3055    1839      -2      1.00    16.50  39.00       -0.0  1.90000 
1421.700  26056.7     8.46    -2.84   0.01      2981    1842       2      0.95    17.14  41.90        1.0  1.80000 
1421.800  26092.1     6.92   -16.39   5.07      3005    1845      -2      0.53    10.00  45.26       -0.0  1.80000 
1421.900  26396.1     9.34     2.70   3.89      3051    1853      17      1.11    21.11  53.33       -0.0  1.80000 
1422.000  25968.9     2.56     0.15   3.20      3065    1845       9      0.56    17.22  49.44       -0.0  1.80000 
1422.100  26173.9     4.18    -5.32   4.45      3054    1849       7      0.56    15.00  49.44       -0.0  1.80000 
1422.200  26328.9    21.04   -12.73   3.28      3078    1847       6      1.67    16.67  45.56       -0.0  1.90000 
1422.300  26256.7    12.97   -10.54   3.05      3037    1842       3      1.11    15.00  45.00       -0.0  1.80000 
1422.400  26193.7     5.07   -10.54   2.27      3032    1849      -3      0.53    12.11  42.11        3.1  1.90000 
1422.500  26052.8     5.57   -11.78  -0.77      3004    1848     -12      0.56    11.11  35.00        0.9  1.90000 
1422.600  26230.0    -9.69    15.29  -4.36      2998    1850       1      0.00    20.00  39.47        1.2  1.92000 
1422.700  26321.6    -9.01    12.42  -5.90      2999    1847      -5      0.00    18.42  34.74        0.6  2.08000 
1422.800  26076.3     2.98    -3.22   1.57      3057    1844       2      0.53    15.26  44.21        0.7  2.20000 
1422.900  26266.7    -5.39     1.38   1.06      2980    1855       1      0.00    14.76  44.29        2.4  2.10000 
1423.000  26243.6    21.84    -7.76   5.33      3009    1846      16      1.82    20.00  52.73        0.7  2.20000 
1423.100  26313.8     8.76    -3.91   0.03      3023    1848       1      0.95    16.67  41.43        2.4  2.00000 
1423.200  26231.8    -2.31    11.82  -0.17      2965    1848      11      0.45    21.36  47.73        0.2  2.10000 
1423.300  26035.0     9.76    -4.60   2.27      2984    1848       6      1.00    17.00  46.00        2.3  1.90000 
1423.400  26071.4    -6.91     5.91  -2.19      3095    1841      -3      0.00    16.19  39.52       -0.0  2.10000 
1423.500  26122.6     2.37    -0.97   1.79      3094    1844       4      0.53    16.32  45.79        0.1  2.00000 
1423.600  26164.8    23.42    -9.86   3.14      3026    1840      10      1.90    19.05  47.14       -0.0  1.90000 
1423.700  25957.5    -0.60     7.16  -2.73      3088    1841       1      0.50    19.00  40.00        0.5  1.80000 
1423.800  26147.9    10.03    -3.56   0.41      2947    1849       3      1.05    17.37  42.63        1.1  1.60000 
1423.900  26224.4    19.33    -7.56  -0.22      2863    1852       2      1.67    18.33  40.56       -0.0  1.50000 
1424.000  26423.8     6.69   -12.35  -0.42      3114    1851     -11      0.63    11.25  35.63        0.5  1.50000 
1424.100  26049.3     2.85     2.35  -4.27      3075    1843      -6      0.67    17.33  34.67        0.8  1.20000 
1424.200  26257.3     1.95     7.26   1.73      2928    1855      13      0.67    20.67  50.00       -0.0  1.30000 
1424.300  26090.0    -9.44    14.02  -5.76      3028    1850      -3      0.00    19.17  35.83        1.1  1.20000 
1424.400  26171.5     7.63    -8.50   0.59      3054    1845      -4      0.77    13.85  40.00       -0.0  1.20000 
1424.500  26300.8    -4.34    -2.91  -0.72      3145    1838      -7      0.00    12.50  38.33        4.8  1.80000 
1424.600  26295.8     5.84     0.92   0.31      3061    1850       5      0.83    18.33  44.17        0.2  2.10000 
1424.700  26109.4    47.29   -26.68   3.85      3113    1844       7      3.33    18.33  43.33       -0.0  2.20000 
1424.800  26251.4    -1.45     9.73  -0.42      3039    1844       9      0.48    20.48  46.19        0.8  2.30000 
1424.900  26198.6    14.93    -5.71   2.13      2959    1851       7      1.36    18.18  45.91       -0.0  2.60000 
1425.000  26189.6     0.54     1.28   2.11      2990    1845       7      0.43    16.96  47.39       -0.0  3.20000 
1425.100  26308.8     7.50    -6.86   4.86      3034    1842       8      0.77    15.38  50.00       -0.0  2.94000 
1425.200      0.0     0.00     0.00   0.00         0       0       0      0.00     0.00   0.00       -0.0  17.46003
1425.300      0.0     0.00     0.00   0.00         0       0       0      0.00     0.00   0.00       -0.0  0.00000 
1425.400      0.0     0.00     0.00   0.00         0       0       0      0.00     0.00   0.00       -0.0  0.00000 
