~Version Information
 VERS.                2.0:  CWLS LOG ASCII STANDARD -VERSION 2.0
 WRAP.                 NO:  ONE LINE PER DEPTH STEP
~WELL INFORMATION BLOCK
#MNEM.UNIT       DATA		            DESCRIPTION OF MNEMONIC
#---------    -------------            ------------------------
 STRT.FT  0.800                          :START DEPTH
 STOP.FT  1867.700                       :STOP DEPTH
 STEP.FT  0.100                          :STEP    UP_HOLE  
 NULL.    0                              :NULL VALUE
 COMP.                             USGS  :COMPANY
 WELL.                             DMW1  :WELL
 FLD .      MARINA COAST WATER DISTRICT  :FIELD
 LOC .    None  None  None               :LOCATION
 CNTY.                        MONTERY ?  :COUNTY
 STAT.                     CA            :STATE
 SRVC.    PORTLAND OR                    :SERVICE COMPANY
 DATE.   11/17/00                        :LOG DATE
 UWI .                       	         :UNIQUE WELL ID
 LIC .                                   :LICENSE NUMBER
~Curve Information Block
#MNEM.UNIT      API CODE     Curve Description
#---------    -------------  ------------------------
 DEPT     .FT        00 001 00 00          :  1  DEPTH   
 GAM(NAT) .API-GR    00 310 00 00          :  2             GAM(NAT)
 COND     .MMHO/M    00 000 00 00          :  3                 COND
 RES      .OHM-M     00 000 00 00          :  4                  RES
 TEMP     .DEG F     00 660 00 00          :  5                 TEMP
 AP-COND  .MMHO/M    00 000 00 00          :  6              AP-COND
 TEMP     .CPS       00 660 00 00          :  7                 TEMP
 AP-COND  .CPS       00 000 00 00          :  8              AP-COND
 TENSION  .POUNDS    00 000 00 00          :  9              TENSION
 TIME     .MINUTES   00 000 00 00          : 10                 TIME
~Parameter Information Block
#MNEM.UNIT   Information     Description
#---------- ---------------  ------------------------
~Other Information
#MNEM.UNIT  Information      Description
#---------- ---------------  ------------------------
 FILE.      ORIGINAL           File Type
 FIID.      9511A              File Type Identifier
 VERS.      1.0                System Version
 SER .      1                  System Serial Number
 TRUK.      0.50000            Truck Calibration Number
 TOOL.         989             Tool Serial Number
 TIME.      20:51:             Time
 LAT .          None           Latitude
 LON .          None           Longitude
 LMF .       TOC-PVC           Log Measured From
 DMF .          None           Driller Measured From
 PD  .           TOC           Permanent Data
 PDEV.          None           Elevation Permanent Data
 EKB .M         None           Elevation Kelly Bushing
 ELEV.DF        None           Elevation DF
 EGL .M         None           Elevation Ground Level
 DRDP.          None           Driller's Depth
 CASD.         3               Casing Diameter
 CASB.          1870           Casing Bottom
 CASX.           PVC           Casing Type
 CAST.         0               Casing Thickness
 TNOC.          None           Time Circulation Stopped
 LOGU.       CENT              Logging Unit
 RECB.          KKNUTSON       Recorded By
 OSR1.          None           Other Services
 OSR2.          None           Other Services
 OSR3.          None           Other Services
 BS  .MM           6           Bit Size
 MST .                         Mean Surface Temperature
 TGRD.        0                Temperature Gradiant
 MAGN.             0           Magnetic Declination
 MDEN.      2.71               Density Matrix
 MATR.       Dolomite          Neutron Matrix
 DTMT.            54           Delta T Matrix
 DTFL.                         Delta T Fluid
 MUDS.               0         Mud Sample Source
 MRS .           0             Mud Resistivity
 MTP .           0             Mud Temperature
 MFRS.                         Resistivity Mud Filtrate
 MFTP.                         Temperature Mud Filtrate
 MCRS.         0               Resistivity Mud Cake
 MCTP.                         Temperature Mud Cake
 FTYP.             0           Fluid Type
 FD  .K/M3                     Fluid Density
 DFV .S                        Fluid Viscosity
 FPH .                         Fuild PH
 ELCO.        2500             Electron Cutoff
# -------------------------- 
~A DEPTH  GAM(NAT) COND     RES      TEMP  AP-COND  TEMP  AP-COND  TENSION  TIME    
# ...
1366.000     78.0     44.3     22.6  5610.8    41.0  29385.0 58345.0      6.8  0.30000 
1366.100     67.8     44.3     22.6  5611.1    41.0  29386.7 58350.0      6.9  0.30000 
1366.200     74.6     42.3     23.6  5611.1    39.2  29386.7 58143.3      8.9  0.30000 
1366.300     84.8     44.9     22.3  5611.1    41.6  29386.7 58410.0      7.9  0.30000 
1366.400     54.3     44.0     22.7  5611.1    40.7  29386.7 58316.7      9.6  0.30000 
1366.500     61.1     44.4     22.5  5611.1    41.1  29386.7 58360.0      8.1  0.30000 
1366.600     54.3     44.6     22.4  5611.1    41.3  29386.7 58380.0      9.7  0.30000 
1366.700     64.4     45.3     22.1  5611.1    42.0  29386.7 58453.3     10.5  0.30000 
1366.800     30.5     43.7     22.9  5611.1    40.5  29386.7 58286.7     10.5  0.30000 
1366.900     47.5     43.6     22.9  5610.4    40.4  29383.3 58280.0     10.5  0.30000 
1367.000     57.7     43.7     22.9  5611.1    40.5  29386.7 58290.0      8.1  0.30000 
1367.100     74.6     43.8     22.8  5611.1    40.6  29386.7 58300.0      7.8  0.30000 
1367.200     54.3     43.8     22.8  5611.1    40.6  29386.7 58300.0      8.1  0.30000 
1367.300     54.3     44.7     22.4  5610.4    41.4  29383.3 58390.0      8.1  0.30000 
1367.400     57.7     43.8     22.8  5611.1    40.6  29386.7 58296.7      8.3  0.30000 
1367.500     81.4     44.9     22.3  5611.1    41.5  29386.7 58406.7      8.4  0.30000 
1367.600     61.1     45.5     22.0  5611.1    42.2  29386.7 58476.7      7.3  0.30000 
1367.700     47.5     45.7     21.9  5610.4    42.3  29383.3 58490.0      6.3  0.30000 
1367.800     78.0     46.1     21.7  5611.1    42.7  29386.7 58536.7      7.2  0.30000 
1367.900     44.1     46.6     21.4  5611.8    43.2  29390.0 58590.0      5.2  0.30000 
1368.000     71.2     47.4     21.1  5611.1    43.9  29386.7 58670.0      7.5  0.30000 
1368.100     67.8     48.0     20.8  5610.4    44.4  29383.3 58730.0      4.8  0.30000 
1368.200     40.7     47.7     21.0  5611.1    44.1  29386.7 58693.3      6.5  0.30000 
1368.300     50.9     48.6     20.6  5611.8    45.0  29390.0 58793.3      3.1  0.30000 
1368.400     40.7     48.4     20.7  5611.1    44.7  29386.7 58766.7      5.9  0.30000 
1368.500     64.4     47.9     20.9  5610.4    44.3  29383.3 58716.7      4.0  0.30000 
1368.600     57.7     50.1     20.0  5611.8    46.2  29390.0 58940.0      5.9  0.30000 
1368.700     71.2     49.8     20.1  5611.1    46.0  29386.7 58913.3      3.2  0.30000 
1368.800     67.8     50.9     19.7  5611.1    47.0  29386.7 59020.0      4.6  0.30000 
1368.900     78.0     49.6     20.2  5611.1    45.8  29386.7 58893.3      2.6  0.30000 
1369.000     50.9     51.0     19.6  5611.1    47.1  29386.7 59040.0      3.1  0.30000 
1369.100     84.8     50.9     19.7  5611.8    47.0  29390.0 59020.0      1.2  0.30000 
1369.200     78.0     50.9     19.6  5611.1    47.0  29386.7 59026.7      1.9  0.30000 
1369.300     27.1     52.1     19.2  5611.8    48.0  29390.0 59143.3      0.7  0.30000 
1369.400     44.1     51.9     19.3  5611.1    47.9  29386.7 59130.0      1.3  0.30000 
1369.500     44.1     53.2     18.8  5611.8    49.0  29390.0 59256.7      0.6  0.30000 
1369.600     50.9     52.8     18.9  5611.1    48.7  29386.7 59216.7      1.7  0.30000 
1369.700     61.1     53.4     18.7  5611.8    49.3  29390.0 59283.3      1.1  0.30000 
1369.800     50.9     53.9     18.5  5611.1    49.7  29386.7 59333.3      1.5  0.30000 
1369.900     64.4     53.7     18.6  5611.1    49.5  29386.7 59306.7      1.2  0.30000 
1370.000     61.1     53.8     18.6  5611.8    49.6  29390.0 59316.7      0.4  0.30000 
1370.100     57.7     54.6     18.3  5610.4    50.3  29383.3 59403.3      0.4  0.30000 
1370.200     67.8     54.8     18.2  5611.8    50.5  29390.0 59426.7     -0.0  0.30000 
1370.300     54.3     54.1     18.5  5610.4    49.8  29383.3 59346.7      0.4  0.30000 
1370.400     71.2     55.5     18.0  5611.8    51.1  29390.0 59490.0      0.4  0.30000 
1370.500     61.1     55.3     18.1  5611.1    51.0  29386.7 59476.7      0.4  0.30000 
1370.600     61.1     55.1     18.1  5611.8    50.8  29390.0 59453.3     -0.0  0.30000 
1370.700     88.2     55.3     18.1  5610.4    51.0  29383.3 59473.3      0.2  0.30000 
1370.800     71.2     54.7     18.3  5611.8    50.4  29390.0 59413.3      0.2  0.30000 
1370.900     40.7     55.3     18.1  5611.8    51.0  29390.0 59476.7      0.5  0.30000 
1371.000     54.3     57.2     17.5  5611.1    52.7  29386.7 59666.7      0.5  0.30000 
1371.100     88.2     56.7     17.6  5611.8    52.2  29390.0 59613.3      2.0  0.30000 
1371.200     37.3     55.8     17.9  5611.1    51.4  29386.7 59520.0      2.0  0.30000 
1371.300     47.5     56.9     17.6  5611.1    52.4  29386.7 59636.7      3.7  0.30000 
1371.400     54.3     56.1     17.8  5611.8    51.7  29390.0 59553.3      2.8  0.30000 
1371.500     54.3     56.7     17.6  5611.8    52.3  29390.0 59620.0      5.3  0.30000 
1371.600     64.4     57.4     17.4  5610.4    52.8  29383.3 59683.3      4.9  0.30000 
1371.700     64.4     57.2     17.5  5611.8    52.6  29390.0 59663.3      7.8  0.30000 
1371.800     61.1     57.3     17.5  5611.8    52.8  29390.0 59676.7      5.5  0.30000 
1371.900     67.8     57.0     17.6  5611.8    52.5  29390.0 59643.3      6.3  0.30000 
1372.000     74.6     56.7     17.6  5611.1    52.3  29386.7 59620.0      5.2  0.30000 
1372.100     64.4     56.9     17.6  5611.8    52.4  29390.0 59640.0      5.5  0.30000 
1372.200     47.5     58.7     17.0  5611.8    54.0  29390.0 59820.0      6.1  0.30000 
1372.300     74.6     56.7     17.6  5611.8    52.3  29390.0 59620.0      4.5  0.30000 
1372.400     50.9     59.5     16.8  5611.8    54.7  29390.0 59900.0      6.5  0.30000 
1372.500     64.4     58.9     17.0  5611.1    54.2  29386.7 59843.3      4.1  0.30000 
1372.600     71.2     57.2     17.5  5611.1    52.7  29386.7 59666.7      6.0  0.30000 
1372.700     84.8     58.3     17.1  5611.8    53.7  29390.0 59783.3      3.6  0.30000 
1372.800     61.1     57.7     17.3  5611.8    53.1  29390.0 59716.7      4.4  0.30000 
1372.900     44.1     57.8     17.3  5611.8    53.2  29390.0 59730.0      2.1  0.30000 
1373.000     47.5     57.5     17.4  5611.8    53.0  29390.0 59703.3      3.0  0.30000 
1373.100     78.0     57.1     17.5  5611.8    52.5  29390.0 59653.3      1.9  0.30000 
1373.200     81.4     57.0     17.6  5610.4    52.5  29383.3 59643.3      2.2  0.30000 
1373.300     33.9     57.0     17.5  5611.1    52.5  29386.7 59650.0      1.2  0.30000 
1373.400     74.6     57.1     17.5  5611.8    52.6  29390.0 59660.0      1.8  0.30000 
1373.500     64.4     55.2     18.1  5611.8    50.8  29390.0 59460.0      2.0  0.30000 
1373.600     54.3     56.8     17.6  5611.8    52.3  29390.0 59626.7      3.9  0.30000 
1373.700     54.3     56.9     17.6  5611.8    52.4  29390.0 59633.3      3.7  0.30000 
1373.800     44.1     57.6     17.4  5611.8    53.0  29390.0 59710.0      4.8  0.30000 
1373.900     54.3     56.9     17.6  5611.8    52.4  29390.0 59640.0      4.8  0.30000 
1374.000     61.1     55.3     18.1  5611.8    51.0  29390.0 59473.3      4.9  0.30000 
1374.100     71.2     57.4     17.4  5611.8    52.9  29390.0 59690.0      4.2  0.30000 
1374.200     78.0     56.5     17.7  5611.8    52.1  29390.0 59600.0      2.9  0.30000 
1374.300     81.4     55.5     18.0  5611.8    51.1  29390.0 59493.3      1.9  0.30000 
1374.400     44.1     56.0     17.8  5611.8    51.6  29390.0 59550.0      1.4  0.30000 
1374.500     67.8     55.6     18.0  5611.8    51.3  29390.0 59506.7      0.7  0.30000 
1374.600     67.8     56.1     17.8  5611.8    51.7  29390.0 59556.7      0.6  0.30000 
1374.700     71.2     57.0     17.6  5611.8    52.5  29390.0 59643.3      1.3  0.30000 
1374.800     71.2     55.4     18.0  5611.8    51.1  29390.0 59486.7      1.1  0.30000 
1374.900     74.6     55.5     18.0  5611.8    51.2  29390.0 59496.7      1.7  0.30000 
1375.000     40.7     55.3     18.1  5611.8    51.0  29390.0 59473.3      1.5  0.30000 
