~Version Information
 VERS.                2.0:  CWLS LOG ASCII STANDARD -VERSION 2.0
 WRAP.                 NO:  ONE LINE PER DEPTH STEP
~WELL INFORMATION BLOCK
#MNEM.UNIT       DATA		            DESCRIPTION OF MNEMONIC
#---------    -------------            ------------------------
 STRT.FT  5.900                          :START DEPTH
 STOP.FT  1425.400                       :STOP DEPTH
 STEP.FT  0.100                          :STEP    UP_HOLE  
 NULL.    0                              :NULL VALUE
 COMP.                             USGS  :COMPANY
 WELL.                             DMW1  :WELL
 FLD .      MARINA COAST WATER DISTRICT  :FIELD
 LOC .    None  None  None               :LOCATION
 CNTY.                        MONTERY ?  :COUNTY
 STAT.                     CA            :STATE
 SRVC.    PORTLAND, O                    :SERVICE COMPANY
 DATE.   11/17/00                        :LOG DATE
 UWI .                       	         :UNIQUE WELL ID
 LIC .                                   :LICENSE NUMBER
~Curve Information Block
#MNEM.UNIT      API CODE     Curve Description
#---------    -------------  ------------------------
 DEPT     .FT        00 001 00 00          :  1  DEPTH   
 TOT GAM  .CPS       00 000 00 00          :  2              TOT GAM
 THORIUM  .PPM       00 790 00 00          :  3              THORIUM
 URANIUM  .PPM       00 792 00 00          :  4              URANIUM
 POTASIUM .PERCENT   00 719 00 00          :  5             POTASIUM
 PILOT W  .CPS       00 000 00 00          :  6              PILOT W
 DAC      .MV        00 000 00 00          :  7                  DAC
 GAM(KUT) .CPS       00 310 00 00          :  8             GAM(KUT)
 THORIUM  .CPS       00 790 00 00          :  9              THORIUM
 URANIUM  .CPS       00 792 00 00          : 10              URANIUM
 POTASIUM .CPS       00 719 00 00          : 11             POTASIUM
 TENSION  .POUNDS    00 000 00 00          : 12              TENSION
 TIME     .MINUTES   00 000 00 00          : 13                 TIME
~Parameter Information Block
#MNEM.UNIT   Information     Description
#---------- ---------------  ------------------------
~Other Information
#MNEM.UNIT  Information      Description
#---------- ---------------  ------------------------
 FILE.      ORIGINAL           File Type
 FIID.      9080C              File Type Identifier
 VERS.      1.0                System Version
 SER .      1                  System Serial Number
 TRUK.      0.50000            Truck Calibration Number
 TOOL.         263             Tool Serial Number
 TIME.      11:55:             Time
 LAT .          None           Latitude
 LON .          None           Longitude
 LMF .       TOC-PVC           Log Measured From
 DMF .          None           Driller Measured From
 PD  .           TOC           Permanent Data
 PDEV.          None           Elevation Permanent Data
 EKB .M         None           Elevation Kelly Bushing
 ELEV.DF        None           Elevation DF
 EGL .M         None           Elevation Ground Level
 DRDP.          None           Driller's Depth
 CASD.         3               Casing Diameter
 CASB.          1870           Casing Bottom
 CASX.           PVC           Casing Type
 CAST.         0               Casing Thickness
 TNOC.          None           Time Circulation Stopped
 LOGU.       CENT              Logging Unit
 RECB.          KKNUTSON       Recorded By
 OSR1.          None           Other Services
 OSR2.          None           Other Services
 OSR3.          None           Other Services
 BS  .MM           6           Bit Size
 MST .                         Mean Surface Temperature
 TGRD.        0                Temperature Gradiant
 MAGN.             0           Magnetic Declination
 MDEN.      2.71               Density Matrix
 MATR.       Dolomite          Neutron Matrix
 DTMT.            54           Delta T Matrix
 DTFL.                         Delta T Fluid
 MUDS.               0         Mud Sample Source
 MRS .           0             Mud Resistivity
 MTP .           0             Mud Temperature
 MFRS.                         Resistivity Mud Filtrate
 MFTP.                         Temperature Mud Filtrate
 MCRS.         0               Resistivity Mud Cake
 MCTP.                         Temperature Mud Cake
 FTYP.             0           Fluid Type
 FD  .K/M3                     Fluid Density
 DFV .S                        Fluid Viscosity
 FPH .                         Fuild PH
 ELCO.        2500             Electron Cutoff
# -------------------------- 
~A DEPTH  TOT GAM  THORIUM  URANIUM  POTASIUM PILOT W DAC     GAM(KUT) THORIUM  URANIUM  POTASIUM TENSION  TIME    
# ...
 475.100  25994.8     6.82     2.81  -0.84      3039    1818       5      0.95    19.52  42.86        0.1  2.00000 
 475.200  26082.9    -8.73    13.24   0.56      3023    1825      11      0.00    20.00  49.05        3.3  2.10000 
 475.300  26109.5   -11.34    20.63  -6.49      2967    1827       1      0.00    22.00  37.50        3.3  1.90000 
 475.400  26023.3    14.20    -0.90  -1.33      3054    1820       4      1.43    20.00  40.95        2.9  1.90000 
 475.500  25898.9     9.89    -3.72  -1.99      2929    1828      -3      1.05    16.84  37.37        8.5  1.90000 
 475.600  26057.9    26.65   -11.04   6.00      3000    1825      17      2.11    20.00  53.16        5.0  1.90000 
 475.700  26062.6    56.21   -40.90   7.17      3004    1821       4      3.68    14.21  44.21        5.2  1.90000 
 475.800  25933.2     2.11    -0.41   0.44      2994    1823       2      0.53    16.32  43.16        5.5  1.80000 
 475.900  25759.5    17.17    -3.61   1.39      3002    1816       9      1.58    20.00  45.79        1.7  1.90000 
 476.000  25880.0    35.14   -35.83   6.23      3088    1822      -5      2.22     9.44  41.67        7.1  1.90000 
 476.100  25926.3     7.58     4.55  -2.17      2947    1825       4      1.05    20.53  41.05        3.0  1.90000 
 476.200  25976.3    23.27   -24.71   4.26      3108    1813      -4      1.58    11.05  41.58        4.3  1.80000 
 476.300  25902.6    10.12    -4.68  -2.51      3033    1819      -5      1.05    16.32  35.79        7.7  1.90000 
 476.400  25813.3    -6.11    27.71  -9.55      2983    1824       5      0.56    27.22  35.56       12.1  1.80000 
 476.500  26039.5    -0.42     8.31  -0.82      3035    1819       7      0.53    20.00  44.74       17.4  2.00000 
 476.600  25966.1    -8.70    11.67  -4.57      3040    1820      -3      0.00    18.33  37.22       13.8  1.90000 
 476.700  26069.0    15.82    -3.52  -2.17      2972    1824       0      1.50    19.00  38.00       11.9  2.00000 
 476.800  26108.9     8.66    -0.12  -5.01      3085    1818      -7      1.05    17.89  32.63        7.3  2.00000 
 476.900  25872.5    14.51     1.07  -2.53      3047    1819       4      1.50    21.00  39.50       10.9  2.20000 
 477.000  26038.0    -6.41     4.22  -1.81      3049    1821      -3      0.00    15.50  39.50        9.8  2.20000 
 477.100  26197.7     9.65    -8.39   2.97      3062    1825       3      0.91    15.00  45.45        5.5  2.10000 
 477.200  26109.5     2.28    -4.94  -1.19      2972    1829      -7      0.45    13.64  37.27        1.8  2.10000 
 477.300  25918.1    -2.73    13.75  -2.45      3034    1817       8      0.48    21.90  43.81        4.2  2.07000 
 477.400  26122.4    34.04   -25.23   2.66      3054    1822      -2      2.38    14.29  39.52        8.9  2.03000 
 477.500  25832.0     3.67    -7.38   0.13      3005    1821      -6      0.50    13.00  39.00        3.3  2.10000 
 477.600  25948.6     8.19    -2.69  -2.90      2991    1817      -5      0.95    16.67  35.71        0.3  2.10000 
 477.700  25701.0     6.00     5.00  -3.55      3005    1819       1      0.95    20.00  38.10        4.6  2.10000 
 477.800  26005.7     0.52     3.36   2.14      2958    1829       9      0.48    18.10  48.57        7.3  2.00000 
 477.900  25960.0     0.17     3.26  -2.70      3048    1814      -3      0.48    17.14  38.10        7.1  1.90000 
 478.000  25948.0    -8.34    11.06  -2.22      2998    1827       2      0.00    18.50  42.00       18.1  1.90000 
 478.100  25939.5    -2.62    14.45  -7.11      3068    1815      -2      0.53    21.58  34.21       20.5  1.80000 
 478.200  26064.2    -1.45    11.46  -2.76      3083    1821       5      0.53    21.05  42.11        1.5  1.90000 
 478.300  26205.6    15.52     5.09  -3.89      3063    1824       6      1.67    23.33  38.89        0.2  1.80000 
 478.400  25642.6    11.13    -7.33   1.03      3029    1819       1      1.05    15.79  42.11        1.0  1.90000 
 478.500  25871.7     1.18     3.12  -3.92      3069    1818      -5      0.56    17.22  35.56        0.6  1.80000 
 478.600  25877.9    14.11   -16.56   6.32      2954    1826       4      1.05    12.63  48.95        3.7  1.80000 
 478.700  25981.7     0.77     5.97   1.10      2971    1819      10      0.56    19.44  47.78       11.6  1.90000 
 478.800  25816.1    20.74   -11.60   3.54      3047    1817       7      1.67    17.22  46.67       14.3  1.90000 
 478.900  26035.8     8.59     0.50  -3.69      3112    1814      -3      1.05    18.42  35.79       10.4  1.80000 
 479.000  26093.2    10.40    -5.75  -2.75      3099    1817      -7      1.05    15.79  34.74       10.4  1.90000 
 479.100  26071.7    12.21    -7.92   2.71      2977    1827       5      1.11    16.11  45.56       12.1  1.90000 
 479.200  25940.5     2.74    -3.17  -1.37      2958    1819      -5      0.53    14.74  37.89       11.5  2.10000 
 479.300  26116.3     5.84   -13.13   2.86      3008    1828      -5      0.53    11.05  42.11       12.3  2.00000 
 479.400  25701.4    26.96   -22.59   3.17      3013    1823      -2      1.90    13.33  40.95        6.9  2.20000 
 479.500  25839.5     9.00    -2.51  -0.07      3020    1823       2      1.00    17.50  42.00        6.1  2.20000 
 479.600  25881.4     1.86    -2.42   2.46      3018    1819       4      0.45    15.45  46.36        4.8  2.10000 
 479.700  25887.7     2.52    -5.86  -1.40      3048    1820      -8      0.45    13.18  36.36        7.9  2.10000 
 479.800  26036.2    12.10   -14.50   5.11      2884    1834       3      0.95    12.86  47.14        3.6  2.10000 
 479.900  26157.6     6.22     3.68  -5.46      3071    1818      -5      0.95    19.05  33.33        5.0  2.10000 
 480.000  25933.3    15.32    -4.16   1.40      3023    1825       7      1.43    19.05  45.24        9.5  2.00000 
 480.100  25861.9     8.30    -2.08   0.72      2991    1822       4      0.95    17.62  43.81        5.9  2.10000 
 480.200  26017.5    -3.25    15.98  -5.21      3010    1822       4      0.50    22.50  39.00        9.9  2.20000 
 480.300  25934.3     0.96     0.72  -1.68      2950    1830      -3      0.48    16.19  39.05        7.1  2.00000 
 480.400  25834.5     7.38    -0.66   1.41      3034    1815       7      0.91    18.18  45.91       10.4  2.00000 
 480.500  26036.5    16.40    -4.33   2.42      2870    1830      10      1.50    19.50  47.50        9.8  1.90000 
 480.600  26049.5    17.64    -8.34   4.04      3001    1828      10      1.50    18.00  49.00        5.4  1.94000 
 480.700  25936.8     1.04     2.35  -3.37      3043    1817      -5      0.53    16.84  36.32        7.1  1.86000 
 480.800  26182.1    -8.50    10.39  -6.66      3046    1822      -9      0.00    17.37  32.11        3.1  1.80000 
 480.900  26325.8    -4.93    -0.58   0.00      3040    1827      -3      0.00    13.68  41.05        6.3  1.90000 
 481.000  26152.2    -4.98     0.20   2.17      3023    1821       2      0.00    14.44  46.11        8.4  1.90000 
 481.100  25965.8    -4.32    -2.83  -0.21      3043    1823      -6      0.00    12.63  39.47        9.1  1.90000 
 481.200  25856.3     4.51    14.90  -4.54      3003    1819       9      1.05    24.74  41.05        6.6  1.90000 
 481.300  26243.7   -10.02    17.87   0.67      3015    1825      15      0.00    22.11  51.58       10.3  1.90000 
 481.400  25946.8    11.86    -8.90   4.81      3051    1821       8      1.05    15.79  49.47        6.9  1.90000 
 481.500  25842.1    22.25   -20.15   7.37      2952    1831       8      1.58    13.68  50.53        7.0  1.90000 
 481.600  26063.7    -7.86     8.54  -5.01      3062    1820      -7      0.00    16.84  34.74        1.4  1.90000 
 481.700  26111.1   -12.40    25.35  -3.24      3035    1819      13      0.00    24.74  46.84        0.4  2.00000 
 481.800  26125.3    -8.21    10.22  -3.44      3020    1823      -1      0.00    17.89  38.95        2.4  2.00000 
 481.900  25995.0     3.24    -5.56   1.11      2962    1815      -2      0.50    14.00  42.00        4.7  2.10000 
