~Version Information
 VERS.                2.0:  CWLS LOG ASCII STANDARD -VERSION 2.0
 WRAP.                 NO:  ONE LINE PER DEPTH STEP
~WELL INFORMATION BLOCK
#MNEM.UNIT       DATA		            DESCRIPTION OF MNEMONIC
#---------    -------------            ------------------------
 STRT.FT  0.800                          :START DEPTH
 STOP.FT  1867.700                       :STOP DEPTH
 STEP.FT  0.100                          :STEP    UP_HOLE  
 NULL.    0                              :NULL VALUE
 COMP.                             USGS  :COMPANY
 WELL.                             DMW1  :WELL
 FLD .      MARINA COAST WATER DISTRICT  :FIELD
 LOC .    None  None  None               :LOCATION
 CNTY.                        MONTERY ?  :COUNTY
 STAT.                     CA            :STATE
 SRVC.    PORTLAND OR                    :SERVICE COMPANY
 DATE.   11/17/00                        :LOG DATE
 UWI .                       	         :UNIQUE WELL ID
 LIC .                                   :LICENSE NUMBER
~Curve Information Block
#MNEM.UNIT      API CODE     Curve Description
#---------    -------------  ------------------------
 DEPT     .FT        00 001 00 00          :  1  DEPTH   
 GAM(NAT) .API-GR    00 310 00 00          :  2             GAM(NAT)
 COND     .MMHO/M    00 000 00 00          :  3                 COND
 RES      .OHM-M     00 000 00 00          :  4                  RES
 TEMP     .DEG F     00 660 00 00          :  5                 TEMP
 AP-COND  .MMHO/M    00 000 00 00          :  6              AP-COND
 TEMP     .CPS       00 660 00 00          :  7                 TEMP
 AP-COND  .CPS       00 000 00 00          :  8              AP-COND
 TENSION  .POUNDS    00 000 00 00          :  9              TENSION
 TIME     .MINUTES   00 000 00 00          : 10                 TIME
~Parameter Information Block
#MNEM.UNIT   Information     Description
#---------- ---------------  ------------------------
~Other Information
#MNEM.UNIT  Information      Description
#---------- ---------------  ------------------------
 FILE.      ORIGINAL           File Type
 FIID.      9511A              File Type Identifier
 VERS.      1.0                System Version
 SER .      1                  System Serial Number
 TRUK.      0.50000            Truck Calibration Number
 TOOL.         989             Tool Serial Number
 TIME.      20:51:             Time
 LAT .          None           Latitude
 LON .          None           Longitude
 LMF .       TOC-PVC           Log Measured From
 DMF .          None           Driller Measured From
 PD  .           TOC           Permanent Data
 PDEV.          None           Elevation Permanent Data
 EKB .M         None           Elevation Kelly Bushing
 ELEV.DF        None           Elevation DF
 EGL .M         None           Elevation Ground Level
 DRDP.          None           Driller's Depth
 CASD.         3               Casing Diameter
 CASB.          1870           Casing Bottom
 CASX.           PVC           Casing Type
 CAST.         0               Casing Thickness
 TNOC.          None           Time Circulation Stopped
 LOGU.       CENT              Logging Unit
 RECB.          KKNUTSON       Recorded By
 OSR1.          None           Other Services
 OSR2.          None           Other Services
 OSR3.          None           Other Services
 BS  .MM           6           Bit Size
 MST .                         Mean Surface Temperature
 TGRD.        0                Temperature Gradiant
 MAGN.             0           Magnetic Declination
 MDEN.      2.71               Density Matrix
 MATR.       Dolomite          Neutron Matrix
 DTMT.            54           Delta T Matrix
 DTFL.                         Delta T Fluid
 MUDS.               0         Mud Sample Source
 MRS .           0             Mud Resistivity
 MTP .           0             Mud Temperature
 MFRS.                         Resistivity Mud Filtrate
 MFTP.                         Temperature Mud Filtrate
 MCRS.         0               Resistivity Mud Cake
 MCTP.                         Temperature Mud Cake
 FTYP.             0           Fluid Type
 FD  .K/M3                     Fluid Density
 DFV .S                        Fluid Viscosity
 FPH .                         Fuild PH
 ELCO.        2500             Electron Cutoff
# -------------------------- 
~A DEPTH  GAM(NAT) COND     RES      TEMP  AP-COND  TEMP  AP-COND  TENSION  TIME    
# ...
 865.500    122.1    153.4      6.5  5510.2   138.1  28903.3 69343.3      2.1  0.30000 
 865.600    142.5    157.5      6.4  5510.2   141.7  28903.3 69750.0      2.2  0.30000 
 865.700    111.9    158.9      6.3  5510.9   142.9  28906.7 69890.0      1.7  0.30000 
 865.800    135.7    162.9      6.1  5510.2   146.4  28903.3 70286.7      1.4  0.30000 
 865.900    125.5    165.5      6.0  5510.2   148.8  28903.3 70553.3      3.6  0.30000 
 866.000    108.5    170.0      5.9  5510.2   152.7  28903.3 71000.0      3.3  0.30000 
 866.100    118.7    173.4      5.8  5510.9   155.7  28906.7 71336.7      6.0  0.30000 
 866.200    115.3    176.9      5.7  5510.2   158.8  28903.3 71686.7      5.8  0.30000 
 866.300    142.5    181.6      5.5  5510.2   162.8  28903.3 72150.0      7.0  0.30000 
 866.400    115.3    185.0      5.4  5510.9   165.8  28906.7 72490.0      5.8  0.30000 
 866.500    149.2    189.4      5.3  5510.2   169.6  28903.3 72920.0      8.7  0.30000 
 866.600    111.9    192.1      5.2  5510.9   172.0  28906.7 73186.7      7.7  0.30000 
 866.700    111.9    195.6      5.1  5510.2   175.1  28903.3 73536.7     10.9  0.30000 
 866.800    128.9    198.2      5.0  5510.9   177.4  28906.7 73800.0     11.5  0.30000 
 866.900    142.5    199.0      5.0  5510.2   178.1  28903.3 73873.3     11.4  0.30000 
 867.000    125.5    201.2      5.0  5510.2   180.0  28903.3 74093.3     11.5  0.30000 
 867.100    132.3    203.1      4.9  5510.9   181.6  28906.7 74280.0     12.4  0.20000 
 867.200    162.8    201.6      5.0  5510.2   180.4  28903.3 74133.3     14.2  0.30000 
 867.300    145.9    203.1      4.9  5510.6   181.7  28905.0 74285.0     13.4  0.30000 
 867.400    111.9    201.9      5.0  5510.2   180.6  28903.3 74156.7     14.6  0.30000 
 867.500    135.7    200.3      5.0  5510.9   179.2  28906.7 74006.7     13.5  0.30000 
 867.600    152.6    198.2      5.0  5510.9   177.4  28906.7 73796.7     14.6  0.30000 
 867.700    122.1    196.6      5.1  5510.2   176.0  28903.3 73636.7     13.6  0.30000 
 867.800    152.6    194.0      5.2  5510.9   173.7  28906.7 73376.7     13.8  0.30000 
 867.900    105.2    189.9      5.3  5510.2   170.1  28903.3 72976.7     12.8  0.30000 
 868.000    149.2    185.9      5.4  5510.9   166.6  28906.7 72576.7     11.0  0.30000 
 868.100    128.9    181.2      5.5  5510.9   162.5  28906.7 72106.7     10.8  0.30000 
 868.200    149.2    177.2      5.6  5510.2   159.0  28903.3 71713.3      8.4  0.30000 
 868.300    149.2    173.4      5.8  5510.9   155.7  28906.7 71336.7     10.5  0.31000 
 868.400    152.6    167.3      6.0  5510.9   150.3  28906.7 70733.3      8.6  0.33000 
 868.500    169.6    163.5      6.1  5510.9   147.0  28906.7 70350.0      9.7  0.33000 
 868.600    166.2    158.2      6.3  5510.9   142.3  28906.7 69823.3      7.7  0.22000 
 868.700    157.7    154.3      6.5  5510.9   138.8  28906.7 69430.0      7.5  0.31000 
 868.800    152.6    149.4      6.7  5510.6   134.6  28905.0 68950.0     11.9  0.30000 
 868.900    183.2    144.5      6.9  5511.1   130.3  28907.5 68457.5     12.3  0.30000 
 869.000    122.1    138.6      7.2  5510.2   125.0  28903.3 67866.7     12.8  0.30000 
 869.100    142.5    134.1      7.5  5510.9   121.1  28906.7 67416.7     13.4  0.30000 
 869.200    118.7    130.5      7.7  5510.9   117.9  28906.7 67060.0     13.0  0.20000 
 869.300    117.0    126.0      7.9  5511.6   113.9  28910.0 66606.7     10.7  0.30000 
 869.400    132.3    122.1      8.2  5510.6   110.5  28905.0 66215.0     11.1  0.30000 
 869.500    111.9    123.3      8.1  5510.2   111.6  28903.3 66340.0     11.3  0.30000 
 869.600    152.6    118.3      8.5  5511.6   107.2  28910.0 65840.0      8.6  0.30000 
 869.700     95.0    116.5      8.6  5510.9   105.6  28906.7 65660.0     11.2  0.30000 
 869.800     98.4    116.5      8.6  5510.9   105.6  28906.7 65660.0      6.4  0.30000 
 869.900    139.1    116.0      8.6  5511.6   105.1  28910.0 65606.7      8.0  0.30000 
 870.000    132.3    115.4      8.7  5510.9   104.6  28906.7 65550.0      4.9  0.30000 
 870.100    111.9    114.4      8.7  5511.6   103.7  28910.0 65443.3      6.6  0.30000 
 870.200    145.9    116.6      8.6  5510.2   105.7  28903.3 65670.0      5.3  0.30000 
 870.300    122.1    116.3      8.6  5511.6   105.4  28910.0 65636.7      4.3  0.30000 
 870.400    108.5    117.3      8.5  5510.2   106.2  28903.3 65736.7      4.1  0.30000 
 870.500     78.0    117.7      8.5  5511.6   106.6  28910.0 65776.7      3.7  0.30000 
 870.600    108.5    119.7      8.4  5510.9   108.4  28906.7 65976.7      6.1  0.30000 
 870.700    117.0    120.9      8.3  5511.6   109.4  28910.0 66096.7      5.5  0.30000 
 870.800     98.4    121.9      8.2  5511.6   110.3  28910.0 66196.7      6.5  0.30000 
 870.900    108.5    124.0      8.1  5510.9   112.2  28906.7 66413.3      4.7  0.30000 
 871.000    101.8    126.1      7.9  5511.6   114.1  28910.0 66623.3      5.4  0.30000 
 871.100    128.9    126.3      7.9  5511.6   114.2  28910.0 66643.3      3.6  0.30000 
 871.200     91.6    129.7      7.7  5511.6   117.2  28910.0 66980.0      4.5  0.30000 
 871.300    108.5    129.3      7.7  5511.6   116.9  28910.0 66943.3      2.2  0.20000 
 871.400    149.2    130.7      7.7  5511.6   118.1  28910.0 67080.0      1.9  0.30000 
 871.500    105.2    132.6      7.5  5511.6   119.7  28910.0 67265.0      2.6  0.30000 
 871.600    149.2    131.4      7.6  5509.5   118.7  28900.0 67150.0      3.8  0.30000 
 871.700    115.3    132.8      7.5  5510.9   119.9  28906.7 67286.7      3.8  0.30000 
 871.800    101.8    133.3      7.5  5511.6   120.4  28910.0 67336.7      6.2  0.30000 
 871.900    106.8    134.6      7.4  5511.6   121.5  28910.0 67466.7      4.3  0.30000 
 872.000     91.6    135.7      7.4  5511.6   122.5  28910.0 67583.3      5.2  0.30000 
 872.100    135.7    137.3      7.3  5511.6   123.9  28910.0 67736.7      4.9  0.32000 
 872.200    108.5    138.1      7.2  5511.6   124.6  28910.0 67820.0      5.8  0.33000 
 872.300    125.5    139.2      7.2  5511.6   125.6  28910.0 67930.0      7.1  0.33000 
 872.400    117.0    141.9      7.0  5510.9   128.0  28906.7 68200.0      8.3  0.22000 
 872.500    108.5    143.4      7.0  5511.6   129.3  28910.0 68350.0     11.1  0.30000 
 872.600    156.0    146.8      6.8  5511.6   132.3  28910.0 68690.0     12.7  0.30000 
 872.700     84.8    148.0      6.8  5511.6   133.4  28910.0 68810.0     14.3  0.30000 
 872.800    105.2    149.5      6.7  5511.6   134.7  28910.0 68956.7     10.7  0.30000 
 872.900    118.7    152.2      6.6  5511.6   137.0  28910.0 69223.3     13.4  0.20000 
 873.000    106.8    154.7      6.5  5511.6   139.2  28910.0 69476.7     10.4  0.30000 
 873.100    101.8    157.0      6.4  5512.6   141.3  28915.0 69705.0     13.5  0.30000 
 873.200    108.5    159.5      6.3  5511.6   143.5  28910.0 69953.3     11.6  0.30000 
 873.300     84.8    161.9      6.2  5511.6   145.5  28910.0 70190.0     14.9  0.40000 
 873.400    142.5    165.4      6.0  5511.6   148.6  28910.0 70536.7     16.4  0.30000 
 873.500    142.5    166.5      6.0  5512.1   149.6  28912.5 70652.5     20.1  0.20000 
 873.600     98.4    169.4      5.9  5511.6   152.2  28910.0 70940.0     23.8  0.30000 
 873.700    111.9    171.3      5.8  5512.6   153.8  28915.0 71130.0     20.4  0.30000 
 873.800    142.5    172.4      5.8  5511.6   154.8  28910.0 71240.0     20.5  0.30000 
 873.900     78.0    174.4      5.7  5512.3   156.5  28913.3 71430.0     19.6  0.30000 
 874.000    125.5    175.0      5.7  5512.3   157.0  28913.3 71490.0     18.0  0.30000 
 874.100    137.4    175.3      5.7  5511.6   157.3  28910.0 71520.0     17.3  0.30000 
 874.200    132.3    175.9      5.7  5512.3   157.8  28913.3 71583.3     18.4  0.30000 
 874.300    156.0    175.7      5.7  5512.3   157.7  28913.3 71563.3     19.1  0.20000 
 874.400     95.0    175.1      5.7  5511.6   157.1  28910.0 71500.0     18.1  0.30000 
 874.500    111.9    175.3      5.7  5511.6   157.3  28910.0 71520.0     15.6  0.30000 
