~Version Information
 VERS.                2.0:  CWLS LOG ASCII STANDARD -VERSION 2.0
 WRAP.                 NO:  ONE LINE PER DEPTH STEP
~WELL INFORMATION BLOCK
#MNEM.UNIT       DATA		            DESCRIPTION OF MNEMONIC
#---------    -------------            ------------------------
 STRT.FT  0.800                          :START DEPTH
 STOP.FT  1867.700                       :STOP DEPTH
 STEP.FT  0.100                          :STEP    UP_HOLE  
 NULL.    0                              :NULL VALUE
 COMP.                             USGS  :COMPANY
 WELL.                             DMW1  :WELL
 FLD .      MARINA COAST WATER DISTRICT  :FIELD
 LOC .    None  None  None               :LOCATION
 CNTY.                        MONTERY ?  :COUNTY
 STAT.                     CA            :STATE
 SRVC.    PORTLAND OR                    :SERVICE COMPANY
 DATE.   11/17/00                        :LOG DATE
 UWI .                       	         :UNIQUE WELL ID
 LIC .                                   :LICENSE NUMBER
~Curve Information Block
#MNEM.UNIT      API CODE     Curve Description
#---------    -------------  ------------------------
 DEPT     .FT        00 001 00 00          :  1  DEPTH   
 GAM(NAT) .API-GR    00 310 00 00          :  2             GAM(NAT)
 COND     .MMHO/M    00 000 00 00          :  3                 COND
 RES      .OHM-M     00 000 00 00          :  4                  RES
 TEMP     .DEG F     00 660 00 00          :  5                 TEMP
 AP-COND  .MMHO/M    00 000 00 00          :  6              AP-COND
 TEMP     .CPS       00 660 00 00          :  7                 TEMP
 AP-COND  .CPS       00 000 00 00          :  8              AP-COND
 TENSION  .POUNDS    00 000 00 00          :  9              TENSION
 TIME     .MINUTES   00 000 00 00          : 10                 TIME
~Parameter Information Block
#MNEM.UNIT   Information     Description
#---------- ---------------  ------------------------
~Other Information
#MNEM.UNIT  Information      Description
#---------- ---------------  ------------------------
 FILE.      ORIGINAL           File Type
 FIID.      9511A              File Type Identifier
 VERS.      1.0                System Version
 SER .      1                  System Serial Number
 TRUK.      0.50000            Truck Calibration Number
 TOOL.         989             Tool Serial Number
 TIME.      20:51:             Time
 LAT .          None           Latitude
 LON .          None           Longitude
 LMF .       TOC-PVC           Log Measured From
 DMF .          None           Driller Measured From
 PD  .           TOC           Permanent Data
 PDEV.          None           Elevation Permanent Data
 EKB .M         None           Elevation Kelly Bushing
 ELEV.DF        None           Elevation DF
 EGL .M         None           Elevation Ground Level
 DRDP.          None           Driller's Depth
 CASD.         3               Casing Diameter
 CASB.          1870           Casing Bottom
 CASX.           PVC           Casing Type
 CAST.         0               Casing Thickness
 TNOC.          None           Time Circulation Stopped
 LOGU.       CENT              Logging Unit
 RECB.          KKNUTSON       Recorded By
 OSR1.          None           Other Services
 OSR2.          None           Other Services
 OSR3.          None           Other Services
 BS  .MM           6           Bit Size
 MST .                         Mean Surface Temperature
 TGRD.        0                Temperature Gradiant
 MAGN.             0           Magnetic Declination
 MDEN.      2.71               Density Matrix
 MATR.       Dolomite          Neutron Matrix
 DTMT.            54           Delta T Matrix
 DTFL.                         Delta T Fluid
 MUDS.               0         Mud Sample Source
 MRS .           0             Mud Resistivity
 MTP .           0             Mud Temperature
 MFRS.                         Resistivity Mud Filtrate
 MFTP.                         Temperature Mud Filtrate
 MCRS.         0               Resistivity Mud Cake
 MCTP.                         Temperature Mud Cake
 FTYP.             0           Fluid Type
 FD  .K/M3                     Fluid Density
 DFV .S                        Fluid Viscosity
 FPH .                         Fuild PH
 ELCO.        2500             Electron Cutoff
# -------------------------- 
~A DEPTH  GAM(NAT) COND     RES      TEMP  AP-COND  TEMP  AP-COND  TENSION  TIME    
# ...
 128.400     47.5    588.0      1.7  5275.6   513.2  27780.0 111840.0     3.5  0.30000 
 128.500     67.8    596.2      1.7  5276.3   520.1  27783.3 112630.0     5.3  0.30000 
 128.600     37.3    606.3      1.6  5275.6   528.8  27780.0 113606.7     6.2  0.20000 
 128.700     54.3    616.1      1.6  5275.6   537.1  27780.0 114556.7     6.4  0.30000 
 128.800     57.7    611.7      1.6  5276.7   533.4  27785.0 114130.0     4.9  0.30000 
 128.900     71.2    633.9      1.6  5275.6   552.3  27780.0 116273.3     5.8  0.30000 
 129.000     61.1    644.3      1.6  5275.6   561.1  27780.0 117276.7     6.4  0.30000 
 129.100     57.7    655.3      1.5  5275.6   570.5  27780.0 118336.7     5.1  0.30000 
 129.200     57.7    665.5      1.5  5276.3   579.2  27783.3 119320.0     4.0  0.30000 
 129.300     61.1    676.3      1.5  5275.6   588.4  27780.0 120360.0     3.0  0.30000 
 129.400     71.2    685.7      1.5  5275.6   596.3  27780.0 121263.3     3.7  0.30000 
 129.500     64.4    696.5      1.4  5275.6   605.5  27780.0 122303.3     2.8  0.30000 
 129.600     64.4    704.0      1.4  5275.6   611.9  27780.0 123023.3     3.0  0.30000 
 129.700     57.7    715.4      1.4  5276.3   621.6  27783.3 124123.3     2.1  0.30000 
 129.800     50.9    720.4      1.4  5275.6   625.8  27780.0 124600.0     3.5  0.30000 
 129.900     61.1    727.5      1.4  5276.3   631.8  27783.3 125280.0     3.6  0.30000 
 130.000     57.7    735.5      1.4  5276.3   638.6  27783.3 126056.7     4.2  0.30000 
 130.100     61.1    739.8      1.4  5275.6   642.3  27780.0 126470.0     3.7  0.30000 
 130.200     40.7    745.7      1.3  5275.6   647.3  27780.0 127033.3     4.8  0.30000 
 130.300     61.1    750.7      1.3  5275.6   651.5  27780.0 127510.0     5.1  0.30000 
 130.400     44.1    754.5      1.3  5276.3   654.7  27783.3 127876.7     6.5  0.20000 
 130.500     54.3    759.4      1.3  5275.6   658.8  27780.0 128343.3     6.6  0.30000 
 130.600     67.8    761.3      1.3  5275.6   660.5  27780.0 128530.0     7.0  0.30000 
 130.700     81.4    763.8      1.3  5275.6   662.6  27780.0 128770.0     7.3  0.30000 
 130.800     43.2    767.3      1.3  5275.6   665.5  27780.0 129103.3     7.1  0.30000 
 130.900     61.1    770.8      1.3  5275.6   668.5  27780.0 129443.3     6.9  0.30000 
 131.000     33.9    773.3      1.3  5275.6   670.7  27780.0 129686.7     7.4  0.30000 
 131.100     54.3    775.7      1.3  5276.3   672.7  27783.3 129910.0     7.0  0.33000 
 131.200     54.3    779.0      1.3  5276.3   675.4  27783.3 130226.7     7.3  0.33000 
 131.300     57.7    779.9      1.3  5275.6   676.2  27780.0 130316.7     5.9  0.33000 
 131.400     64.4    780.6      1.3  5275.6   676.8  27780.0 130380.0     4.1  0.21000 
 131.500     33.9    781.8      1.3  5275.6   677.8  27780.0 130496.7     2.5  0.30000 
 131.600     76.3    782.2      1.3  5276.3   678.2  27783.3 130533.3     2.0  0.30000 
 131.700     47.5    781.3      1.3  5276.3   677.4  27783.3 130446.7     2.1  0.30000 
 131.800     81.4    781.3      1.3  5276.3   677.4  27783.3 130446.7     2.9  0.30000 
 131.900     50.9    781.4      1.3  5275.6   677.5  27780.0 130463.3     3.6  0.30000 
 132.000     44.1    780.6      1.3  5276.3   676.8  27783.3 130383.3     2.8  0.30000 
 132.100     50.9    780.3      1.3  5277.0   676.6  27786.7 130353.3     2.5  0.30000 
 132.200     40.7    779.9      1.3  5276.3   676.2  27783.3 130316.7     3.3  0.20000 
 132.300     54.3    779.5      1.3  5276.3   675.9  27783.3 130280.0     3.5  0.30000 
 132.400     54.3    780.3      1.3  5276.7   676.6  27785.0 130355.0     3.1  0.30000 
 132.500     84.8    779.7      1.3  5276.3   676.0  27783.3 130293.3     3.3  0.30000 
 132.600     67.8    780.4      1.3  5276.3   676.7  27783.3 130363.3     5.0  0.30000 
 132.700     57.7    781.6      1.3  5277.0   677.7  27786.7 130483.3     5.2  0.30000 
 132.800     54.3    782.8      1.3  5276.3   678.7  27783.3 130593.3     6.1  0.30000 
 132.900     40.7    783.3      1.3  5277.0   679.2  27786.7 130646.7     5.1  0.30000 
 133.000     61.1    785.5      1.3  5275.6   680.9  27780.0 130850.0     6.5  0.30000 
 133.100     74.6    785.1      1.3  5276.3   680.7  27783.3 130816.7     7.5  0.30000 
 133.200     71.2    785.7      1.3  5277.0   681.2  27786.7 130873.3     7.7  0.30000 
 133.300     47.5    785.3      1.3  5276.3   680.8  27783.3 130836.7     7.4  0.30000 
 133.400     61.1    785.2      1.3  5277.0   680.7  27786.7 130823.3     7.0  0.30000 
 133.500     30.5    785.8      1.3  5276.3   681.3  27783.3 130886.7     7.3  0.30000 
 133.600     47.5    783.2      1.3  5277.0   679.0  27786.7 130630.0     7.3  0.30000 
 133.700     67.8    782.8      1.3  5277.0   678.7  27786.7 130593.3     6.3  0.30000 
 133.800     30.5    780.0      1.3  5277.0   676.3  27786.7 130323.3     4.6  0.30000 
 133.900     54.3    777.0      1.3  5276.3   673.7  27783.3 130033.3     2.9  0.30000 
 134.000     61.1    774.7      1.3  5277.0   671.8  27786.7 129816.7     2.8  0.20000 
 134.100     44.1    774.6      1.3  5277.0   671.7  27786.7 129803.3     2.6  0.30000 
 134.200     47.5    771.7      1.3  5275.6   669.3  27780.0 129525.0     2.6  0.30000 
 134.300     50.9    769.0      1.3  5277.0   667.0  27786.7 129273.3     2.1  0.30000 
 134.400     40.7    766.2      1.3  5276.3   664.6  27783.3 129000.0     2.5  0.30000 
 134.500     33.9    764.1      1.3  5276.3   662.9  27783.3 128800.0     1.8  0.30000 
 134.600     44.1    762.8      1.3  5277.0   661.7  27786.7 128673.3     2.4  0.31000 
 134.700     74.6    761.8      1.3  5277.0   660.9  27786.7 128576.7     1.7  0.33000 
 134.800     50.9    761.4      1.3  5276.3   660.5  27783.3 128536.7     1.6  0.33000 
 134.900     61.1    762.1      1.3  5277.0   661.2  27786.7 128610.0     2.2  0.22000 
 135.000     61.1    760.9      1.3  5277.0   660.2  27786.7 128496.7     1.9  0.31000 
 135.100     54.3    762.2      1.3  5276.7   661.3  27785.0 128620.0     3.9  0.30000 
 135.200     56.0    763.2      1.3  5277.2   662.1  27787.5 128717.5     4.7  0.30000 
 135.300     44.1    765.4      1.3  5277.0   663.9  27786.7 128923.3     4.8  0.30000 
 135.400     57.7    767.1      1.3  5277.0   665.4  27786.7 129083.3     7.2  0.30000 
 135.500     88.2    770.9      1.3  5277.0   668.7  27786.7 129456.7     6.5  0.30000 
 135.600     47.5    774.1      1.3  5277.7   671.4  27790.0 129763.3     7.3  0.30000 
 135.700     47.5    778.5      1.3  5277.0   675.1  27786.7 130183.3     6.9  0.30000 
 135.800     61.1    783.4      1.3  5277.0   679.2  27786.7 130653.3     9.8  0.20000 
 135.900     54.3    788.9      1.3  5277.7   683.9  27790.0 131180.0    10.4  0.30000 
 136.000     61.1    793.0      1.3  5276.7   687.3  27785.0 131575.0    10.0  0.30000 
 136.100     57.7    797.0      1.3  5277.0   690.7  27786.7 131960.0    10.0  0.30000 
 136.200     64.4    802.8      1.2  5277.7   695.6  27790.0 132510.0    10.1  0.30000 
 136.300     50.9    808.9      1.2  5276.3   700.8  27783.3 133100.0    10.6  0.30000 
 136.400     40.7    813.9      1.2  5277.7   705.0  27790.0 133580.0     8.5  0.30000 
 136.500     50.9    819.9      1.2  5277.0   710.1  27786.7 134153.3     6.7  0.30000 
 136.600     57.7    825.6      1.2  5277.7   715.0  27790.0 134703.3     5.6  0.30000 
 136.700     84.8    830.5      1.2  5277.0   719.1  27786.7 135173.3     5.5  0.30000 
 136.800     84.8    837.6      1.2  5277.7   725.1  27790.0 135853.3     5.2  0.30000 
 136.900     57.7    841.9      1.2  5277.7   728.7  27790.0 136260.0     3.8  0.30000 
 137.000     61.1    845.9      1.2  5277.0   732.1  27786.7 136646.7     4.0  0.30000 
 137.100     57.7    849.3      1.2  5277.7   735.0  27790.0 136970.0     5.5  0.30000 
 137.200     64.4    853.0      1.2  5277.7   738.1  27790.0 137320.0     6.4  0.30000 
 137.300     61.1    858.0      1.2  5277.7   742.3  27790.0 137800.0     5.4  0.30000 
 137.400     44.1    859.5      1.2  5277.0   743.6  27786.7 137943.3     3.2  0.30000 
