~Version Information
 VERS.                2.0:  CWLS LOG ASCII STANDARD -VERSION 2.0
 WRAP.                 NO:  ONE LINE PER DEPTH STEP
~WELL INFORMATION BLOCK
#MNEM.UNIT       DATA		            DESCRIPTION OF MNEMONIC
#---------    -------------            ------------------------
 STRT.FT  5.900                          :START DEPTH
 STOP.FT  1425.400                       :STOP DEPTH
 STEP.FT  0.100                          :STEP    UP_HOLE  
 NULL.    0                              :NULL VALUE
 COMP.                             USGS  :COMPANY
 WELL.                             DMW1  :WELL
 FLD .      MARINA COAST WATER DISTRICT  :FIELD
 LOC .    None  None  None               :LOCATION
 CNTY.                        MONTERY ?  :COUNTY
 STAT.                     CA            :STATE
 SRVC.    PORTLAND, O                    :SERVICE COMPANY
 DATE.   11/17/00                        :LOG DATE
 UWI .                       	         :UNIQUE WELL ID
 LIC .                                   :LICENSE NUMBER
~Curve Information Block
#MNEM.UNIT      API CODE     Curve Description
#---------    -------------  ------------------------
 DEPT     .FT        00 001 00 00          :  1  DEPTH   
 TOT GAM  .CPS       00 000 00 00          :  2              TOT GAM
 THORIUM  .PPM       00 790 00 00          :  3              THORIUM
 URANIUM  .PPM       00 792 00 00          :  4              URANIUM
 POTASIUM .PERCENT   00 719 00 00          :  5             POTASIUM
 PILOT W  .CPS       00 000 00 00          :  6              PILOT W
 DAC      .MV        00 000 00 00          :  7                  DAC
 GAM(KUT) .CPS       00 310 00 00          :  8             GAM(KUT)
 THORIUM  .CPS       00 790 00 00          :  9              THORIUM
 URANIUM  .CPS       00 792 00 00          : 10              URANIUM
 POTASIUM .CPS       00 719 00 00          : 11             POTASIUM
 TENSION  .POUNDS    00 000 00 00          : 12              TENSION
 TIME     .MINUTES   00 000 00 00          : 13                 TIME
~Parameter Information Block
#MNEM.UNIT   Information     Description
#---------- ---------------  ------------------------
~Other Information
#MNEM.UNIT  Information      Description
#---------- ---------------  ------------------------
 FILE.      ORIGINAL           File Type
 FIID.      9080C              File Type Identifier
 VERS.      1.0                System Version
 SER .      1                  System Serial Number
 TRUK.      0.50000            Truck Calibration Number
 TOOL.         263             Tool Serial Number
 TIME.      11:55:             Time
 LAT .          None           Latitude
 LON .          None           Longitude
 LMF .       TOC-PVC           Log Measured From
 DMF .          None           Driller Measured From
 PD  .           TOC           Permanent Data
 PDEV.          None           Elevation Permanent Data
 EKB .M         None           Elevation Kelly Bushing
 ELEV.DF        None           Elevation DF
 EGL .M         None           Elevation Ground Level
 DRDP.          None           Driller's Depth
 CASD.         3               Casing Diameter
 CASB.          1870           Casing Bottom
 CASX.           PVC           Casing Type
 CAST.         0               Casing Thickness
 TNOC.          None           Time Circulation Stopped
 LOGU.       CENT              Logging Unit
 RECB.          KKNUTSON       Recorded By
 OSR1.          None           Other Services
 OSR2.          None           Other Services
 OSR3.          None           Other Services
 BS  .MM           6           Bit Size
 MST .                         Mean Surface Temperature
 TGRD.        0                Temperature Gradiant
 MAGN.             0           Magnetic Declination
 MDEN.      2.71               Density Matrix
 MATR.       Dolomite          Neutron Matrix
 DTMT.            54           Delta T Matrix
 DTFL.                         Delta T Fluid
 MUDS.               0         Mud Sample Source
 MRS .           0             Mud Resistivity
 MTP .           0             Mud Temperature
 MFRS.                         Resistivity Mud Filtrate
 MFTP.                         Temperature Mud Filtrate
 MCRS.         0               Resistivity Mud Cake
 MCTP.                         Temperature Mud Cake
 FTYP.             0           Fluid Type
 FD  .K/M3                     Fluid Density
 DFV .S                        Fluid Viscosity
 FPH .                         Fuild PH
 ELCO.        2500             Electron Cutoff
# -------------------------- 
~A DEPTH  TOT GAM  THORIUM  URANIUM  POTASIUM PILOT W DAC     GAM(KUT) THORIUM  URANIUM  POTASIUM TENSION  TIME    
# ...
 192.200  26087.2    21.92   -16.12   2.51      3004    1844       1      1.67    15.00  42.22        0.6  1.95000 
 192.300  26021.7    17.14    -0.38  -2.64      3117    1842       3      1.67    21.11  38.89        2.4  1.75000 
 192.400  25810.0    -0.73     8.99  -2.44      3009    1853       4      0.53    20.00  41.58        5.1  1.80000 
 192.500  26132.2     7.63     7.87   0.39      3042    1830      14      1.11    22.78  48.33        8.8  1.90000 
 192.600  26100.0    13.06   -10.24   5.31      3054    1844       8      1.11    15.56  50.00       10.4  1.80000 
 192.700  26117.9    15.05     3.31  -1.17      3007    1848      10      1.58    22.63  43.68        7.4  1.80000 
 192.800  25985.0    -7.26     5.62  -7.83      3102    1842     -16      0.00    15.00  27.22        8.5  1.90000 
 192.900  26239.4     2.28     0.74   1.78      3133    1844       6      0.56    17.22  46.67       11.4  2.00000 
 193.000  26008.4     6.66   -14.42   8.78      3109    1837       8      0.53    11.58  54.21        7.0  2.00000 
 193.100  26050.5    11.35   -10.69   0.87      3071    1846      -3      1.00    14.00  40.00        9.9  2.18000 
 193.200  26065.5    41.88   -23.99   1.31      3140    1839       1      3.00    17.50  38.50        3.0  2.02000 
 193.300  25978.6     4.71   -11.60   2.47      3053    1847      -4      0.48    11.43  41.90       11.6  2.00000 
 193.400  26120.0     9.71    -7.22   0.35      3084    1848      -2      0.95    15.24  40.48        2.6  2.10000 
 193.500  26126.0    -2.39    13.68  -2.36      3135    1846       8      0.50    22.00  44.00        3.8  2.00000 
 193.600  25941.0    -7.13     7.23  -0.28      3082    1846       3      0.00    17.14  44.29        0.1  2.00000 
 193.700  26166.5    -3.46    16.89  -4.72      3099    1846       6      0.50    23.00  40.50        5.9  2.00000 
 193.800  26004.5    17.16    -7.75  -0.05      2976    1854       1      1.50    17.50  40.50       15.2  2.10000 
 193.900  26077.0     9.75    -4.12   3.78      3067    1845      10      1.00    17.50  49.50       12.8  2.00000 
 194.000  25937.6   -10.63    19.85  -0.07      3006    1850      16      0.00    22.86  50.95        9.8  1.90000 
 194.100  26040.5    13.41   -16.89   5.08      3070    1846       1      1.00    12.00  46.00       12.1  1.98000 
 194.200  26193.2     2.24    23.05  -4.45      2971    1852      17      1.05    28.42  45.26        6.4  1.82000 
 194.300  25927.9     7.94     3.76  -0.28      3116    1849       8      1.05    20.53  44.74       11.0  1.80000 
 194.400  26017.4    35.87   -19.30   4.22      3017    1847       9      2.63    18.42  46.32       15.3  1.80000 
 194.500  25823.3   -10.96    19.51  -5.59      3059    1848       2      0.00    21.67  38.89       15.3  1.80000 
 194.600  26098.9     1.27     3.42  -1.67      3118    1837       1      0.56    17.78  40.56       14.5  1.90000 
 194.700  26100.0     5.52    14.41  -3.42      3128    1848      11      1.11    25.00  43.33        6.6  1.80000 
 194.800  26025.3    -8.24    11.23  -0.25      3065    1848       7      0.00    18.95  46.32        0.8  1.80000 
 194.900  25982.8    15.50     5.62  -2.20      3110    1844      10      1.67    23.89  42.78        0.4  1.80000 
 195.000  26018.3    12.16    -7.81   2.43      3089    1836       4      1.11    16.11  45.00        1.5  1.80000 
 195.100  25942.2     1.12     4.72   1.13      3064    1847       8      0.56    18.89  47.22        2.1  1.80000 
 195.200  26034.4    13.22   -10.60   6.16      3044    1848      10      1.11    15.56  51.67        3.4  1.90000 
 195.300  26096.1    -6.73     6.44   2.04      3018    1847       8      0.00    17.22  48.89        6.4  1.80000 
 195.400  26069.5     5.19    -9.86   6.27      3128    1838       7      0.53    13.16  51.05        6.6  1.98000 
 195.500  25952.8    13.07    13.82  -4.08      2973    1854      13      1.67    27.22  42.78        3.3  1.82000 
 195.600  25990.0    -7.98     9.27  -3.96      3079    1846      -3      0.00    17.37  37.37        6.0  2.10000 
 195.700  26129.5    19.49   -11.88   1.57      3038    1843       2      1.58    16.32  42.11        8.8  2.10000 
 195.800  26039.0    15.50    -5.84  -2.19      3113    1843      -3      1.43    17.62  36.67        4.9  2.00000 
 195.900  26104.3    10.90   -10.23   5.01      3100    1839       7      0.95    14.76  49.05        5.3  2.10000 
 196.000  26191.5    19.46   -14.49   5.44      3059    1845       8      1.50    15.50  49.00       20.2  2.10000 
 196.100  26054.8    17.44   -11.29   3.25      3130    1843       5      1.43    16.19  45.71       19.3  2.10000 
 196.200  25899.0    -8.37    11.61  -0.62      3044    1844       7      0.00    19.05  45.71        5.9  2.11000 
 196.300  25802.4    23.98   -13.63  -3.08      3063    1844      -8      1.90    16.19  31.90        2.2  1.99000 
 196.400  26075.2    -0.48     5.50  -2.99      3061    1850      -1      0.48    18.10  38.57       -0.0  2.00000 
 196.500  25946.0    -0.32     8.33   5.13      3072    1841      21      0.50    21.00  57.50        1.2  2.10000 
 196.600  26082.5    11.91   -12.35   2.18      3080    1842      -2      1.00    13.50  42.00        5.8  1.90000 
 196.700  25908.1    12.76     3.88  -2.65      2903    1854       6      1.43    21.90  40.48        9.5  2.00000 
 196.800  26013.7    -0.96     9.94  -1.93      3048    1845       6      0.53    20.53  43.16        7.4  1.80000 
 196.900  25918.0    33.33   -16.56   4.03      3069    1853      10      2.50    19.00  47.00        7.0  1.90000 
 197.000  25925.6   -11.38    19.93  -9.56      3092    1843      -7      0.00    21.11  30.56        0.1  1.80000 
 197.100  26118.9    18.13    -7.55  -0.40      3033    1851       1      1.58    17.89  40.00        0.6  1.80000 
 197.200  25943.9    27.75   -11.00   0.03      3093    1843       4      2.22    19.44  40.56        8.0  1.80000 
 197.300  26071.7    20.41   -10.89   1.83      3106    1837       4      1.67    17.22  43.33       16.2  1.90000 
 197.400  26028.3     8.62     4.25   0.19      3136    1847      10      1.11    21.11  46.11       13.2  1.80000 
 197.500  26082.6    37.14   -23.92   4.05      3075    1847       4      2.63    16.32  43.68       13.0  1.80000 
 197.600  25932.2    16.40     3.18   0.67      3113    1842      15      1.67    23.33  47.78       11.3  1.90000 
 197.700  25926.7    11.46    -5.31   2.37      3017    1843       6      1.11    17.22  46.11        7.2  1.80000 
 197.800  25907.4    27.84   -15.93   3.70      3056    1847       7      2.11    17.37  45.79        2.1  1.80000 
 197.900  26095.6    10.72    -3.23   0.35      3074    1835       3      1.11    17.78  42.78        1.8  1.79000 
 198.000  26016.1    12.40    -8.81   1.88      3079    1844       2      1.11    15.56  43.33        0.5  1.91000 
 198.100  26001.2    10.22     2.47   3.16      2998    1853      16      1.18    21.18  51.76       -0.0  1.80000 
 198.200  25915.0     3.11    -4.39   3.62      3071    1846       5      0.50    15.00  48.00        2.9  2.00000 
 198.300  25879.4     9.67     0.51   0.27      2985    1849       7      1.11    19.44  44.44        3.9  2.00000 
 198.400  26119.5     8.65    -1.76  -1.86      3025    1852      -1      1.00    17.50  38.50        4.6  2.10000 
 198.500  25692.5    -8.71    12.29  -2.50      2983    1844       3      0.00    19.00  42.00        2.4  2.10000 
 198.600  26049.0    21.11    -2.79  -1.14      3000    1850       7      1.90    21.43  41.43        4.9  2.00000 
 198.700  26079.5    11.09     9.18  -5.18      2957    1851       5      1.43    23.81  37.62        2.9  2.10000 
 198.800  26061.0    27.09   -19.02   1.13      3184    1842      -3      2.00    15.00  38.50        1.6  2.10000 
 198.900  25871.4    -3.24    15.68  -2.00      3029    1839      11      0.48    22.86  45.71        5.8  2.00000 
 199.000  25951.4     7.04     1.49  -2.75      2995    1851      -1      0.95    18.57  38.10       11.8  2.00000 
