~Version Information
 VERS.                2.0:  CWLS LOG ASCII STANDARD -VERSION 2.0
 WRAP.                 NO:  ONE LINE PER DEPTH STEP
~WELL INFORMATION BLOCK
#MNEM.UNIT       DATA		            DESCRIPTION OF MNEMONIC
#---------    -------------            ------------------------
 STRT.FT  0.800                          :START DEPTH
 STOP.FT  1867.700                       :STOP DEPTH
 STEP.FT  0.100                          :STEP    UP_HOLE  
 NULL.    0                              :NULL VALUE
 COMP.                             USGS  :COMPANY
 WELL.                             DMW1  :WELL
 FLD .      MARINA COAST WATER DISTRICT  :FIELD
 LOC .    None  None  None               :LOCATION
 CNTY.                        MONTERY ?  :COUNTY
 STAT.                     CA            :STATE
 SRVC.    PORTLAND OR                    :SERVICE COMPANY
 DATE.   11/17/00                        :LOG DATE
 UWI .                       	         :UNIQUE WELL ID
 LIC .                                   :LICENSE NUMBER
~Curve Information Block
#MNEM.UNIT      API CODE     Curve Description
#---------    -------------  ------------------------
 DEPT     .FT        00 001 00 00          :  1  DEPTH   
 GAM(NAT) .API-GR    00 310 00 00          :  2             GAM(NAT)
 COND     .MMHO/M    00 000 00 00          :  3                 COND
 RES      .OHM-M     00 000 00 00          :  4                  RES
 TEMP     .DEG F     00 660 00 00          :  5                 TEMP
 AP-COND  .MMHO/M    00 000 00 00          :  6              AP-COND
 TEMP     .CPS       00 660 00 00          :  7                 TEMP
 AP-COND  .CPS       00 000 00 00          :  8              AP-COND
 TENSION  .POUNDS    00 000 00 00          :  9              TENSION
 TIME     .MINUTES   00 000 00 00          : 10                 TIME
~Parameter Information Block
#MNEM.UNIT   Information     Description
#---------- ---------------  ------------------------
~Other Information
#MNEM.UNIT  Information      Description
#---------- ---------------  ------------------------
 FILE.      ORIGINAL           File Type
 FIID.      9511A              File Type Identifier
 VERS.      1.0                System Version
 SER .      1                  System Serial Number
 TRUK.      0.50000            Truck Calibration Number
 TOOL.         989             Tool Serial Number
 TIME.      20:51:             Time
 LAT .          None           Latitude
 LON .          None           Longitude
 LMF .       TOC-PVC           Log Measured From
 DMF .          None           Driller Measured From
 PD  .           TOC           Permanent Data
 PDEV.          None           Elevation Permanent Data
 EKB .M         None           Elevation Kelly Bushing
 ELEV.DF        None           Elevation DF
 EGL .M         None           Elevation Ground Level
 DRDP.          None           Driller's Depth
 CASD.         3               Casing Diameter
 CASB.          1870           Casing Bottom
 CASX.           PVC           Casing Type
 CAST.         0               Casing Thickness
 TNOC.          None           Time Circulation Stopped
 LOGU.       CENT              Logging Unit
 RECB.          KKNUTSON       Recorded By
 OSR1.          None           Other Services
 OSR2.          None           Other Services
 OSR3.          None           Other Services
 BS  .MM           6           Bit Size
 MST .                         Mean Surface Temperature
 TGRD.        0                Temperature Gradiant
 MAGN.             0           Magnetic Declination
 MDEN.      2.71               Density Matrix
 MATR.       Dolomite          Neutron Matrix
 DTMT.            54           Delta T Matrix
 DTFL.                         Delta T Fluid
 MUDS.               0         Mud Sample Source
 MRS .           0             Mud Resistivity
 MTP .           0             Mud Temperature
 MFRS.                         Resistivity Mud Filtrate
 MFTP.                         Temperature Mud Filtrate
 MCRS.         0               Resistivity Mud Cake
 MCTP.                         Temperature Mud Cake
 FTYP.             0           Fluid Type
 FD  .K/M3                     Fluid Density
 DFV .S                        Fluid Viscosity
 FPH .                         Fuild PH
 ELCO.        2500             Electron Cutoff
# -------------------------- 
~A DEPTH  GAM(NAT) COND     RES      TEMP  AP-COND  TEMP  AP-COND  TENSION  TIME    
# ...
 747.200    118.7    265.5      3.8  5485.2   236.0  28783.3 80433.3      9.9  0.30000 
 747.300    127.2    264.1      3.8  5485.9   234.8  28786.7 80303.3      9.2  0.20000 
 747.400    108.5    264.1      3.8  5485.9   234.8  28786.7 80303.3      8.4  0.30000 
 747.500     98.4    262.0      3.8  5486.5   233.0  28790.0 80095.0      8.4  0.30000 
 747.600     91.6    262.0      3.8  5485.9   233.0  28786.7 80096.7     11.8  0.30000 
 747.700    166.2    260.3      3.8  5485.9   231.5  28786.7 79923.3     11.8  0.30000 
 747.800     88.2    258.7      3.9  5485.9   230.1  28786.7 79770.0     14.5  0.30000 
 747.900     91.6    257.8      3.9  5485.9   229.3  28786.7 79680.0     17.6  0.30000 
 748.000     81.4    258.4      3.9  5485.9   229.8  28786.7 79740.0     17.1  0.30000 
 748.100     91.6    256.7      3.9  5485.9   228.4  28786.7 79573.3     15.8  0.30000 
 748.200    132.3    255.3      3.9  5485.9   227.1  28786.7 79430.0     16.2  0.30000 
 748.300     74.6    254.5      3.9  5485.9   226.4  28786.7 79353.3      8.8  0.30000 
 748.400     86.5    254.3      3.9  5486.5   226.3  28790.0 79340.0      6.9  0.30000 
 748.500    108.5    255.7      3.9  5485.9   227.5  28786.7 79476.7     10.7  0.30000 
 748.600    115.3    255.3      3.9  5485.9   227.1  28786.7 79430.0      9.8  0.30000 
 748.700     81.4    254.3      3.9  5486.5   226.2  28790.0 79333.3      7.4  0.30000 
 748.800    105.2    254.9      3.9  5485.9   226.8  28786.7 79396.7      5.0  0.20000 
 748.900    145.9    254.4      3.9  5485.9   226.4  28786.7 79350.0      2.9  0.31000 
 749.000     98.4    254.4      3.9  5486.5   226.4  28790.0 79345.0      2.7  0.33000 
 749.100    101.8    255.0      3.9  5486.5   226.9  28790.0 79403.3      2.7  0.33000 
 749.200     95.0    255.3      3.9  5485.9   227.1  28786.7 79430.0      2.7  0.22000 
 749.300     88.2    256.2      3.9  5486.5   227.9  28790.0 79523.3      5.6  0.31000 
 749.400    145.9    257.2      3.9  5486.5   228.8  28790.0 79625.0      4.9  0.30000 
 749.500     91.6    255.9      3.9  5486.0   227.7  28787.5 79497.5      8.1  0.30000 
 749.600    122.1    256.1      3.9  5486.5   227.8  28790.0 79510.0      7.8  0.30000 
 749.700     98.4    256.2      3.9  5485.9   227.9  28786.7 79520.0      5.2  0.30000 
 749.800     88.2    253.5      3.9  5486.5   225.6  28790.0 79260.0      5.7  0.30000 
 749.900     88.2    255.0      3.9  5486.5   226.9  28790.0 79406.7      4.7  0.30000 
 750.000    137.4    253.2      3.9  5486.5   225.3  28790.0 79230.0      8.4  0.20000 
 750.100     91.6    250.4      4.0  5486.5   222.9  28790.0 78953.3      8.6  0.30000 
 750.200     71.2    249.8      4.0  5485.5   222.3  28785.0 78890.0     11.3  0.30000 
 750.300    105.2    249.5      4.0  5485.9   222.1  28786.7 78863.3     11.3  0.30000 
 750.400     95.0    246.9      4.0  5486.5   219.9  28790.0 78610.0     12.8  0.30000 
 750.500    128.9    246.0      4.1  5486.5   219.0  28790.0 78513.3     14.5  0.30000 
 750.600    111.9    242.0      4.1  5486.5   215.6  28790.0 78126.7     13.1  0.30000 
 750.700    122.1    240.7      4.2  5486.5   214.5  28790.0 78000.0     12.2  0.30000 
 750.800    115.3    239.5      4.2  5486.5   213.4  28790.0 77876.7     12.2  0.30000 
 750.900     98.4    238.7      4.2  5486.5   212.7  28790.0 77800.0     12.0  0.30000 
 751.000    105.2    236.5      4.2  5486.5   210.8  28790.0 77583.3     11.3  0.30000 
 751.100     81.4    235.8      4.2  5486.5   210.2  28790.0 77510.0     10.5  0.30000 
 751.200    128.9    234.4      4.3  5486.5   208.9  28790.0 77370.0      7.6  0.30000 
 751.300    111.9    234.2      4.3  5486.5   208.8  28790.0 77353.3      9.9  0.30000 
 751.400    101.8    232.2      4.3  5486.5   207.0  28790.0 77156.7      6.3  0.30000 
 751.500    128.9    233.0      4.3  5486.5   207.7  28790.0 77236.7      4.9  0.20000 
 751.600    101.8    234.0      4.3  5487.2   208.6  28793.3 77330.0      2.1  0.30000 
 751.700    162.8    232.9      4.3  5486.5   207.7  28790.0 77230.0      1.1  0.30000 
 751.800     88.2    233.8      4.3  5486.5   208.4  28790.0 77310.0      1.5  0.30000 
 751.900     71.2    234.2      4.3  5487.2   208.8  28793.3 77356.7      2.8  0.30000 
 752.000    122.1    236.2      4.2  5486.5   210.5  28790.0 77546.7      3.2  0.30000 
 752.100    101.8    237.5      4.2  5486.5   211.6  28790.0 77676.7      4.2  0.30000 
 752.200    128.9    238.5      4.2  5487.2   212.5  28793.3 77773.3      5.5  0.30000 
 752.300    111.9    238.8      4.2  5486.5   212.8  28790.0 77806.7      8.4  0.30000 
 752.400    125.5    239.8      4.2  5487.2   213.6  28793.3 77903.3      8.1  0.30000 
 752.500     98.4    241.1      4.1  5486.5   214.8  28790.0 78033.3      9.8  0.30000 
 752.600    118.7    241.3      4.1  5486.5   214.9  28790.0 78050.0      8.1  0.20000 
 752.700    111.9    241.7      4.1  5487.2   215.3  28793.3 78096.7      6.6  0.30000 
 752.800    115.3    242.4      4.1  5486.5   215.9  28790.0 78160.0      1.2  0.30000 
 752.900    101.8    241.8      4.1  5487.2   215.4  28793.3 78100.0      3.8  0.30000 
 753.000    115.3    243.9      4.1  5486.5   217.2  28790.0 78306.7      2.6  0.30000 
 753.100    101.8    242.9      4.1  5486.5   216.4  28790.0 78216.7      5.5  0.30000 
 753.200    142.5    242.5      4.1  5486.5   216.0  28790.0 78176.7      5.6  0.30000 
 753.300    135.7    241.5      4.1  5486.5   215.2  28790.0 78076.7      3.2  0.30000 
 753.400    108.5    242.2      4.1  5487.2   215.8  28793.3 78146.7      1.4  0.30000 
 753.500    101.8    241.6      4.1  5486.5   215.2  28790.0 78080.0      1.4  0.30000 
 753.600     81.4    242.1      4.1  5487.2   215.6  28793.3 78130.0      4.4  0.30000 
 753.700     88.2    241.6      4.1  5487.2   215.2  28793.3 78086.7      4.4  0.30000 
 753.800     91.6    241.8      4.1  5487.2   215.4  28793.3 78103.3      3.7  0.30000 
 753.900    122.1    243.0      4.1  5487.2   216.5  28793.3 78223.3      3.0  0.30000 
 754.000     84.8    243.5      4.1  5487.2   216.8  28793.3 78266.7      3.0  0.30000 
 754.100    122.1    243.5      4.1  5487.2   216.9  28793.3 78270.0      4.6  0.30000 
 754.200     64.4    244.2      4.1  5487.2   217.5  28793.3 78336.7      4.6  0.20000 
 754.300    106.8    244.7      4.1  5487.2   217.9  28793.3 78386.7      4.7  0.30000 
 754.400     88.2    243.9      4.1  5487.6   217.3  28795.0 78315.0      6.2  0.30000 
 754.500    156.0    245.1      4.1  5487.2   218.3  28793.3 78433.3      6.2  0.30000 
 754.600    122.1    246.3      4.1  5487.2   219.3  28793.3 78550.0      5.1  0.32000 
 754.700    118.7    246.6      4.1  5487.2   219.6  28793.3 78576.7      5.1  0.33000 
 754.800     84.8    248.2      4.0  5487.2   220.9  28793.3 78730.0      1.8  0.33000 
 754.900    105.2    248.8      4.0  5487.2   221.5  28793.3 78790.0      0.2  0.22000 
 755.000    115.3    249.5      4.0  5487.2   222.1  28793.3 78860.0      3.1  0.30000 
 755.100    128.9    251.2      4.0  5487.2   223.6  28793.3 79033.3      6.7  0.30000 
 755.200     64.4    250.0      4.0  5487.2   222.5  28793.3 78910.0     10.1  0.30000 
 755.300    115.3    251.5      4.0  5487.9   223.8  28796.7 79060.0     12.9  0.30000 
 755.400     76.3    250.7      4.0  5487.2   223.1  28793.3 78980.0     13.4  0.30000 
 755.500    109.4    251.4      4.0  5487.9   223.8  28796.7 79053.3     10.1  0.30000 
 755.600    111.9    250.5      4.0  5487.2   223.0  28793.3 78960.0     10.1  0.30000 
 755.700     98.4    251.3      4.0  5487.9   223.6  28796.7 79036.7      4.0  0.30000 
 755.800     95.0    250.5      4.0  5487.2   222.9  28793.3 78956.7      1.1  0.30000 
 755.900    132.3    251.3      4.0  5487.9   223.7  28796.7 79043.3      1.0  0.20000 
 756.000    115.3    249.0      4.0  5487.2   221.7  28793.3 78816.7      0.9  0.30000 
 756.100    128.9    248.2      4.0  5487.6   221.0  28795.0 78735.0      3.1  0.30000 
 756.200    115.3    247.7      4.0  5487.2   220.5  28793.3 78683.3      3.1  0.30000 
