~Version Information
 VERS.                2.0:  CWLS LOG ASCII STANDARD -VERSION 2.0
 WRAP.                 NO:  ONE LINE PER DEPTH STEP
~WELL INFORMATION BLOCK
#MNEM.UNIT       DATA		            DESCRIPTION OF MNEMONIC
#---------    -------------            ------------------------
 STRT.FT  0.800                          :START DEPTH
 STOP.FT  1867.700                       :STOP DEPTH
 STEP.FT  0.100                          :STEP    UP_HOLE  
 NULL.    0                              :NULL VALUE
 COMP.                             USGS  :COMPANY
 WELL.                             DMW1  :WELL
 FLD .      MARINA COAST WATER DISTRICT  :FIELD
 LOC .    None  None  None               :LOCATION
 CNTY.                        MONTERY ?  :COUNTY
 STAT.                     CA            :STATE
 SRVC.    PORTLAND OR                    :SERVICE COMPANY
 DATE.   11/17/00                        :LOG DATE
 UWI .                       	         :UNIQUE WELL ID
 LIC .                                   :LICENSE NUMBER
~Curve Information Block
#MNEM.UNIT      API CODE     Curve Description
#---------    -------------  ------------------------
 DEPT     .FT        00 001 00 00          :  1  DEPTH   
 GAM(NAT) .API-GR    00 310 00 00          :  2             GAM(NAT)
 COND     .MMHO/M    00 000 00 00          :  3                 COND
 RES      .OHM-M     00 000 00 00          :  4                  RES
 TEMP     .DEG F     00 660 00 00          :  5                 TEMP
 AP-COND  .MMHO/M    00 000 00 00          :  6              AP-COND
 TEMP     .CPS       00 660 00 00          :  7                 TEMP
 AP-COND  .CPS       00 000 00 00          :  8              AP-COND
 TENSION  .POUNDS    00 000 00 00          :  9              TENSION
 TIME     .MINUTES   00 000 00 00          : 10                 TIME
~Parameter Information Block
#MNEM.UNIT   Information     Description
#---------- ---------------  ------------------------
~Other Information
#MNEM.UNIT  Information      Description
#---------- ---------------  ------------------------
 FILE.      ORIGINAL           File Type
 FIID.      9511A              File Type Identifier
 VERS.      1.0                System Version
 SER .      1                  System Serial Number
 TRUK.      0.50000            Truck Calibration Number
 TOOL.         989             Tool Serial Number
 TIME.      20:51:             Time
 LAT .          None           Latitude
 LON .          None           Longitude
 LMF .       TOC-PVC           Log Measured From
 DMF .          None           Driller Measured From
 PD  .           TOC           Permanent Data
 PDEV.          None           Elevation Permanent Data
 EKB .M         None           Elevation Kelly Bushing
 ELEV.DF        None           Elevation DF
 EGL .M         None           Elevation Ground Level
 DRDP.          None           Driller's Depth
 CASD.         3               Casing Diameter
 CASB.          1870           Casing Bottom
 CASX.           PVC           Casing Type
 CAST.         0               Casing Thickness
 TNOC.          None           Time Circulation Stopped
 LOGU.       CENT              Logging Unit
 RECB.          KKNUTSON       Recorded By
 OSR1.          None           Other Services
 OSR2.          None           Other Services
 OSR3.          None           Other Services
 BS  .MM           6           Bit Size
 MST .                         Mean Surface Temperature
 TGRD.        0                Temperature Gradiant
 MAGN.             0           Magnetic Declination
 MDEN.      2.71               Density Matrix
 MATR.       Dolomite          Neutron Matrix
 DTMT.            54           Delta T Matrix
 DTFL.                         Delta T Fluid
 MUDS.               0         Mud Sample Source
 MRS .           0             Mud Resistivity
 MTP .           0             Mud Temperature
 MFRS.                         Resistivity Mud Filtrate
 MFTP.                         Temperature Mud Filtrate
 MCRS.         0               Resistivity Mud Cake
 MCTP.                         Temperature Mud Cake
 FTYP.             0           Fluid Type
 FD  .K/M3                     Fluid Density
 DFV .S                        Fluid Viscosity
 FPH .                         Fuild PH
 ELCO.        2500             Electron Cutoff
# -------------------------- 
~A DEPTH  GAM(NAT) COND     RES      TEMP  AP-COND  TEMP  AP-COND  TENSION  TIME    
# ...
1611.700     57.7    330.9      3.0  5693.3   292.7  29780.0 86860.0     -0.0  0.30000 
1611.800     64.4    333.0      3.0  5693.3   294.4  29780.0 87056.7     -0.0  0.30000 
1611.900     91.6    333.4      3.0  5693.3   294.8  29780.0 87100.0     -0.0  0.30000 
1612.000     67.8    333.2      3.0  5693.3   294.6  29780.0 87076.7     -0.0  0.20000 
1612.100     84.8    333.5      3.0  5693.3   294.9  29780.0 87110.0     -0.0  0.30000 
1612.200     54.3    335.3      3.0  5693.3   296.5  29780.0 87290.0     -0.0  0.30000 
1612.300     71.2    334.7      3.0  5693.3   295.9  29780.0 87223.3     -0.0  0.30000 
1612.400     71.2    336.5      3.0  5694.0   297.4  29783.3 87400.0     -0.0  0.30000 
1612.500    105.2    336.3      3.0  5693.3   297.3  29780.0 87383.3     -0.0  0.30000 
1612.600     64.4    336.7      3.0  5693.3   297.7  29780.0 87423.3     -0.0  0.30000 
1612.700     96.7    339.3      2.9  5693.3   299.9  29780.0 87676.7     -0.0  0.30000 
1612.800    101.8    338.8      3.0  5693.3   299.5  29780.0 87630.0     -0.0  0.30000 
1612.900     78.0    340.3      2.9  5694.0   300.8  29783.3 87776.7     -0.0  0.30000 
1613.000     78.0    339.6      2.9  5693.3   300.1  29780.0 87703.3     -0.0  0.30000 
1613.100     57.7    340.1      2.9  5694.0   300.6  29783.3 87753.3     -0.0  0.30000 
1613.200     88.2    341.6      2.9  5694.0   301.9  29783.3 87903.3     -0.0  0.30000 
1613.300     81.4    342.0      2.9  5693.3   302.2  29780.0 87940.0     -0.0  0.30000 
1613.400     54.3    340.4      2.9  5694.0   300.8  29783.3 87783.3     -0.0  0.30000 
1613.500     67.8    342.1      2.9  5694.0   302.3  29783.3 87950.0     -0.0  0.30000 
1613.600     57.7    340.8      2.9  5693.3   301.2  29780.0 87823.3     -0.0  0.30000 
1613.700     47.5    341.4      2.9  5694.0   301.7  29783.3 87886.7     -0.0  0.20000 
1613.800     98.4    340.7      2.9  5694.0   301.1  29783.3 87810.0     -0.0  0.30000 
1613.900     74.6    341.2      2.9  5693.3   301.6  29780.0 87865.0     -0.0  0.30000 
1614.000     84.8    339.2      2.9  5693.3   299.8  29780.0 87670.0     -0.0  0.30000 
1614.100     64.4    341.2      2.9  5694.0   301.6  29783.3 87866.7     -0.0  0.30000 
1614.200     81.4    341.3      2.9  5694.0   301.7  29783.3 87876.7     -0.0  0.30000 
1614.300    108.5    340.6      2.9  5694.0   301.0  29783.3 87803.3     -0.0  0.30000 
1614.400     78.0    341.3      2.9  5694.0   301.6  29783.3 87873.3     -0.0  0.30000 
1614.500     71.2    341.1      2.9  5694.0   301.4  29783.3 87853.3     -0.0  0.30000 
1614.600     74.6    340.0      2.9  5694.0   300.5  29783.3 87746.7     -0.0  0.30000 
1614.700     61.1    341.4      2.9  5694.0   301.7  29783.3 87880.0     -0.0  0.30000 
1614.800     54.3    339.7      2.9  5694.0   300.2  29783.3 87716.7     -0.0  0.30000 
1614.900    105.2    339.8      2.9  5693.3   300.3  29780.0 87723.3      0.3  0.30000 
1615.000     57.7    341.0      2.9  5694.0   301.4  29783.3 87846.7      1.0  0.30000 
1615.100     88.2    341.1      2.9  5694.7   301.4  29786.7 87850.0      1.0  0.30000 
1615.200     61.1    342.2      2.9  5694.0   302.4  29783.3 87960.0      1.2  0.30000 
1615.300     74.6    342.1      2.9  5694.0   302.3  29783.3 87950.0      1.2  0.30000 
1615.400     64.4    343.3      2.9  5693.3   303.4  29780.0 88073.3      0.8  0.20000 
1615.500     91.6    343.0      2.9  5694.7   303.1  29786.7 88043.3      0.3  0.30000 
1615.600     57.7    345.1      2.9  5694.3   304.9  29785.0 88240.0      0.3  0.30000 
1615.700     27.1    345.1      2.9  5694.0   304.9  29783.3 88240.0     -0.0  0.30000 
1615.800     54.3    344.6      2.9  5694.7   304.4  29786.7 88193.3     -0.0  0.30000 
1615.900     81.4    345.8      2.9  5694.0   305.5  29783.3 88310.0     -0.0  0.30000 
1616.000     71.2    346.4      2.9  5694.7   306.1  29786.7 88376.7     -0.0  0.30000 
1616.100     54.3    347.9      2.9  5694.0   307.4  29783.3 88523.3     -0.0  0.30000 
1616.200     67.8    349.0      2.9  5694.7   308.3  29786.7 88630.0     -0.0  0.30000 
1616.300     71.2    350.1      2.9  5694.0   309.2  29783.3 88730.0     -0.0  0.30000 
1616.400     54.3    350.4      2.9  5694.7   309.5  29786.7 88763.3     -0.0  0.30000 
1616.500     50.9    351.2      2.8  5694.7   310.2  29786.7 88843.3     -0.0  0.30000 
1616.600     67.8    353.6      2.8  5694.0   312.3  29783.3 89080.0      0.9  0.30000 
1616.700     88.2    353.1      2.8  5694.7   311.8  29786.7 89026.7      0.9  0.30000 
1616.800     44.1    355.1      2.8  5694.7   313.5  29786.7 89220.0      0.9  0.31000 
1616.900     74.6    357.3      2.8  5694.0   315.4  29783.3 89436.7     -0.0  0.22000 
1617.000     71.2    356.8      2.8  5694.0   315.0  29783.3 89390.0     -0.0  0.33000 
1617.100     74.6    358.6      2.8  5694.3   316.5  29785.0 89560.0      0.2  0.33000 
1617.200    108.5    358.1      2.8  5694.7   316.1  29786.7 89516.7      0.2  0.21000 
1617.300     71.2    359.1      2.8  5694.7   317.0  29786.7 89613.3      1.3  0.30000 
1617.400     81.4    360.0      2.8  5694.7   317.8  29786.7 89703.3      1.3  0.30000 
1617.500     71.2    358.5      2.8  5694.7   316.4  29786.7 89550.0      1.1  0.30000 
1617.600     66.1    360.2      2.8  5694.7   318.0  29786.7 89723.3      1.0  0.30000 
1617.700     71.2    361.4      2.8  5694.7   319.0  29786.7 89840.0     -0.0  0.30000 
1617.800     47.5    361.4      2.8  5694.7   319.0  29786.7 89840.0      0.5  0.30000 
1617.900     71.2    362.3      2.8  5694.7   319.7  29786.7 89926.7      1.5  0.30000 
1618.000     71.2    363.1      2.8  5694.7   320.5  29786.7 90006.7      1.5  0.30000 
1618.100     67.8    363.9      2.7  5694.7   321.1  29786.7 90080.0      2.2  0.30000 
1618.200     61.1    362.7      2.8  5694.7   320.1  29786.7 89963.3      1.9  0.30000 
1618.300     84.8    362.4      2.8  5694.0   319.9  29783.3 89940.0      1.4  0.30000 
1618.400     78.0    362.5      2.8  5694.7   320.0  29786.7 89950.0      0.8  0.20000 
1618.500     78.0    362.2      2.8  5695.4   319.6  29790.0 89913.3      0.8  0.30000 
1618.600     61.1    363.1      2.8  5694.3   320.4  29785.0 90000.0      0.7  0.30000 
1618.700    105.2    362.5      2.8  5695.4   319.9  29790.0 89943.3      0.4  0.30000 
1618.800     71.2    362.3      2.8  5694.7   319.8  29786.7 89930.0      0.9  0.30000 
1618.900     95.0    362.2      2.8  5694.7   319.7  29786.7 89916.7      0.6  0.30000 
1619.000     33.9    361.7      2.8  5695.4   319.2  29790.0 89870.0      1.2  0.30000 
1619.100    101.8    362.3      2.8  5694.7   319.7  29786.7 89923.3      0.7  0.30000 
1619.200     57.7    362.5      2.8  5695.4   319.9  29790.0 89943.3      1.5  0.30000 
1619.300     71.2    362.3      2.8  5694.7   319.7  29786.7 89926.7      1.5  0.30000 
1619.400     81.4    362.0      2.8  5694.7   319.5  29786.7 89893.3      1.5  0.30000 
1619.500    101.8    360.8      2.8  5695.4   318.5  29790.0 89780.0      1.5  0.30000 
1619.600    111.9    361.2      2.8  5694.0   318.8  29783.3 89816.7      1.4  0.30000 
1619.700     88.2    362.0      2.8  5695.4   319.5  29790.0 89893.3      1.7  0.30000 
1619.800     40.7    361.1      2.8  5695.4   318.7  29790.0 89806.7      2.2  0.30000 
1619.900     67.8    362.1      2.8  5694.0   319.6  29783.3 89906.7      1.7  0.30000 
1620.000     81.4    361.8      2.8  5695.4   319.3  29790.0 89876.7      2.0  0.30000 
1620.100     84.8    363.5      2.8  5695.4   320.8  29790.0 90043.3      2.9  0.20000 
1620.200     54.3    363.3      2.8  5695.4   320.6  29790.0 90026.7      2.6  0.30000 
1620.300     50.9    363.8      2.7  5695.4   321.0  29790.0 90070.0      3.8  0.30000 
1620.400     74.6    364.9      2.7  5695.4   322.0  29790.0 90176.7      4.0  0.30000 
1620.500     67.8    365.9      2.7  5695.4   322.9  29790.0 90280.0      3.9  0.30000 
1620.600     44.1    367.0      2.7  5695.4   323.8  29790.0 90383.3      3.7  0.30000 
1620.700    101.8    367.6      2.7  5695.4   324.3  29790.0 90440.0      4.4  0.30000 
