~Version Information
 VERS.                2.0:  CWLS LOG ASCII STANDARD -VERSION 2.0
 WRAP.                 NO:  ONE LINE PER DEPTH STEP
~WELL INFORMATION BLOCK
#MNEM.UNIT       DATA		            DESCRIPTION OF MNEMONIC
#---------    -------------            ------------------------
 STRT.FT  5.900                          :START DEPTH
 STOP.FT  1425.400                       :STOP DEPTH
 STEP.FT  0.100                          :STEP    UP_HOLE  
 NULL.    0                              :NULL VALUE
 COMP.                             USGS  :COMPANY
 WELL.                             DMW1  :WELL
 FLD .      MARINA COAST WATER DISTRICT  :FIELD
 LOC .    None  None  None               :LOCATION
 CNTY.                        MONTERY ?  :COUNTY
 STAT.                     CA            :STATE
 SRVC.    PORTLAND, O                    :SERVICE COMPANY
 DATE.   11/17/00                        :LOG DATE
 UWI .                       	         :UNIQUE WELL ID
 LIC .                                   :LICENSE NUMBER
~Curve Information Block
#MNEM.UNIT      API CODE     Curve Description
#---------    -------------  ------------------------
 DEPT     .FT        00 001 00 00          :  1  DEPTH   
 TOT GAM  .CPS       00 000 00 00          :  2              TOT GAM
 THORIUM  .PPM       00 790 00 00          :  3              THORIUM
 URANIUM  .PPM       00 792 00 00          :  4              URANIUM
 POTASIUM .PERCENT   00 719 00 00          :  5             POTASIUM
 PILOT W  .CPS       00 000 00 00          :  6              PILOT W
 DAC      .MV        00 000 00 00          :  7                  DAC
 GAM(KUT) .CPS       00 310 00 00          :  8             GAM(KUT)
 THORIUM  .CPS       00 790 00 00          :  9              THORIUM
 URANIUM  .CPS       00 792 00 00          : 10              URANIUM
 POTASIUM .CPS       00 719 00 00          : 11             POTASIUM
 TENSION  .POUNDS    00 000 00 00          : 12              TENSION
 TIME     .MINUTES   00 000 00 00          : 13                 TIME
~Parameter Information Block
#MNEM.UNIT   Information     Description
#---------- ---------------  ------------------------
~Other Information
#MNEM.UNIT  Information      Description
#---------- ---------------  ------------------------
 FILE.      ORIGINAL           File Type
 FIID.      9080C              File Type Identifier
 VERS.      1.0                System Version
 SER .      1                  System Serial Number
 TRUK.      0.50000            Truck Calibration Number
 TOOL.         263             Tool Serial Number
 TIME.      11:55:             Time
 LAT .          None           Latitude
 LON .          None           Longitude
 LMF .       TOC-PVC           Log Measured From
 DMF .          None           Driller Measured From
 PD  .           TOC           Permanent Data
 PDEV.          None           Elevation Permanent Data
 EKB .M         None           Elevation Kelly Bushing
 ELEV.DF        None           Elevation DF
 EGL .M         None           Elevation Ground Level
 DRDP.          None           Driller's Depth
 CASD.         3               Casing Diameter
 CASB.          1870           Casing Bottom
 CASX.           PVC           Casing Type
 CAST.         0               Casing Thickness
 TNOC.          None           Time Circulation Stopped
 LOGU.       CENT              Logging Unit
 RECB.          KKNUTSON       Recorded By
 OSR1.          None           Other Services
 OSR2.          None           Other Services
 OSR3.          None           Other Services
 BS  .MM           6           Bit Size
 MST .                         Mean Surface Temperature
 TGRD.        0                Temperature Gradiant
 MAGN.             0           Magnetic Declination
 MDEN.      2.71               Density Matrix
 MATR.       Dolomite          Neutron Matrix
 DTMT.            54           Delta T Matrix
 DTFL.                         Delta T Fluid
 MUDS.               0         Mud Sample Source
 MRS .           0             Mud Resistivity
 MTP .           0             Mud Temperature
 MFRS.                         Resistivity Mud Filtrate
 MFTP.                         Temperature Mud Filtrate
 MCRS.         0               Resistivity Mud Cake
 MCTP.                         Temperature Mud Cake
 FTYP.             0           Fluid Type
 FD  .K/M3                     Fluid Density
 DFV .S                        Fluid Viscosity
 FPH .                         Fuild PH
 ELCO.        2500             Electron Cutoff
# -------------------------- 
~A DEPTH  TOT GAM  THORIUM  URANIUM  POTASIUM PILOT W DAC     GAM(KUT) THORIUM  URANIUM  POTASIUM TENSION  TIME    
# ...
 668.300  26024.4    -7.02     6.09  -3.04      3044    1813      -4      0.00    16.11  37.78        2.5  1.80000 
 668.400  26006.7    19.47    -7.39   2.32      2999    1809       8      1.67    18.89  46.11        2.4  1.80000 
 668.500  25965.0    13.52   -11.73   5.90      3080    1803       8      1.11    15.00  50.56        4.3  1.80000 
 668.600  26070.0     3.42    -4.18  -1.22      3048    1808      -5      0.56    14.44  37.78        3.5  1.90000 
 668.700  26066.1     6.12    11.62  -5.62      3031    1814       3      1.11    23.33  37.22        1.5  1.90000 
 668.800  26085.3     9.39    -1.70  -1.23      3043    1813       1      1.05    17.89  40.00        1.4  2.00000 
 668.900  25982.1     2.14    -0.02   2.31      2916    1816       7      0.53    16.84  47.37        5.1  2.00000 
 669.000  26182.5     8.62    -0.80   1.17      3054    1813       7      1.00    18.50  45.50        8.4  2.10000 
 669.100  26121.5    10.01    -5.13   3.55      3044    1816       8      1.00    17.00  48.50        7.6  1.90000 
 669.200  26046.2     6.22     4.95  -0.89      3042    1811       7      0.95    20.48  43.81        7.7  2.00000 
 669.300  26006.3    27.49   -15.65   0.22      3013    1805      -1      2.11    16.84  38.42        5.2  2.00000 
 669.400  26056.0     2.07    -0.81   3.04      2992    1816       7      0.50    16.50  48.50       11.9  1.90000 
 669.500  25965.5    17.36    -8.18   0.98      3100    1808       3      1.50    17.50  42.50       13.3  2.00000 
 669.600  25932.6    10.31    -3.22   5.22      2912    1821      14      1.05    18.42  53.16       12.0  2.00000 
 669.700  26206.0     0.26     4.86   0.12      3075    1809       6      0.50    18.50  45.00        3.1  2.00000 
 669.800  25861.0    -5.38     1.11   0.29      3086    1804      -1      0.00    14.50  42.50        3.7  1.90000 
 669.900  26149.0     5.92     8.12  -1.57      2939    1819       9      1.00    22.00  44.00        7.5  1.80000 
 670.000  25896.3     2.28    -1.25  -0.34      3056    1808      -1      0.53    15.79  41.05       10.9  1.79000 
 670.100  26096.1     8.00     6.09  -1.27      3022    1815       8      1.11    21.67  43.89        9.2  1.81000 
 670.200  25948.8    16.98     5.06  -2.09      3104    1806      11      1.76    24.12  42.94        7.8  1.80000 
 670.300  25794.7    -0.26     6.57  -5.06      3020    1816      -5      0.53    18.42  34.74        7.3  1.80000 
 670.400  26230.6    16.16     2.71  -4.12      3017    1813       3      1.67    22.22  37.22        7.3  1.90000 
 670.500  26181.7     1.69     3.00   2.29      3031    1813      10      0.56    18.33  48.89        5.0  1.80000 
 670.600  26277.9     4.11    -6.60   4.05      3172    1810       4      0.53    14.21  47.89        7.8  1.80000 
 670.700  25940.0    13.13   -10.89   3.91      3031    1805       5      1.11    15.00  46.67       13.0  1.70000 
 670.800  26140.0    -5.35     1.99   3.83      2943    1816       8      0.00    15.56  50.56        4.4  1.80000 
 670.900  26006.5    11.90    -3.75   2.39      3077    1808       8      1.18    18.24  47.06        3.2  1.80000 
 671.000  26374.4    10.59    -2.46   1.46      3104    1808       7      1.11    18.33  45.56        8.9  1.90000 
 671.100  25960.0    18.72    -4.77   1.98      2997    1814      10      1.67    20.00  46.67       13.4  1.90000 
 671.200  26187.9    -8.81    12.47  -3.22      3004    1810       1      0.00    18.95  40.53       11.1  2.00000 
 671.300  26236.3    -7.11     7.86   2.23      3051    1812      10      0.00    17.89  50.00        8.5  2.16000 
 671.400  25949.0    -9.80    15.97  -3.34      3027    1805       4      0.00    20.50  42.00        4.9  1.94000 
 671.500  26001.9    -0.98     7.44  -2.55      2932    1811       2      0.48    19.05  40.48        6.2  2.00000 
 671.600  26132.5    23.56    -7.42  -2.69      3088    1813      -1      2.00    19.50  36.00        6.8  2.10000 
 671.700  25911.5     6.30     6.41  -2.81      2902    1816       4      1.00    21.00  40.50       12.3  2.00000 
 671.800  26120.5     7.58    -0.09  -1.51      2970    1819       1      0.95    18.10  40.00        4.6  1.90000 
 671.900  26026.0    18.53   -11.60   3.85      2969    1818       7      1.50    16.50  47.00       11.1  2.00000 
 672.000  26035.3    19.32   -11.04   2.35      3013    1809       4      1.58    16.84  44.21       11.2  2.00000 
 672.100  26045.5    -9.02    13.41  -2.52      3045    1808       4      0.00    19.50  42.50       12.9  1.90000 
 672.200  26042.0    10.74    -7.59   4.11      2999    1810       7      1.00    16.00  48.50       10.8  1.90000 
 672.300  26064.2    55.50   -38.42   6.85      3026    1808       5      3.68    15.26  44.74        7.5  1.90000 
 672.400  26002.6     2.07     0.60   3.63      2937    1815      10      0.53    17.37  50.53        7.4  1.80000 
 672.500  25998.9     2.63    -1.54   3.14      2990    1814       7      0.53    16.32  48.42       13.4  1.80000 
 672.600  26172.2    11.13    -4.60   0.66      2989    1808       3      1.11    17.22  42.78        6.9  1.80000 
 672.700  26201.1    -4.54    -0.75   4.45      3032    1803       7      0.00    14.44  50.56       10.5  1.80000 
 672.800  25747.2    10.45    -2.64  -1.07      3013    1803       1      1.11    17.78  40.00       12.6  1.70000 
 672.900  26136.7    31.78   -24.13   4.84      2941    1818       3      2.22    14.44  44.44       14.7  1.90000 
 673.000  25860.0    -1.24    14.23  -0.88      3086    1804      13      0.59    22.94  47.65       15.8  1.80000 
 673.100  26118.4    22.36     2.41  -0.98      3068    1806      13      2.11    24.74  44.74       13.4  1.80000 
 673.200  25884.4    -0.83    10.90  -1.83      2978    1818       7      0.56    21.11  43.89        5.1  1.90000 
 673.300  26218.3    -7.70     8.05  -4.78      3090    1799      -7      0.00    16.67  35.00        0.7  1.80000 
 673.400  26303.2    21.15   -16.38   6.75      2900    1822      10      1.58    15.26  51.05       -0.0  1.80000 
 673.500  26083.3    20.41   -10.89   1.83      2971    1803       4      1.67    17.22  43.33       -0.0  1.90000 
 673.600  26052.8    17.23    -0.08  -0.38      2953    1817       9      1.67    21.67  43.89        5.2  2.00000 
 673.700  26061.6     3.71    -4.80   5.35      3009    1812       9      0.53    15.26  51.58        2.4  2.10000 
 673.800  26085.0    -2.47    13.41  -4.39      2965    1814       3      0.50    21.50  39.50        7.2  2.00000 
 673.900  26116.7    31.00   -14.44   2.18      3006    1813       7      2.38    19.05  43.81        5.1  2.17000 
 674.000  26054.0    -0.56     7.53  -0.96      3035    1809       6      0.50    19.50  44.00        2.9  1.93000 
 674.100  26160.0     5.89     5.66  -2.60      2975    1815       4      0.95    20.48  40.48        7.5  2.00000 
 674.200  26104.5    17.52    -7.64   5.04      3054    1813      13      1.50    18.50  51.50       11.4  2.00000 
 674.300  26153.0    16.55    -5.98  -1.61      3143    1807      -1      1.50    18.00  38.00        3.9  2.00000 
 674.400  26106.0    -9.93    17.15  -0.82      3043    1807      11      0.00    21.50  48.00        5.3  1.90000 
 674.500  26038.0    24.11    -8.60   0.14      3068    1810       5      2.00    19.50  41.50       11.8  2.00000 
 674.600  26183.7    -9.56    15.96  -0.36      3028    1814      11      0.00    21.05  48.42       15.1  1.90000 
 674.700  26088.0    11.15    -8.93   4.65      3075    1810       7      1.00    15.50  49.00        9.6  1.90000 
 674.800  26162.1    13.92   -15.21   8.70      3029    1810      11      1.05    13.68  54.74        6.4  1.80000 
 674.900  26138.9     2.95    -2.21   4.76      3023    1813      10      0.53    16.32  51.58        5.1  1.80000 
 675.000  26098.3    -2.26    15.47  -3.91      3060    1813       7      0.56    22.78  41.67        1.4  1.80000 
 675.100  25983.9    18.76    -4.36   3.95      2957    1815      15      1.67    20.56  51.11       -0.0  1.80000 
