~Version Information
 VERS.                2.0:  CWLS LOG ASCII STANDARD -VERSION 2.0
 WRAP.                 NO:  ONE LINE PER DEPTH STEP
~WELL INFORMATION BLOCK
#MNEM.UNIT       DATA		            DESCRIPTION OF MNEMONIC
#---------    -------------            ------------------------
 STRT.FT  41.500                         :START DEPTH
 STOP.FT  1871.500                       :STOP DEPTH
 STEP.FT  0.100                          :STEP    UP_HOLE  
 NULL.    0                              :NULL VALUE
 COMP.                            USGS   :COMPANY
 WELL.                      MCWD-DMW #1  :WELL
 FLD .                           Marina  :FIELD
 LOC .    None  None  None               :LOCATION
 CNTY.                         Monterey  :COUNTY
 STAT.             California            :STATE
 SRVC.    Western Reg                    :SERVICE COMPANY
 DATE.   05/27/00                        :LOG DATE
 UWI .                       	         :UNIQUE WELL ID
 LIC .                                   :LICENSE NUMBER
~Curve Information Block
#MNEM.UNIT      API CODE     Curve Description
#---------    -------------  ------------------------
 DEPT     .FT        00 001 00 00          :  1  DEPTH   
 GAM(NAT) .API-GR    00 310 00 00          :  2             GAM(NAT)
 COND     .MMHO/M    00 000 00 00          :  3                 COND
 RES      .OHM-M     00 000 00 00          :  4                  RES
 TEMP     .DEG F     00 660 00 00          :  5                 TEMP
 AP-COND  .MMHO/M    00 000 00 00          :  6              AP-COND
 TEMP     .CPS       00 660 00 00          :  7                 TEMP
 AP-COND  .CPS       00 000 00 00          :  8              AP-COND
 TENSION  .POUNDS    00 000 00 00          :  9              TENSION
 TIME     .MINUTES   00 000 00 00          : 10                 TIME
~Parameter Information Block
#MNEM.UNIT   Information     Description
#---------- ---------------  ------------------------
~Other Information
#MNEM.UNIT  Information      Description
#---------- ---------------  ------------------------
 FILE.      ORIGINAL           File Type
 FIID.      9511A              File Type Identifier
 VERS.      1.0                System Version
 SER .      1                  System Serial Number
 TRUK.      0.5                Truck Calibration Number
 TOOL.         770             Tool Serial Number
 TIME.      05:18:             Time
 LAT .          None           Latitude
 LON .          None           Longitude
 LMF .           LSD           Log Measured From
 DMF .           LSD           Driller Measured From
 PD  .          None           Permanent Data
 PDEV.          None           Elevation Permanent Data
 EKB .M         None           Elevation Kelly Bushing
 ELEV.DF        None           Elevation DF
 EGL .M         None           Elevation Ground Level
 DRDP.         1990'           Driller's Depth
 CASD.         0               Casing Diameter
 CASB.          None           Casing Bottom
 CASX.          None           Casing Type
 CAST.         0               Casing Thickness
 TNOC.          None           Time Circulation Stopped
 LOGU.       WRRD              Logging Unit
 RECB.           Everett       Recorded By
 OSR1.       Pimente           Other Services
 OSR2.       mud vis           Other Services
 OSR3.           =62           Other Services
 BS  .MM           6           Bit Size
 MST .                         Mean Surface Temperature
 TGRD.        0                Temperature Gradiant
 MAGN.             0           Magnetic Declination
 MDEN.      2.71               Density Matrix
 MATR.       Dolomite          Neutron Matrix
 DTMT.            54           Delta T Matrix
 DTFL.                         Delta T Fluid
 MUDS.               0         Mud Sample Source
 MRS .           0             Mud Resistivity
 MTP .           0             Mud Temperature
 MFRS.                         Resistivity Mud Filtrate
 MFTP.                         Temperature Mud Filtrate
 MCRS.         0               Resistivity Mud Cake
 MCTP.                         Temperature Mud Cake
 FTYP.             0           Fluid Type
 FD  .K/M3                     Fluid Density
 DFV .S                        Fluid Viscosity
 FPH .                         Fuild PH
 ELCO.        2500             Electron Cutoff
# -------------------------- 
~A DEPTH  GAM(NAT) COND     RES      TEMP  AP-COND  TEMP  AP-COND  TENSION  TIME    
# ...
1256.000     45.6    162.6      6.1  91.7    146.2  29135.0 72190.0      1.7  0.20000 
1256.100     55.7    161.9      6.2  91.6    145.6  29130.0 72115.0      2.0  0.20000 
1256.200     50.6    161.4      6.2  91.6    145.2  29130.0 72065.0      1.9  0.20000 
1256.300     55.7    158.1      6.3  91.7    142.2  29135.0 71715.0      2.2  0.10000 
1256.400     45.6    158.2      6.3  91.7    142.3  29135.0 71725.0      0.8  0.20000 
1256.500     20.3    157.4      6.4  91.6    141.6  29130.0 71640.0      0.8  0.20000 
1256.600     55.7    157.1      6.4  91.7    141.3  29135.0 71610.0      0.8  0.20000 
1256.700     50.6    156.8      6.4  91.7    141.1  29135.0 71580.0      0.8  0.20000 
1256.800     45.6    154.6      6.5  91.7    139.1  29135.0 71345.0      0.6  0.10000 
1256.900     25.3    152.9      6.5  91.7    137.7  29135.0 71175.0      0.7  0.20000 
1257.000     30.4    150.9      6.6  91.8    135.9  29140.0 70960.0      0.7  0.20000 
1257.100     25.3    150.6      6.6  91.6    135.6  29130.0 70930.0      0.7  0.20000 
1257.200     20.3    147.4      6.8  91.6    132.8  29130.0 70600.0      0.7  0.20000 
1257.300     81.0    146.2      6.8  91.6    131.8  29130.0 70470.0      0.4  0.20000 
1257.400     65.8    146.3      6.8  91.6    131.9  29130.0 70485.0      0.0  0.20000 
1257.500     40.5    144.3      6.9  91.7    130.0  29135.0 70265.0      0.0  0.10000 
1257.600     45.6    145.3      6.9  91.7    131.0  29135.0 70375.0      0.0  0.20000 
1257.700     20.3    145.8      6.9  91.8    131.4  29140.0 70430.0      0.0  0.20000 
1257.800     50.6    147.1      6.8  91.7    132.6  29135.0 70565.0      0.0  0.20000 
1257.900     60.8    149.6      6.7  91.6    134.7  29130.0 70825.0      0.1  0.20000 
1258.000     60.8    151.1      6.6  91.7    136.1  29135.0 70985.0      0.1  0.10000 
1258.100     50.6    154.0      6.5  91.7    138.6  29135.0 71285.0      0.1  0.20000 
1258.200     45.6    157.3      6.4  91.8    141.5  29140.0 71630.0      0.1  0.20000 
1258.300     40.5    159.5      6.3  91.7    143.4  29135.0 71860.0      0.1  0.20000 
1258.400     35.4    161.6      6.2  91.7    145.3  29135.0 72080.0      0.1  0.20000 
1258.500     45.6    165.4      6.0  91.7    148.6  29135.0 72475.0      0.0  0.20000 
1258.600     70.9    170.6      5.9  91.7    153.2  29135.0 73020.0      0.0  0.20000 
1258.700     91.1    177.6      5.6  91.7    159.3  29135.0 73750.0      0.0  0.20000 
1258.800     50.6    180.9      5.5  91.7    162.3  29135.0 74100.0      0.0  0.20000 
1258.900     55.7    185.9      5.4  91.7    166.6  29135.0 74615.0      0.0  0.20000 
1259.000     50.6    191.7      5.2  91.7    171.7  29135.0 75220.0      0.0  0.10000 
1259.100     60.8    195.1      5.1  91.7    174.6  29135.0 75570.0      0.0  0.20000 
1259.200     40.5    198.4      5.0  91.8    177.6  29140.0 75920.0      0.0  0.20000 
1259.300     65.8    201.9      5.0  91.7    180.6  29135.0 76280.0      0.0  0.20000 
1259.400     30.4    207.3      4.8  91.7    185.3  29135.0 76845.0      0.0  0.10000 
1259.500     50.6    211.3      4.7  91.7    188.8  29135.0 77255.0      0.5  0.20000 
1259.600     70.9    211.9      4.7  91.8    189.3  29140.0 77320.0      0.5  0.20000 
1259.700     55.7    215.9      4.6  91.6    192.8  29130.0 77740.0      0.5  0.20000 
1259.800     50.6    221.1      4.5  91.7    197.4  29135.0 78280.0      0.5  0.20000 
1259.900     60.8    223.6      4.5  91.8    199.5  29140.0 78535.0      0.5  0.20000 
1260.000     60.8    225.5      4.4  91.7    201.2  29135.0 78730.0      0.0  0.10000 
1260.100     55.7    227.5      4.4  91.7    203.0  29135.0 78945.0      0.0  0.20000 
1260.200     50.6    231.8      4.3  91.8    206.7  29140.0 79390.0      0.0  0.20000 
1260.300     65.8    231.4      4.3  91.7    206.3  29135.0 79345.0      0.0  0.20000 
1260.400     40.5    231.0      4.3  91.8    206.0  29140.0 79300.0      0.0  0.20000 
1260.500     65.8    232.4      4.3  91.7    207.2  29135.0 79445.0      0.0  0.20000 
1260.600     45.6    231.7      4.3  91.7    206.6  29135.0 79380.0      0.0  0.20000 
1260.700     81.0    231.9      4.3  91.8    206.8  29140.0 79400.0      0.3  0.10000 
1260.800     60.8    235.2      4.3  91.7    209.6  29135.0 79735.0      0.3  0.20000 
1260.900     81.0    233.3      4.3  91.8    208.0  29140.0 79540.0      0.3  0.20000 
1261.000     50.6    232.3      4.3  91.6    207.1  29130.0 79435.0      0.3  0.20000 
1261.100     60.8    232.5      4.3  91.8    207.3  29140.0 79460.0      0.5  0.20000 
1261.200     65.8    229.1      4.4  91.7    204.4  29135.0 79110.0      0.2  0.20000 
1261.300     70.9    229.1      4.4  91.8    204.3  29140.0 79105.0      0.2  0.20000 
1261.400     55.7    227.1      4.4  91.7    202.6  29135.0 78895.0      0.2  0.10000 
1261.500     75.9    231.8      4.3  91.7    206.7  29135.0 79385.0      0.2  0.20000 
1261.600     55.7    233.5      4.3  91.6    208.1  29130.0 79560.0      0.0  0.20000 
1261.700     70.9    238.3      4.2  91.8    212.3  29140.0 80055.0      0.5  0.20000 
1261.800     40.5    240.0      4.2  91.7    213.9  29135.0 80240.0      0.5  0.20000 
1261.900     60.8    240.0      4.2  91.8    213.8  29140.0 80235.0      0.7  0.20000 
1262.000     45.6    241.9      4.1  91.6    215.4  29130.0 80430.0      0.7  0.30000 
1262.100     50.6    241.6      4.1  91.8    215.3  29140.0 80405.0      1.3  0.20000 
1262.200     91.1    241.0      4.1  91.7    214.7  29136.7 80343.3      0.8  0.10000 
1262.300     70.9    241.6      4.1  91.8    215.3  29140.0 80405.0      0.9  0.20000 
1262.400     65.8    241.6      4.1  91.6    215.2  29130.0 80400.0      1.5  0.20000 
1262.500     55.7    243.6      4.1  91.7    216.9  29135.0 80605.0      1.5  0.10000 
1262.600    106.3    244.2      4.1  91.8    217.5  29140.0 80675.0      1.3  0.20000 
1262.700     10.1    243.0      4.1  91.6    216.5  29130.0 80550.0      1.3  0.20000 
1262.800     30.4    242.0      4.1  91.7    215.5  29135.0 80440.0      1.2  0.20000 
1262.900     50.6    236.9      4.2  91.8    211.1  29140.0 79915.0      1.3  0.10000 
1263.000     45.6    236.7      4.2  91.7    210.9  29135.0 79890.0      1.7  0.20000 
1263.100     86.1    236.4      4.2  91.8    210.7  29140.0 79860.0      1.7  0.20000 
1263.200     30.4    234.7      4.3  91.8    209.2  29140.0 79690.0      1.3  0.20000 
1263.300     45.6    228.7      4.4  91.8    204.0  29140.0 79065.0      2.0  0.10000 
1263.400     45.6    222.3      4.5  91.7    198.4  29135.0 78405.0      1.7  0.20000 
1263.500     55.7    218.2      4.6  91.8    194.8  29140.0 77970.0      1.7  0.22000 
1263.600     65.8    208.9      4.8  91.8    186.7  29140.0 77010.0      0.7  0.22000 
1263.700     15.2    199.3      5.0  91.8    178.4  29140.0 76015.0      0.7  0.11000 
1263.800     45.6    195.2      5.1  91.7    174.8  29135.0 75590.0      0.4  0.22000 
1263.900     91.1    191.3      5.2  91.8    171.3  29140.0 75180.0      0.4  0.22000 
1264.000     35.4    182.6      5.5  91.8    163.7  29140.0 74270.0      0.7  0.11000 
1264.100     65.8    174.3      5.7  91.8    156.5  29140.0 73410.0      1.0  0.20000 
1264.200     40.5    167.6      6.0  91.8    150.5  29140.0 72705.0      1.2  0.10000 
1264.300     60.8    162.1      6.2  91.6    145.7  29130.0 72135.0      1.2  0.20000 
1264.400     40.5    154.9      6.5  91.8    139.4  29140.0 71380.0      0.8  0.20000 
1264.500     50.6    149.0      6.7  91.8    134.2  29140.0 70760.0      0.8  0.20000 
1264.600     30.4    140.2      7.1  91.8    126.5  29140.0 69840.0      0.5  0.10000 
1264.700     40.5    134.0      7.5  91.8    121.0  29140.0 69190.0      0.2  0.20000 
1264.800     35.4    126.9      7.9  91.8    114.7  29140.0 68440.0      0.0  0.20000 
1264.900     30.4    122.1      8.2  91.7    110.5  29135.0 67935.0      0.3  0.20000 
1265.000     40.5    115.6      8.7  91.7    104.7  29135.0 67250.0      0.3  0.10000 
1265.100     20.3     98.0     10.2  91.8     89.2  29140.0 65400.0      1.2  0.20000 
