~Version Information
 VERS.                2.0:  CWLS LOG ASCII STANDARD -VERSION 2.0
 WRAP.                 NO:  ONE LINE PER DEPTH STEP
~WELL INFORMATION BLOCK
#MNEM.UNIT       DATA		            DESCRIPTION OF MNEMONIC
#---------    -------------            ------------------------
 STRT.FT  5.300                          :START DEPTH
 STOP.FT  1874.500                       :STOP DEPTH
 STEP.FT  0.100                          :STEP    UP_HOLE  
 NULL.    0                              :NULL VALUE
 COMP.                            USGS   :COMPANY
 WELL.                      MCWD-DMW #1  :WELL
 FLD .                           Marina  :FIELD
 LOC .    None  None  None               :LOCATION
 CNTY.                         Monterey  :COUNTY
 STAT.             California            :STATE
 SRVC.    Western Reg                    :SERVICE COMPANY
 DATE.   05/27/00                        :LOG DATE
 UWI .                       	         :UNIQUE WELL ID
 LIC .                                   :LICENSE NUMBER
~Curve Information Block
#MNEM.UNIT      API CODE     Curve Description
#---------    -------------  ------------------------
 DEPT     .FT        00 001 00 00          :  1  DEPTH   
 CALIPER  .INCH      00 280 00 00          :  2              CALIPER
 TENSION  .POUNDS    00 000 00 00          :  3              TENSION
 TIME     .MINUTES   00 000 00 00          :  4                 TIME
~Parameter Information Block
#MNEM.UNIT   Information     Description
#---------- ---------------  ------------------------
~Other Information
#MNEM.UNIT  Information      Description
#---------- ---------------  ------------------------
 FILE.      ORIGINAL           File Type
 FIID.      9065A              File Type Identifier
 VERS.      1.0                System Version
 SER .      1                  System Serial Number
 TRUK.      0.5                Truck Calibration Number
 TOOL.         573             Tool Serial Number
 TIME.      03:05:             Time
 LAT .          None           Latitude
 LON .          None           Longitude
 LMF .           LSD           Log Measured From
 DMF .           LSD           Driller Measured From
 PD  .          None           Permanent Data
 PDEV.          None           Elevation Permanent Data
 EKB .M         None           Elevation Kelly Bushing
 ELEV.DF        None           Elevation DF
 EGL .M         None           Elevation Ground Level
 DRDP.         1990'           Driller's Depth
 CASD.         0               Casing Diameter
 CASB.          None           Casing Bottom
 CASX.          None           Casing Type
 CAST.         0               Casing Thickness
 TNOC.          None           Time Circulation Stopped
 LOGU.       WRRD              Logging Unit
 RECB.           Everett       Recorded By
 OSR1.       Pimente           Other Services
 OSR2.       mud vis           Other Services
 OSR3.           =62           Other Services
 BS  .MM           6           Bit Size
 MST .                         Mean Surface Temperature
 TGRD.        0                Temperature Gradiant
 MAGN.             0           Magnetic Declination
 MDEN.      2.71               Density Matrix
 MATR.       Dolomite          Neutron Matrix
 DTMT.            54           Delta T Matrix
 DTFL.                         Delta T Fluid
 MUDS.               0         Mud Sample Source
 MRS .           0             Mud Resistivity
 MTP .           0             Mud Temperature
 MFRS.                         Resistivity Mud Filtrate
 MFTP.                         Temperature Mud Filtrate
 MCRS.         0               Resistivity Mud Cake
 MCTP.                         Temperature Mud Cake
 FTYP.             0           Fluid Type
 FD  .K/M3                     Fluid Density
 DFV .S                        Fluid Viscosity
 FPH .                         Fuild PH
 ELCO.        2500             Electron Cutoff
# -------------------------- 
~A DEPTH  CALIPER TENSION  TIME    
   5.300   0.0        0.5  1.96000 
   5.400   9.7        0.3  0.48000 
   5.500   9.7        0.0  0.53000 
   5.600   9.7        0.0  0.50000 
   5.700   9.7        1.3  0.55000 
   5.800   9.7        1.4  0.44000 
   5.900   9.7        0.8  0.51000 
   6.000   9.7        0.7  0.50000 
   6.100   9.7        0.6  0.43000 
   6.200   9.7        1.4  0.47000 
   6.300   9.7        4.1  0.24000 
   6.400   9.7        3.3  0.23000 
   6.500   9.7        3.5  0.22000 
   6.600   9.7        2.3  0.11000 
   6.700   9.7        2.6  0.20000 
   6.800   9.7        3.2  0.20000 
   6.900   9.7        3.2  0.20000 
   7.000   9.7        3.4  0.11000 
   7.100   9.7        2.4  0.22000 
   7.200   9.7        2.1  0.22000 
   7.300   9.7        2.1  0.22000 
   7.400   9.7        2.0  0.22000 
   7.500   9.7        2.0  0.00000 
   7.600   9.7        0.5  0.21000 
   7.700   9.7        0.5  0.20000 
   7.800   9.7        0.5  0.20000 
   7.900   9.7        0.5  0.20000 
   8.000   9.7        0.0  0.20000 
   8.100   9.7        0.0  0.21000 
   8.200   9.7        0.0  0.11000 
   8.300   9.7        0.0  0.22000 
   8.400   9.7        0.3  0.22000 
   8.500   9.7        0.3  0.22000 
   8.600   9.7        0.3  0.11000 
   8.700   9.7        0.3  0.11000 
   8.800   9.7        0.3  0.22000 
   8.900   9.7        0.7  0.22000 
   9.000   9.7        0.7  0.22000 
   9.100   9.7        0.9  0.22000 
   9.200   9.7        1.2  0.11000 
   9.300   9.7        1.2  0.11000 
   9.400   9.7        1.2  0.22000 
   9.500   9.7        1.0  0.22000 
   9.600   9.7        1.0  0.22000 
   9.700   9.7        1.0  0.22000 
   9.800   9.7        0.7  0.11000 
   9.900   9.7        1.1  0.11000 
  10.000   9.7        1.1  0.20000 
  10.100   9.7        1.6  0.20000 
  10.200   9.7        1.6  0.20000 
  10.300   9.7        2.4  0.20000 
  10.400   9.7        2.4  0.20000 
  10.500   9.7        2.0  0.10000 
  10.600   9.7        2.0  0.20000 
  10.700   9.7        1.9  0.20000 
  10.800   9.7        1.9  0.20000 
  10.900   9.7        1.0  0.20000 
  11.000   9.7        1.0  0.21000 
  11.100   9.7        1.0  0.11000 
  11.200   9.7        1.3  0.22000 
  11.300   9.7        0.7  0.22000 
  11.400   9.7        0.7  0.22000 
  11.500   9.7        1.0  0.11000 
  11.600   9.7        1.4  0.11000 
  11.700   9.7        1.6  0.20000 
  11.800   9.7        1.6  0.20000 
  11.900   9.7        1.6  0.20000 
  12.000   9.7        2.6  0.20000 
  12.100   9.7        1.9  0.10000 
  12.200   9.7        1.5  0.21000 
  12.300   9.7        1.0  0.22000 
  12.400   9.7        1.0  0.22000 
  12.500   9.7        0.0  0.22000 
  12.600   9.7        0.0  0.22000 
  12.700   9.7        0.0  0.00000 
  12.800   9.7        0.3  0.21000 
  12.900   9.7        0.3  0.20000 
  13.000   9.7        0.3  0.20000 
  13.100   9.7        0.3  0.20000 
  13.200   9.7        0.3  0.20000 
  13.300   9.7        0.3  0.10000 
  13.400   9.7        0.6  0.22000 
  13.500   9.7        0.6  0.22000 
  13.600   9.7        1.9  0.22000 
  13.700   9.7        1.9  0.22000 
  13.800   9.7        2.5  0.11000 
  13.900   9.7        2.5  0.11000 
  14.000   9.7        2.5  0.20000 
  14.100   9.7        2.5  0.20000 
  14.200   9.7        1.2  0.20000 
  14.300   9.7        1.4  0.10000 
  14.400   9.7        0.8  0.20000 
  14.500   9.7        0.9  0.21000 
  14.600   9.7        0.3  0.22000 
  14.700   9.7        0.8  0.22000 
  14.800   9.7        0.8  0.22000 
  14.900   9.7        0.9  0.11000 
  15.000   9.7        1.6  0.11000 
  15.100   9.7        1.6  0.21000 
  15.200   9.7        1.5  0.20000 
  15.300   9.7        1.5  0.20000 
  15.400   9.7        1.5  0.20000 
  15.500   9.7        1.2  0.10000 
  15.600   9.7        0.4  0.20000 
  15.700   9.7        0.6  0.20000 
  15.800   9.7        0.2  0.20000 
  15.900   9.7        0.2  0.20000 
  16.000   9.7        0.2  0.20000 
  16.100   9.7        0.2  0.10000 
  16.200   9.7        0.0  0.20000 
  16.300   9.7        0.0  0.20000 
  16.400   9.7        0.0  0.20000 
  16.500   9.7        0.0  0.20000 
  16.600   9.7        0.0  0.20000 
  16.700   9.7        0.0  0.10000 
  16.800   9.7        0.0  0.20000 
  16.900   9.7        0.2  0.20000 
  17.000   9.7        0.2  0.20000 
  17.100   9.7        0.2  0.20000 
  17.200   9.7        0.2  0.20000 
  17.300   9.7        0.2  0.10000 
  17.400   9.7        0.0  0.20000 
  17.500   9.7        0.0  0.20000 
  17.600   9.7        0.0  0.20000 
  17.700   9.7        0.0  0.20000 
  17.800   9.7        0.0  0.10000 
  17.900   9.7        0.0  0.20000 
  18.000   9.7        0.0  0.20000 
  18.100   9.7        0.0  0.20000 
  18.200   9.7        0.1  0.20000 
  18.300   9.7        0.1  0.20000 
  18.400   9.7        0.5  0.10000 
  18.500   9.7        0.9  0.20000 
  18.600   9.7        0.9  0.20000 
  18.700   9.7        0.9  0.20000 
  18.800   9.7        0.8  0.20000 
  18.900   9.6        0.4  0.20000 
  19.000   9.6        0.4  0.10000 
  19.100   9.6        0.0  0.20000 
  19.200   9.6        0.0  0.20000 
  19.300   9.6        0.0  0.20000 
  19.400   9.6        0.0  0.20000 
  19.500   9.6        0.0  0.22000 
  19.600   9.6        0.0  0.11000 
  19.700   9.6        0.0  0.22000 
  19.800   9.6        0.0  0.22000 
  19.900   9.6        0.0  0.22000 
  20.000   9.6        0.0  0.11000 
  20.100   9.6        0.0  0.10000 
  20.200   9.6        0.0  0.20000 
  20.300   9.6        0.0  0.20000 
  20.400   9.6        0.0  0.20000 
  20.500   9.6        0.0  0.20000 
  20.600   9.6        0.0  0.21000 
  20.700   9.6        0.0  0.22000 
  20.800   9.6        0.0  0.11000 
  20.900   9.6        0.0  0.22000 
  21.000   9.6        0.0  0.22000 
  21.100   9.6        0.0  0.11000 
  21.200   9.6        0.0  0.21000 
  21.300   9.6        0.0  0.20000 
  21.400   9.6        0.0  0.10000 
  21.500   9.6        0.0  0.20000 
  21.600   9.6        0.0  0.20000 
  21.700   9.6        0.0  0.20000 
  21.800   9.6        0.0  0.22000 
  21.900   9.6        0.0  0.22000 
  22.000   9.6        0.0  0.11000 
  22.100   9.6        0.0  0.22000 
  22.200   9.6        0.0  0.22000 
  22.300   9.6        0.0  0.11000 
  22.400   9.6        0.0  0.20000 
  22.500   9.6        0.0  0.20000 
  22.600   9.6        0.0  0.10000 
  22.700   9.6        0.2  0.20000 
  22.800   9.6        0.9  0.20000 
  22.900   9.6        0.9  0.21000 
  23.000   9.6        0.9  0.22000 
  23.100   9.6        0.9  0.22000 
  23.200   9.6        0.9  0.11000 
  23.300   9.6        0.9  0.22000 
  23.400   9.6        0.3  0.11000 
  23.500   9.6        0.4  0.21000 
  23.600   9.6        0.4  0.20000 
  23.700   9.6        0.8  0.20000 
  23.800   9.7        0.6  0.10000 
  23.900   9.7        1.3  0.20000 
  24.000   9.7        1.2  0.20000 
  24.100   9.7        1.1  0.21000 
  24.200   9.7        1.1  0.22000 
  24.300   9.7        1.1  0.22000 
  24.400   9.7        1.0  0.11000 
  24.500   9.7        1.0  0.22000 
  24.600   9.7        1.0  0.11000 
  24.700   9.7        1.0  0.21000 
  24.800   9.7        1.0  0.20000 
  24.900   9.7        1.4  0.20000 
  25.000   9.7        0.8  0.20000 
  25.100   9.7        1.5  0.10000 
  25.200   9.7        1.6  0.20000 
  25.300   9.7        1.9  0.21000 
  25.400   9.7        1.9  0.22000 
  25.500   9.7        1.9  0.22000 
  25.600   9.7        1.2  0.22000 
  25.700   9.7        1.4  0.22000 
  25.800   9.7        1.4  0.11000 
  25.900   9.7        2.3  0.10000 
  26.000   9.7        2.0  0.20000 
  26.100   9.7        2.0  0.20000 
  26.200   9.7        2.0  0.20000 
  26.300   9.7        1.7  0.20000 
  26.400   9.7        2.1  0.20000 
  26.500   9.7        1.7  0.22000 
  26.600   9.7        1.2  0.22000 
  26.700   9.7        1.3  0.11000 
  26.800   9.7        1.3  0.22000 
  26.900   9.7        1.4  0.22000 
  27.000   9.7        1.4  0.11000 
  27.100   9.7        0.6  0.20000 
  27.200   9.7        0.5  0.20000 
  27.300   9.7        0.5  0.20000 
  27.400   9.7        0.5  0.20000 
  27.500   9.7        0.2  0.10000 
