~Version Information
 VERS.                2.0:  CWLS LOG ASCII STANDARD -VERSION 2.0
 WRAP.                 NO:  ONE LINE PER DEPTH STEP
~WELL INFORMATION BLOCK
#MNEM.UNIT       DATA		            DESCRIPTION OF MNEMONIC
#---------    -------------            ------------------------
 STRT.FT  1.400                          :START DEPTH
 STOP.FT  1872.000                       :STOP DEPTH
 STEP.FT  0.100                          :STEP    UP_HOLE  
 NULL.    0                              :NULL VALUE
 COMP.                            USGS   :COMPANY
 WELL.                      MCWD-DMW #1  :WELL
 FLD .                           Marina  :FIELD
 LOC .    None  None  None               :LOCATION
 CNTY.                         Monterey  :COUNTY
 STAT.             California            :STATE
 SRVC.    Western Reg                    :SERVICE COMPANY
 DATE.   05/27/00                        :LOG DATE
 UWI .                       	         :UNIQUE WELL ID
 LIC .                                   :LICENSE NUMBER
~Curve Information Block
#MNEM.UNIT      API CODE     Curve Description
#---------    -------------  ------------------------
 DEPT     .FT        00 001 00 00          :  1  DEPTH   
 TIME(N)  .USEC      00 000 00 00          :  2              TIME(N)
 TIME(F)  .USEC      00 000 00 00          :  3              TIME(F)
 DELTAT   .USEC/FT   00 522 00 00          :  4               DELTAT
 AMP(N)   .MV        00 000 00 00          :  5               AMP(N)
 AMP(F)   .MV        00 000 00 00          :  6               AMP(F)
 XTR PWR  .PERCENT   00 000 00 00          :  7              XTR PWR
 POR(SON) .PERCENT   00 890 00 00          :  8             POR(SON)
 BHC-DELT .USEC/FT   00 520 00 00          :  9             BHC-DELT
 TENSION  .POUNDS    00 000 00 00          : 10              TENSION
 TIME     .MINUTES   00 000 00 00          : 11                 TIME
~Parameter Information Block
#MNEM.UNIT   Information     Description
#---------- ---------------  ------------------------
~Other Information
#MNEM.UNIT  Information      Description
#---------- ---------------  ------------------------
 FILE.      ORIGINAL           File Type
 FIID.      9300A              File Type Identifier
 VERS.      1.0                System Version
 SER .      1                  System Serial Number
 TRUK.      0.5                Truck Calibration Number
 TOOL.         691             Tool Serial Number
 TIME.      07:18:             Time
 LAT .          None           Latitude
 LON .          None           Longitude
 LMF .           LSD           Log Measured From
 DMF .           LSD           Driller Measured From
 PD  .          None           Permanent Data
 PDEV.          None           Elevation Permanent Data
 EKB .M         None           Elevation Kelly Bushing
 ELEV.DF        None           Elevation DF
 EGL .M         None           Elevation Ground Level
 DRDP.         1990'           Driller's Depth
 CASD.         0               Casing Diameter
 CASB.          None           Casing Bottom
 CASX.          None           Casing Type
 CAST.         0               Casing Thickness
 TNOC.          None           Time Circulation Stopped
 LOGU.       WRRD              Logging Unit
 RECB.           Everett       Recorded By
 OSR1.       Pimente           Other Services
 OSR2.       mud vis           Other Services
 OSR3.           =62           Other Services
 BS  .MM           6           Bit Size
 MST .                         Mean Surface Temperature
 TGRD.        0                Temperature Gradiant
 MAGN.             0           Magnetic Declination
 MDEN.      2.71               Density Matrix
 MATR.       Dolomite          Neutron Matrix
 DTMT.            54           Delta T Matrix
 DTFL.                         Delta T Fluid
 MUDS.               0         Mud Sample Source
 MRS .           0             Mud Resistivity
 MTP .           0             Mud Temperature
 MFRS.                         Resistivity Mud Filtrate
 MFTP.                         Temperature Mud Filtrate
 MCRS.         0               Resistivity Mud Cake
 MCTP.                         Temperature Mud Cake
 FTYP.             0           Fluid Type
 FD  .K/M3                     Fluid Density
 DFV .S                        Fluid Viscosity
 FPH .                         Fuild PH
 ELCO.        2500             Electron Cutoff
# -------------------------- 
~A DEPTH  TIME(N) TIME(F) DELTAT AMP(N)   AMP(F)   XTR PWR POR(SON) BHC-DELT TENSION  TIME    
# ...
 749.400   540     675    134.9   3734.0   1806.0  52.7    37.7      135         4.6  0.20000 
 749.500   542     676    134.9   3753.0   1596.0  51.6    37.8      135         3.4  0.20000 
 749.600   542     678    135.5   3737.5   1316.0  51.2    37.8      135         1.0  0.20000 
 749.700   543     679    136.2   3479.5   1213.5  51.6    37.8      135         1.0  0.20000 
 749.800   544     681    137.4   3169.0   1212.0  52.2    37.9      135         0.0  0.20000 
 749.900   544     682    138.1   3218.5   1305.0  53.0    38.0      136         0.0  0.20000 
 750.000   545     683    138.1   3384.5   1401.0  54.1    38.1      137         0.0  0.20000 
 750.100   545     684    138.5   3418.0   1515.0  55.4    38.2      137         0.1  0.20000 
 750.200   545     684    139.4   3361.5   1544.5  56.3    38.4      138         0.1  0.20000 
 750.300   545     684    139.4   3664.0   1608.5  56.1    38.4      138         0.1  0.20000 
 750.400   545     685    139.6   4117.0   1699.0  55.1    38.4      138         0.1  0.30000 
 750.500   546     685    139.6   4425.0   1806.0  54.5    38.4      138         0.1  0.20000 
 750.600   546     686    140.2   4299.0   1753.0  54.2    38.5      139         0.1  0.20000 
 750.700   546     686    140.3   3910.5   1628.5  53.7    38.6      139         1.1  0.20000 
 750.800   546     687    141.1   3386.0   1494.0  53.5    38.7      140         1.1  0.20000 
 750.900   545     687    142.5   3374.5   1492.5  54.5    38.9      141         1.1  0.20000 
 751.000   545     688    143.6   3585.0   1495.0  56.8    39.1      142         1.1  0.20000 
 751.100   545     689    144.3   3463.0   1498.0  59.3    39.2      143         1.0  0.20000 
 751.200   545     690    144.6   3062.0   1499.0  61.1    39.3      143         0.0  0.20000 
 751.300   545     690    145.3   2611.0   1575.5  61.9    39.3      144         0.0  0.20000 
 751.400   545     690    145.4   2601.0   1688.5  62.1    39.3      144         0.0  0.20000 
 751.500   545     691    145.9   2694.0   1715.5  63.3    39.4      144         0.0  0.20000 
 751.600   545     692    147.1   2730.5   1610.0  65.3    39.4      144         0.0  0.20000 
 751.700   546     693    147.1   2758.5   1619.0  66.5    39.3      144         0.0  0.20000 
 751.800   546     693    146.6   2791.0   1704.0  66.6    39.3      143         0.4  0.20000 
 751.900   544     691    146.8   2678.7   1968.5  65.7    39.2      143         0.4  0.20000 
 752.000   543     690    146.6   2603.5   2241.0  65.8    39.1      142         1.1  0.10000 
 752.100   543     689    146.5   2492.5   2329.0  67.4    39.0      142         1.1  0.20000 
 752.200   543     689    145.9   2620.0   2203.0  69.3    38.9      141         1.1  0.20000 
 752.300   543     689    145.6   2769.5   2078.5  70.7    38.9      141         0.7  0.20000 
 752.400   544     689    144.9   3069.5   2276.5  71.7    38.9      141         0.7  0.20000 
 752.500   544     689    144.3   3464.0   2841.5  71.7    39.0      142         0.7  0.20000 
 752.600   545     689    144.1   3562.0   3124.0  70.8    39.2      143         0.0  0.20000 
 752.700   545     689    143.9   3352.0   3048.5  69.3    39.3      144         0.7  0.20000 
 752.800   546     690    143.3   3152.5   2824.0  68.1    39.3      144         0.7  0.20000 
 752.900   548     689    141.3   2856.0   2437.3  67.1    39.2      143         0.9  0.20000 
 753.000   550     689    139.7   2561.5   2159.5  66.5    39.1      143         0.9  0.20000 
 753.100   551     690    138.6   2345.0   1935.0  66.9    39.0      142         2.9  0.20000 
 753.200   553     690    137.5   2272.5   1835.5  66.7    38.9      141         2.2  0.20000 
 753.300   553     690    136.9   2133.0   1813.0  65.8    38.8      141         3.0  0.20000 
 753.400   555     691    135.8   1946.3   1649.0  64.3    38.7      140         2.8  0.20000 
 753.500   558     692    134.7   1937.0   1652.0  61.7    38.6      139         3.7  0.20000 
 753.600   560     693    133.0   1503.0   1508.0  58.9    38.4      138         1.7  0.20000 
 753.700   563     694    131.2   1205.0   1317.0  56.4    38.2      137         1.9  0.20000 
 753.800   564     696    131.4    961.5   1346.5  55.5    38.2      137         2.5  0.20000 
 753.900   566     698    132.2    782.0   1198.5  55.0    38.3      138         3.4  0.20000 
 754.000   583     704    120.8   3092.0    952.0  55.4    37.2      132         2.5  0.20000 
 754.100   573     709    136.4   1514.0   1384.5  55.6    38.7      140         2.6  0.20000 
 754.200   573     711    138.0   2199.0   2168.5  54.4    38.9      141         2.5  0.20000 
 754.300   574     712    137.8   2572.0   2628.0  51.7    39.0      142         1.5  0.20000 
 754.400   575     713    138.5   2784.0   3135.0  49.3    39.0      142         0.6  0.20000 
 754.500   575     715    140.4   2904.5   3333.0  47.9    39.2      143         0.6  0.20000 
 754.600   574     717    142.7   3046.0   3194.5  45.2    39.5      145         1.1  0.20000 
 754.700   574     718    143.9   3278.0   2875.5  41.8    39.6      145         1.0  0.20000 
 754.800   574     717    143.2   3260.5   2403.0  38.9    39.6      145         1.1  0.20000 
 754.900   574     717    142.8   3159.5   2149.0  36.6    39.5      145         1.1  0.20000 
 755.000   575     717    141.9   3161.5   1952.5  34.9    39.3      144         1.8  0.10000 
 755.100   576     718    141.5   2829.0   1619.0  33.7    39.2      143         1.2  0.20000 
 755.200   577     720    142.3   2252.5   1486.5  33.4    39.2      143         2.9  0.22000 
 755.300   579     721    142.6   1746.5   1444.5  33.8    39.2      143         2.9  0.22000 
 755.400   580     723    142.9   1456.0   1460.5  33.8    39.3      143         3.3  0.22000 
 755.500   581     724    142.4   1394.0   1588.0  33.6    39.2      143         2.6  0.22000 
 755.600   582     724    141.7   1433.0   1763.0  33.2    39.2      143         3.7  0.11000 
 755.700   584     723    139.8   1234.0   1874.5  31.2    39.0      142         3.7  0.21000 
 755.800   600     724    124.1    998.5   1853.0  27.4    37.6      134         2.9  0.20000 
 755.900   637     725     87.9   2008.0   1778.5  23.3    33.8      116         3.4  0.20000 
 756.000   656     726     70.0   4154.5   1773.0  19.7    31.5      108         2.5  0.20000 
 756.100   656     728     71.9   3466.0   1596.5  18.7    31.9      109         2.6  0.20000 
 756.200   656     729     73.8   3227.0   1318.5  17.7    32.2      111         1.5  0.20000 
 756.300   656     732     76.1   3592.7   1005.5  14.6    32.5      112         0.6  0.20000 
 756.400   656     735     78.7   3620.5    689.5  10.1    32.9      113         0.1  0.20000 
 756.500   656     773    116.6   3436.5   2938.0   8.9    37.3      132         0.1  0.20000 
 756.600   656     780    124.4   3466.5   3270.5   9.6    38.1      136         0.0  0.20000 
 756.700   655     783    127.9   3571.5   2894.0   8.6    38.4      138         0.6  0.22000 
 756.800   655     787    131.6   3415.0   1982.5   8.8    38.8      140         0.6  0.22000 
 756.900   655     791    135.6   3286.0   1261.0   8.7    39.2      143         0.6  0.22000 
 757.000   655     791    135.8   3177.0   1295.5   8.4    39.6      145         0.6  0.22000 
 757.100   655     796    141.2   3076.0   1119.5   8.3    40.2      150         0.6  0.11000 
 757.200   655     826    171.8   3141.0   1895.0   8.6    42.4      165         0.0  0.21000 
 757.300   655     826    171.8   3203.0   1449.0   8.8    42.4      165         0.0  0.20000 
 757.400   655     827    172.3   3219.7   1307.5   8.7    42.4      165         0.0  0.20000 
 757.500   655     827    171.8   3054.0   1472.0   8.7    42.3      165         0.0  0.20000 
 757.600   655     827    172.6   2844.0   1664.5   8.5    42.4      165         0.0  0.20000 
 757.700   655     829    174.4   2591.0   1566.5   8.4    42.3      164         0.0  0.10000 
 757.800   654     830    176.3   2308.7   1561.0   8.3    42.3      165         0.0  0.20000 
