~Version Information
 VERS.                2.0:  CWLS LOG ASCII STANDARD -VERSION 2.0
 WRAP.                 NO:  ONE LINE PER DEPTH STEP
~WELL INFORMATION BLOCK
#MNEM.UNIT       DATA		            DESCRIPTION OF MNEMONIC
#---------    -------------            ------------------------
 STRT.FT  5.300                          :START DEPTH
 STOP.FT  1874.500                       :STOP DEPTH
 STEP.FT  0.100                          :STEP    UP_HOLE  
 NULL.    0                              :NULL VALUE
 COMP.                            USGS   :COMPANY
 WELL.                      MCWD-DMW #1  :WELL
 FLD .                           Marina  :FIELD
 LOC .    None  None  None               :LOCATION
 CNTY.                         Monterey  :COUNTY
 STAT.             California            :STATE
 SRVC.    Western Reg                    :SERVICE COMPANY
 DATE.   05/27/00                        :LOG DATE
 UWI .                       	         :UNIQUE WELL ID
 LIC .                                   :LICENSE NUMBER
~Curve Information Block
#MNEM.UNIT      API CODE     Curve Description
#---------    -------------  ------------------------
 DEPT     .FT        00 001 00 00          :  1  DEPTH   
 RES(FL)  .OHM-M     00 000 00 00          :  2              RES(FL)
 SP       .MV        00 010 00 00          :  3                   SP
 TEMP     .DEG F     00 660 00 00          :  4                 TEMP
 RES(16N) .OHM-M     00 040 00 00          :  5             RES(16N)
 RES(64N) .OHM-M     00 060 00 00          :  6             RES(64N)
 RES      .OHM       00 000 00 00          :  7                  RES
 DEL TEMP .DEG F     00 000 00 00          :  8             DEL TEMP
 LATERAL  .OHM-M     00 070 00 00          :  9              LATERAL
 SP COND  .US/CM     00 000 00 00          : 10              SP COND
 CALIPER  .INCH      00 280 00 00          : 11              CALIPER
 GAM(NAT) .API-GR    00 310 00 00          : 12             GAM(NAT)
 COND     .MMHO/M    00 000 00 00          : 13                 COND
 RES      .OHM-M     00 000 00 00          : 14                  RES
 AP-COND  .MMHO/M    00 000 00 00          : 15              AP-COND
 TEMP     .CPS       00 660 00 00          : 16                 TEMP
 AP-COND  .CPS       00 000 00 00          : 17              AP-COND
~Parameter Information Block
#MNEM.UNIT   Information     Description
#---------- ---------------  ------------------------
~Other Information
#MNEM.UNIT  Information      Description
#---------- ---------------  ------------------------
 FILE.      PROCESSED          File Type
 FIID.      9041A              File Type Identifier
 VERS.      1.0                System Version
 SER .      1                  System Serial Number
 TRUK.      0.5                Truck Calibration Number
 TOOL.         294             Tool Serial Number
 TIME.      00:44:             Time
 LAT .          None           Latitude
 LON .          None           Longitude
 LMF .           LSD           Log Measured From
 DMF .           LSD           Driller Measured From
 PD  .          None           Permanent Data
 PDEV.          None           Elevation Permanent Data
 EKB .M         None           Elevation Kelly Bushing
 ELEV.DF        None           Elevation DF
 EGL .M         None           Elevation Ground Level
 DRDP.         1990'           Driller's Depth
 CASD.         0               Casing Diameter
 CASB.          None           Casing Bottom
 CASX.          None           Casing Type
 CAST.         0               Casing Thickness
 TNOC.          None           Time Circulation Stopped
 LOGU.       WRRD              Logging Unit
 RECB.           Everett       Recorded By
 OSR1.       Pimente           Other Services
 OSR2.       mud vis           Other Services
 OSR3.           =62           Other Services
 BS  .MM           6           Bit Size
 MST .                         Mean Surface Temperature
 TGRD.        0                Temperature Gradiant
 MAGN.             0           Magnetic Declination
 MDEN.      2.71               Density Matrix
 MATR.       Dolomite          Neutron Matrix
 DTMT.            54           Delta T Matrix
 DTFL.                         Delta T Fluid
 MUDS.               0         Mud Sample Source
 MRS .           0             Mud Resistivity
 MTP .           0             Mud Temperature
 MFRS.                         Resistivity Mud Filtrate
 MFTP.                         Temperature Mud Filtrate
 MCRS.         0               Resistivity Mud Cake
 MCTP.                         Temperature Mud Cake
 FTYP.             0           Fluid Type
 FD  .K/M3                     Fluid Density
 DFV .S                        Fluid Viscosity
 FPH .                         Fuild PH
 ELCO.        2500             Electron Cutoff
# -------------------------- 
~A DEPTH  RES(FL) SP    TEMP  RES(16N) RES(64N) RES      DEL TEMP LATERAL  SP COND  CALIPER GAM(NAT) COND     RES      AP-COND  TEMP  AP-COND  
# ...
 512.000    4.08  85.1  87.3      4.0      3.8     28.4  -0.00        4.1   2449.3   9.3       55.7    609.2      1.6    531.2  28805.0 118075.0 
 512.100    4.08  86.7  87.3      4.0      4.2     28.0  0.00         3.9   2449.3   9.3       35.4    611.2      1.6    533.0  28810.0 118280.0 
 512.200    4.08  85.6  87.3      4.1      4.1     27.9  -0.01        4.1   2450.1   9.3       60.8    620.9      1.6    541.2  28805.0 119260.0 
 512.300    4.08  84.3  87.3      4.0      4.1     27.6  0.01         4.0   2451.6   9.3       45.6    625.3      1.6    544.9  28805.0 119705.0 
 512.400    4.08  83.9  87.3      4.2      3.6     28.0  -0.00        4.4   2449.3   9.3       55.7    626.7      1.6    546.2  28810.0 119850.0 
 512.500    4.08  96.6  87.3      4.1      4.2     28.4  0.00         4.1   2449.3   9.3       50.6    631.6      1.6    550.3  28800.0 120350.0 
 512.600    4.09  84.2  87.3      4.2      4.1     29.0  0.00         4.2   2447.0   9.3       75.9    637.8      1.6    555.6  28810.0 120975.0 
 512.700    4.08  82.1  87.3      4.2      3.7     29.2  -0.00        4.4   2449.3   9.3       50.6    645.2      1.5    561.9  28805.0 121720.0 
 512.800    4.08  103.1 87.3      4.3      3.9     29.4  0.00         4.4   2449.3   9.3      111.4    653.2      1.5    568.7  28806.7 122530.0 
 512.900    4.09  104.6 87.3      4.3      4.0     29.4  0.00         4.4   2447.0   9.3       86.1    653.2      1.5    568.7  28806.7 122530.0 
 513.000    4.09  97.2  87.3      4.3      4.2     29.4  -0.00        4.3   2447.0   9.3       50.6    662.2      1.5    576.4  28805.0 123445.0 
 513.100    4.09  92.1  87.3      4.5      4.3     29.1  0.00         4.6   2447.0   9.3       91.1    664.5      1.5    578.3  28810.0 123680.0 
 513.200    4.08  79.4  87.3      4.4      4.0     29.3  -0.00        4.5   2449.3   9.3       86.1    671.3      1.5    584.1  28810.0 124365.0 
 513.300    4.08  79.3  87.3      4.4      4.1     29.0  0.00         4.5   2449.3   9.3       45.6    677.4      1.5    589.3  28805.0 124985.0 
 513.400    4.09  79.1  87.3      4.4      4.0     29.1  0.00         4.5   2447.0   9.3       60.8    681.5      1.5    592.8  28810.0 125400.0 
 513.500    4.09  78.6  87.3      4.2      4.0     29.1  0.00         4.3   2447.0   9.3       55.7    687.0      1.5    597.4  28805.0 125955.0 
 513.600    4.08  78.4  87.3      4.3      4.0     29.0  -0.00        4.4   2449.3   9.3       70.9    690.7      1.4    600.6  28810.0 126330.0 
 513.700    4.09  78.4  87.3      4.1      4.1     29.1  0.00         4.1   2447.0   9.3       81.0    695.8      1.4    604.9  28800.0 126840.0 
 513.800    4.09  86.9  87.3      4.0      4.0     29.0  0.00         4.0   2447.0   9.3       70.9    699.5      1.4    608.1  28810.0 127220.0 
 513.900    4.08  82.3  87.3      4.0      4.5     29.0  -0.00        3.8   2449.3   9.3       50.6    701.8      1.4    610.0  28810.0 127450.0 
 514.000    4.08  78.7  87.3      3.9      4.2     28.6  0.00         3.8   2449.3   9.3       60.8    705.5      1.4    613.1  28805.0 127820.0 
 514.100    4.09  78.7  87.3      3.9      4.0     28.8  -0.00        3.9   2447.0   9.3       81.0    706.3      1.4    613.8  28810.0 127900.0 
 514.200    4.08  79.0  87.3      3.8      4.0     28.5  0.00         3.7   2449.3   9.3       60.8    704.8      1.4    612.5  28800.0 127750.0 
 514.300    4.08  87.8  87.3      3.8      4.0     28.4  -0.00        3.7   2449.3   9.3       70.9    706.2      1.4    613.7  28810.0 127890.0 
 514.400    4.08  87.9  87.3      3.5      4.0     28.4  0.00         3.3   2449.3   9.3      101.3    705.3      1.4    613.0  28805.0 127800.0 
 514.500    4.08  99.3  87.3      3.6      3.9     28.2  0.00         3.5   2449.3   9.3       65.8    702.8      1.4    610.8  28800.0 127550.0 
 514.600    4.08  78.5  87.3      3.5      4.0     27.9  0.00         3.4   2449.3   9.3       75.9    698.2      1.4    607.0  28810.0 127085.0 
 514.700    4.08  79.7  87.3      3.3      4.1     27.8  0.00         3.0   2449.3   9.3       60.8    692.4      1.4    602.0  28805.0 126495.0 
 514.800    4.08  93.3  87.3      3.3      4.3     27.8  0.00         3.0   2451.6   9.3       75.9    687.4      1.5    597.8  28810.0 125990.0 
 514.900    4.08  104.0 87.3      3.2      4.0     27.6  -0.00        2.9   2449.3   9.3       60.8    678.4      1.5    590.1  28810.0 125085.0 
 515.000    4.08  84.0  87.3      3.3      4.2     27.3  0.00         3.0   2449.3   9.3       50.6    669.2      1.5    582.3  28805.0 124155.0 
 515.100    4.08  77.8  87.3      3.2      4.0     27.3  0.00         2.9   2451.6   9.4       55.7    660.8      1.5    575.1  28810.0 123300.0 
 515.200    4.08  90.2  87.3      3.1      4.3     27.1  -0.00        2.7   2451.6   9.4       40.5    653.7      1.5    569.1  28810.0 122585.0 
 515.300    4.08  93.6  87.3      3.2      4.0     27.1  0.00         2.9   2449.3   9.4       65.8    642.3      1.6    559.4  28805.0 121425.0 
 515.400    4.08  90.1  87.3      3.0      4.1     27.0  -0.00        2.6   2453.2   9.4      111.4    635.1      1.6    553.3  28800.0 120700.0 
 515.500    4.08  86.1  87.3      3.1      4.1     26.9  0.00         2.8   2451.6   9.4       70.9    625.3      1.6    545.0  28810.0 119710.0 
 515.600    4.08  88.2  87.3      3.0      4.1     26.7  0.00         2.6   2451.6   9.4       35.4    609.7      1.6    531.7  28810.0 118125.0 
 515.700    4.08  92.8  87.3      3.0      4.4     26.5  -0.00        2.5   2451.6   9.4       50.6    601.7      1.7    524.9  28800.0 117320.0 
 515.800    4.08  80.7  87.3      3.0      4.1     26.5  0.00         2.6   2453.9   9.4       50.6    590.4      1.7    515.2  28810.0 116170.0 
 515.900    4.08  77.7  87.3      3.2      4.5     26.5  -0.00        2.8   2451.6   9.4      101.3    578.0      1.7    504.6  28810.0 114905.0 
 516.000    4.08  78.8  87.3      3.1      4.2     26.4  -0.00        2.7   2453.9   9.4      131.6    566.7      1.8    495.0  28810.0 113760.0 
 516.100    4.08  78.3  87.3      3.0      4.3     26.4  0.00         2.6   2453.9   9.4       45.6    560.1      1.8    489.4  28805.0 113095.0 
 516.200    4.08  78.2  87.3      3.0      4.4     26.3  -0.00        2.5   2453.9   9.4       60.8    550.7      1.8    481.3  28810.0 112135.0 
 516.300    4.08  94.2  87.3      3.1      3.9     26.4  -0.00        2.8   2453.9   9.4       35.4    541.6      1.8    473.6  28810.0 111210.0 
 516.400    4.08  79.7  87.3      3.1      4.3     26.1  0.00         2.7   2453.9   9.3      121.5    536.9      1.9    469.5  28805.0 110730.0 
 516.500    4.08  79.2  87.3      3.1      3.6     26.1  0.00         2.9   2453.9   9.3       65.8    531.6      1.9    465.0  28805.0 110195.0 
 516.600    4.08  79.9  87.3      3.1      3.9     26.1  0.00         2.8   2453.9   9.3       25.3    528.4      1.9    462.3  28810.0 109870.0 
 516.700    4.07  81.1  87.3      3.2      4.2     26.1  0.00         2.9   2456.3   9.3       70.9    526.4      1.9    460.6  28810.0 109665.0 
 516.800    4.07  80.8  87.3      3.3      4.1     26.0  -0.00        3.0   2456.3   9.3       60.8    521.2      1.9    456.2  28810.0 109140.0 
 516.900    4.08  81.3  87.3      3.2      4.1     26.1  0.00         2.9   2453.9   9.3       65.8    517.5      1.9    453.0  28800.0 108760.0 
 517.000    4.08  82.1  87.3      3.3      3.7     26.3  0.00         3.2   2453.9   9.3      101.3    516.3      1.9    452.0  28810.0 108640.0 
 517.100    4.07  82.7  87.3      3.3      3.9     26.3  0.00         3.1   2456.3   9.3       55.7    511.2      2.0    447.6  28810.0 108115.0 
 517.200    4.08  83.8  87.3      3.4      4.1     26.3  -0.00        3.2   2453.9   9.3       70.9    511.8      2.0    448.1  28810.0 108180.0 
 517.300    4.07  86.1  87.3      3.4      4.2     26.5  0.00         3.1   2456.3   9.3      111.4    512.4      2.0    448.6  28810.0 108245.0 
 517.400    4.07  83.8  87.3      3.5      4.0     26.9  0.00         3.3   2456.3   9.3       50.6    514.9      1.9    450.7  28805.0 108495.0 
