~Version Information
 VERS.                2.0:  CWLS LOG ASCII STANDARD -VERSION 2.0
 WRAP.                 NO:  ONE LINE PER DEPTH STEP
~WELL INFORMATION BLOCK
#MNEM.UNIT       DATA		            DESCRIPTION OF MNEMONIC
#---------    -------------            ------------------------
 STRT.FT  41.500                         :START DEPTH
 STOP.FT  1871.500                       :STOP DEPTH
 STEP.FT  0.100                          :STEP    UP_HOLE  
 NULL.    0                              :NULL VALUE
 COMP.                            USGS   :COMPANY
 WELL.                      MCWD-DMW #1  :WELL
 FLD .                           Marina  :FIELD
 LOC .    None  None  None               :LOCATION
 CNTY.                         Monterey  :COUNTY
 STAT.             California            :STATE
 SRVC.    Western Reg                    :SERVICE COMPANY
 DATE.   05/27/00                        :LOG DATE
 UWI .                       	         :UNIQUE WELL ID
 LIC .                                   :LICENSE NUMBER
~Curve Information Block
#MNEM.UNIT      API CODE     Curve Description
#---------    -------------  ------------------------
 DEPT     .FT        00 001 00 00          :  1  DEPTH   
 GAM(NAT) .API-GR    00 310 00 00          :  2             GAM(NAT)
 COND     .MMHO/M    00 000 00 00          :  3                 COND
 RES      .OHM-M     00 000 00 00          :  4                  RES
 TEMP     .DEG F     00 660 00 00          :  5                 TEMP
 AP-COND  .MMHO/M    00 000 00 00          :  6              AP-COND
 TEMP     .CPS       00 660 00 00          :  7                 TEMP
 AP-COND  .CPS       00 000 00 00          :  8              AP-COND
 TENSION  .POUNDS    00 000 00 00          :  9              TENSION
 TIME     .MINUTES   00 000 00 00          : 10                 TIME
~Parameter Information Block
#MNEM.UNIT   Information     Description
#---------- ---------------  ------------------------
~Other Information
#MNEM.UNIT  Information      Description
#---------- ---------------  ------------------------
 FILE.      ORIGINAL           File Type
 FIID.      9511A              File Type Identifier
 VERS.      1.0                System Version
 SER .      1                  System Serial Number
 TRUK.      0.5                Truck Calibration Number
 TOOL.         770             Tool Serial Number
 TIME.      05:18:             Time
 LAT .          None           Latitude
 LON .          None           Longitude
 LMF .           LSD           Log Measured From
 DMF .           LSD           Driller Measured From
 PD  .          None           Permanent Data
 PDEV.          None           Elevation Permanent Data
 EKB .M         None           Elevation Kelly Bushing
 ELEV.DF        None           Elevation DF
 EGL .M         None           Elevation Ground Level
 DRDP.         1990'           Driller's Depth
 CASD.         0               Casing Diameter
 CASB.          None           Casing Bottom
 CASX.          None           Casing Type
 CAST.         0               Casing Thickness
 TNOC.          None           Time Circulation Stopped
 LOGU.       WRRD              Logging Unit
 RECB.           Everett       Recorded By
 OSR1.       Pimente           Other Services
 OSR2.       mud vis           Other Services
 OSR3.           =62           Other Services
 BS  .MM           6           Bit Size
 MST .                         Mean Surface Temperature
 TGRD.        0                Temperature Gradiant
 MAGN.             0           Magnetic Declination
 MDEN.      2.71               Density Matrix
 MATR.       Dolomite          Neutron Matrix
 DTMT.            54           Delta T Matrix
 DTFL.                         Delta T Fluid
 MUDS.               0         Mud Sample Source
 MRS .           0             Mud Resistivity
 MTP .           0             Mud Temperature
 MFRS.                         Resistivity Mud Filtrate
 MFTP.                         Temperature Mud Filtrate
 MCRS.         0               Resistivity Mud Cake
 MCTP.                         Temperature Mud Cake
 FTYP.             0           Fluid Type
 FD  .K/M3                     Fluid Density
 DFV .S                        Fluid Viscosity
 FPH .                         Fuild PH
 ELCO.        2500             Electron Cutoff
# -------------------------- 
~A DEPTH  GAM(NAT) COND     RES      TEMP  AP-COND  TEMP  AP-COND  TENSION  TIME    
# ...
1624.000     50.6    389.8      2.6  96.6    343.5  29390.0 95615.0      1.8  0.20000 
1624.100     30.4    387.4      2.6  96.6    341.3  29390.0 95360.0      2.1  0.10000 
1624.200     91.1    388.8      2.6  96.5    342.5  29385.0 95505.0      1.6  0.20000 
1624.300     50.6    388.8      2.6  96.6    342.6  29390.0 95510.0      3.3  0.20000 
1624.400     60.8    387.5      2.6  96.6    341.4  29390.0 95370.0      2.3  0.20000 
1624.500     35.4    389.1      2.6  96.6    342.8  29390.0 95540.0      3.0  0.20000 
1624.600     55.7    389.5      2.6  96.6    343.2  29390.0 95580.0      2.7  0.10000 
1624.700     70.9    390.4      2.6  96.5    344.0  29385.0 95675.0      3.6  0.20000 
1624.800     35.4    390.2      2.6  96.4    343.7  29380.0 95650.0      1.9  0.21000 
1624.900     70.9    392.2      2.5  96.6    345.5  29390.0 95855.0      2.9  0.22000 
1625.000     50.6    394.9      2.5  96.6    347.8  29390.0 96130.0      2.2  0.22000 
1625.100     55.7    394.9      2.5  96.6    347.8  29390.0 96135.0      3.1  0.22000 
1625.200     65.8    396.3      2.5  96.6    349.1  29390.0 96280.0      3.1  0.11000 
1625.300     81.0    397.4      2.5  96.6    350.0  29390.0 96390.0      2.7  0.11000 
1625.400     55.7    398.7      2.5  96.6    351.1  29390.0 96520.0      1.8  0.21000 
1625.500     50.6    399.3      2.5  96.6    351.6  29390.0 96580.0      1.8  0.20000 
1625.600     30.4    399.8      2.5  96.6    352.1  29386.7 96640.0      1.8  0.20000 
1625.700     45.6    402.4      2.5  96.6    354.3  29390.0 96905.0      0.9  0.10000 
1625.800     40.5    402.4      2.5  96.6    354.3  29390.0 96900.0      1.5  0.20000 
1625.900     70.9    401.2      2.5  96.6    353.3  29390.0 96780.0      0.7  0.20000 
1626.000     81.0    402.7      2.5  96.6    354.5  29390.0 96930.0      0.7  0.21000 
1626.100     96.2    405.3      2.5  96.6    356.8  29390.0 97200.0      0.6  0.22000 
1626.200     55.7    403.5      2.5  96.6    355.2  29390.0 97015.0      0.6  0.22000 
1626.300     55.7    403.6      2.5  96.6    355.3  29390.0 97020.0      0.0  0.11000 
1626.400     40.5    402.2      2.5  96.6    354.1  29390.0 96875.0      0.0  0.22000 
1626.500     45.6    402.0      2.5  96.6    353.9  29390.0 96860.0      0.0  0.11000 
1626.600     45.6    400.6      2.5  96.6    352.8  29390.0 96720.0      0.0  0.21000 
1626.700    116.5    399.4      2.5  96.6    351.7  29390.0 96590.0      0.0  0.20000 
1626.800     35.4    398.6      2.5  96.6    351.0  29390.0 96510.0      0.7  0.10000 
1626.900     70.9    395.5      2.5  96.6    348.3  29390.0 96195.0      0.7  0.20000 
1627.000    101.3    392.8      2.5  96.6    346.0  29390.0 95920.0      0.9  0.20000 
1627.100     35.4    391.3      2.6  96.5    344.7  29385.0 95760.0      0.9  0.20000 
1627.200     60.8    388.7      2.6  96.6    342.5  29390.0 95500.0      0.9  0.20000 
1627.300     55.7    387.7      2.6  96.6    341.6  29390.0 95395.0      0.9  0.10000 
1627.400     55.7    383.8      2.6  96.6    338.3  29390.0 95000.0      0.2  0.20000 
1627.500     81.0    382.3      2.6  96.6    337.0  29390.0 94840.0      0.0  0.20000 
1627.600     55.7    380.1      2.6  96.6    335.1  29390.0 94615.0      0.1  0.20000 
1627.700     50.6    379.1      2.6  96.6    334.2  29390.0 94510.0      1.0  0.20000 
1627.800     75.9    376.2      2.7  96.6    331.7  29390.0 94215.0      1.0  0.20000 
1627.900     70.9    374.5      2.7  96.6    330.2  29390.0 94040.0      2.1  0.10000 
1628.000     70.9    371.9      2.7  96.6    328.1  29390.0 93780.0      2.1  0.20000 
1628.100     91.1    370.7      2.7  96.6    327.0  29390.0 93650.0      2.8  0.20000 
1628.200     75.9    367.7      2.7  96.6    324.4  29390.0 93350.0      2.8  0.20000 
1628.300     65.8    367.2      2.7  96.6    323.9  29390.0 93290.0      3.0  0.20000 
1628.400     60.8    364.5      2.7  96.7    321.7  29395.0 93020.0      1.9  0.10000 
1628.500     91.1    363.9      2.7  96.6    321.2  29390.0 92960.0      2.3  0.22000 
1628.600     81.0    362.4      2.8  96.6    319.8  29390.0 92800.0      2.3  0.22000 
1628.700     55.7    360.9      2.8  96.6    318.6  29390.0 92650.0      1.5  0.22000 
1628.800     55.7    360.0      2.8  96.7    317.7  29395.0 92550.0      1.5  0.22000 
1628.900     35.4    358.4      2.8  96.6    316.4  29390.0 92395.0      0.6  0.11000 
1629.000     25.3    355.2      2.8  96.6    313.6  29390.0 92060.0      0.2  0.11000 
1629.100     45.6    353.6      2.8  96.6    312.3  29390.0 91900.0      0.2  0.20000 
1629.200     40.5    350.1      2.9  96.7    309.2  29395.0 91535.0      0.2  0.20000 
1629.300     55.7    350.4      2.9  96.6    309.4  29390.0 91565.0      0.2  0.20000 
1629.400     40.5    345.7      2.9  96.6    305.4  29390.0 91090.0      0.2  0.20000 
1629.500     50.6    343.8      2.9  96.7    303.8  29395.0 90890.0      0.0  0.10000 
1629.600     96.2    342.4      2.9  96.6    302.6  29390.0 90750.0      0.1  0.20000 
1629.700    111.4    338.5      3.0  96.6    299.2  29390.0 90350.0      0.1  0.20000 
1629.800     50.6    338.3      3.0  96.7    299.0  29395.0 90325.0      0.1  0.20000 
1629.900     65.8    335.8      3.0  96.6    296.8  29390.0 90065.0      0.1  0.20000 
1630.000     50.6    332.3      3.0  96.7    293.9  29395.0 89710.0      0.1  0.20000 
1630.100     45.6    331.6      3.0  96.6    293.3  29390.0 89640.0      0.0  0.10000 
1630.200     40.5    328.2      3.0  96.6    290.3  29390.0 89285.0      0.0  0.20000 
1630.300      0.0    327.6      3.1  96.6    289.8  29390.0 89230.0      0.0  0.20000 
1630.400     65.8    326.7      3.1  96.6    289.0  29390.0 89135.0      0.2  0.20000 
1630.500     81.0    324.8      3.1  96.7    287.4  29395.0 88940.0      0.2  0.20000 
1630.600     70.9    324.6      3.1  96.6    287.2  29390.0 88920.0      0.2  0.10000 
1630.700     55.7    322.5      3.1  96.7    285.4  29395.0 88700.0      0.7  0.20000 
1630.800     70.9    321.8      3.1  96.6    284.8  29390.0 88630.0      1.3  0.20000 
1630.900     40.5    326.7      3.1  96.6    289.0  29390.0 89135.0      1.3  0.22000 
1631.000     20.3    323.8      3.1  96.6    286.5  29390.0 88835.0      1.1  0.22000 
1631.100     45.6    324.9      3.1  96.7    287.4  29395.0 88945.0      2.0  0.22000 
1631.200     91.1    324.3      3.1  96.6    287.0  29390.0 88890.0      1.9  0.11000 
1631.300     65.8    326.1      3.1  96.7    288.5  29395.0 89075.0      1.9  0.22000 
1631.400     91.1    326.7      3.1  96.6    289.0  29390.0 89130.0      1.3  0.11000 
1631.500     45.6    327.2      3.1  96.7    289.4  29395.0 89185.0      1.5  0.20000 
1631.600     35.4    330.4      3.0  96.6    292.2  29390.0 89515.0      1.5  0.20000 
1631.700     50.6    332.1      3.0  96.7    293.6  29395.0 89685.0      1.1  0.10000 
1631.800     55.7    332.4      3.0  96.6    293.9  29390.0 89715.0      0.7  0.20000 
1631.900     70.9    336.6      3.0  96.6    297.5  29390.0 90150.0      0.9  0.20000 
1632.000     70.9    337.3      3.0  96.6    298.2  29390.0 90225.0      1.2  0.20000 
1632.100     70.9    341.5      2.9  96.6    301.8  29390.0 90660.0      1.0  0.22000 
1632.200     60.8    344.9      2.9  96.6    304.7  29390.0 91000.0      1.2  0.22000 
1632.300     60.8    346.6      2.9  96.7    306.2  29395.0 91175.0      0.7  0.11000 
1632.400     30.4    348.2      2.9  96.6    307.6  29390.0 91345.0      0.6  0.22000 
1632.500     60.8    350.3      2.9  96.8    309.4  29400.0 91560.0      1.1  0.22000 
1632.600     86.1    352.4      2.8  96.6    311.2  29390.0 91770.0      1.1  0.11000 
1632.700     60.8    354.2      2.8  96.7    312.8  29395.0 91960.0      0.9  0.20000 
1632.800     40.5    356.0      2.8  96.6    314.3  29390.0 92145.0      0.9  0.10000 
1632.900     75.9    358.0      2.8  96.7    316.0  29395.0 92350.0      0.9  0.20000 
1633.000     86.1    358.6      2.8  96.6    316.5  29390.0 92410.0      0.8  0.20000 
1633.100    101.3    359.0      2.8  96.7    316.9  29395.0 92450.0      0.8  0.20000 
