~Version Information
 VERS.                2.0:  CWLS LOG ASCII STANDARD -VERSION 2.0
 WRAP.                 NO:  ONE LINE PER DEPTH STEP
~WELL INFORMATION BLOCK
#MNEM.UNIT       DATA		            DESCRIPTION OF MNEMONIC
#---------    -------------            ------------------------
 STRT.FT  41.500                         :START DEPTH
 STOP.FT  1871.500                       :STOP DEPTH
 STEP.FT  0.100                          :STEP    UP_HOLE  
 NULL.    0                              :NULL VALUE
 COMP.                            USGS   :COMPANY
 WELL.                      MCWD-DMW #1  :WELL
 FLD .                           Marina  :FIELD
 LOC .    None  None  None               :LOCATION
 CNTY.                         Monterey  :COUNTY
 STAT.             California            :STATE
 SRVC.    Western Reg                    :SERVICE COMPANY
 DATE.   05/27/00                        :LOG DATE
 UWI .                       	         :UNIQUE WELL ID
 LIC .                                   :LICENSE NUMBER
~Curve Information Block
#MNEM.UNIT      API CODE     Curve Description
#---------    -------------  ------------------------
 DEPT     .FT        00 001 00 00          :  1  DEPTH   
 GAM(NAT) .API-GR    00 310 00 00          :  2             GAM(NAT)
 COND     .MMHO/M    00 000 00 00          :  3                 COND
 RES      .OHM-M     00 000 00 00          :  4                  RES
 TEMP     .DEG F     00 660 00 00          :  5                 TEMP
 AP-COND  .MMHO/M    00 000 00 00          :  6              AP-COND
 TEMP     .CPS       00 660 00 00          :  7                 TEMP
 AP-COND  .CPS       00 000 00 00          :  8              AP-COND
 TENSION  .POUNDS    00 000 00 00          :  9              TENSION
 TIME     .MINUTES   00 000 00 00          : 10                 TIME
~Parameter Information Block
#MNEM.UNIT   Information     Description
#---------- ---------------  ------------------------
~Other Information
#MNEM.UNIT  Information      Description
#---------- ---------------  ------------------------
 FILE.      ORIGINAL           File Type
 FIID.      9511A              File Type Identifier
 VERS.      1.0                System Version
 SER .      1                  System Serial Number
 TRUK.      0.5                Truck Calibration Number
 TOOL.         770             Tool Serial Number
 TIME.      05:18:             Time
 LAT .          None           Latitude
 LON .          None           Longitude
 LMF .           LSD           Log Measured From
 DMF .           LSD           Driller Measured From
 PD  .          None           Permanent Data
 PDEV.          None           Elevation Permanent Data
 EKB .M         None           Elevation Kelly Bushing
 ELEV.DF        None           Elevation DF
 EGL .M         None           Elevation Ground Level
 DRDP.         1990'           Driller's Depth
 CASD.         0               Casing Diameter
 CASB.          None           Casing Bottom
 CASX.          None           Casing Type
 CAST.         0               Casing Thickness
 TNOC.          None           Time Circulation Stopped
 LOGU.       WRRD              Logging Unit
 RECB.           Everett       Recorded By
 OSR1.       Pimente           Other Services
 OSR2.       mud vis           Other Services
 OSR3.           =62           Other Services
 BS  .MM           6           Bit Size
 MST .                         Mean Surface Temperature
 TGRD.        0                Temperature Gradiant
 MAGN.             0           Magnetic Declination
 MDEN.      2.71               Density Matrix
 MATR.       Dolomite          Neutron Matrix
 DTMT.            54           Delta T Matrix
 DTFL.                         Delta T Fluid
 MUDS.               0         Mud Sample Source
 MRS .           0             Mud Resistivity
 MTP .           0             Mud Temperature
 MFRS.                         Resistivity Mud Filtrate
 MFTP.                         Temperature Mud Filtrate
 MCRS.         0               Resistivity Mud Cake
 MCTP.                         Temperature Mud Cake
 FTYP.             0           Fluid Type
 FD  .K/M3                     Fluid Density
 DFV .S                        Fluid Viscosity
 FPH .                         Fuild PH
 ELCO.        2500             Electron Cutoff
# -------------------------- 
~A DEPTH  GAM(NAT) COND     RES      TEMP  AP-COND  TEMP  AP-COND  TENSION  TIME    
# ...
 648.800     10.1    343.2      2.9  86.5    303.2  28870.0 90930.0      0.0  0.10000 
 648.900     20.3    341.0      2.9  86.6    301.4  28875.0 90710.0      0.0  0.20000 
 649.000     30.4    341.5      2.9  86.5    301.8  28870.0 90760.0      0.0  0.20000 
 649.100     50.6    341.4      2.9  86.5    301.7  28870.0 90750.0      0.0  0.10000 
 649.200     20.3    337.6      3.0  86.6    298.5  28875.0 90360.0      0.0  0.20000 
 649.300     55.7    334.3      3.0  86.5    295.6  28870.0 90020.0      0.0  0.20000 
 649.400     50.6    334.2      3.0  86.5    295.5  28870.0 90010.0      0.0  0.10000 
 649.500     40.5    337.9      3.0  86.5    298.7  28870.0 90390.0      0.0  0.20000 
 649.600     35.4    340.5      2.9  86.7    300.9  28880.0 90650.0      0.0  0.20000 
 649.700     30.4    348.1      2.9  86.5    307.5  28870.0 91440.0      0.0  0.10000 
 649.800     50.6    363.7      2.7  86.5    321.0  28870.0 93040.0      0.0  0.20000 
 649.900     50.6    367.1      2.7  86.7    323.9  28880.0 93380.0      0.0  0.20000 
 650.000    101.3    366.2      2.7  86.5    323.1  28870.0 93290.0      0.0  0.10000 
 650.100     25.3    365.5      2.7  86.5    322.5  28870.0 93220.0      0.0  0.20000 
 650.200     60.8    361.9      2.8  86.7    319.4  28880.0 92850.0      0.0  0.20000 
 650.300     81.0    362.3      2.8  86.5    319.8  28870.0 92895.0      0.2  0.10000 
 650.400     75.9    357.3      2.8  86.6    315.4  28875.0 92375.0      0.2  0.20000 
 650.500     40.5    354.7      2.8  86.5    313.2  28870.0 92110.0      0.2  0.10000 
 650.600     81.0    348.4      2.9  86.5    307.7  28870.0 91465.0      0.7  0.20000 
 650.700     65.8    357.0      2.8  86.5    315.2  28870.0 92350.0      0.7  0.20000 
 650.800     30.4    370.6      2.7  86.5    326.9  28870.0 93740.0      0.7  0.10000 
 650.900     70.9    378.4      2.6  86.5    333.6  28870.0 94540.0      0.5  0.20000 
 651.000     20.3    376.1      2.7  86.7    331.7  28880.0 94310.0      0.9  0.20000 
 651.100     60.8    381.4      2.6  86.5    336.2  28870.0 94850.0      0.9  0.20000 
 651.200     10.1    378.3      2.6  86.6    333.5  28875.0 94535.0      0.4  0.10000 
 651.300     45.6    383.4      2.6  86.5    337.9  28870.0 95055.0      1.2  0.20000 
 651.400     20.3    391.7      2.6  86.5    345.1  28870.0 95910.0      1.2  0.10000 
 651.500     55.7    402.8      2.5  86.5    354.6  28870.0 97040.0      1.2  0.20000 
 651.600     20.3    403.0      2.5  86.5    354.8  28870.0 97060.0      1.2  0.20000 
 651.700     60.8    399.9      2.5  86.6    352.1  28875.0 96745.0      1.2  0.10000 
 651.800     35.4    401.4      2.5  86.5    353.5  28870.0 96905.0      1.2  0.20000 
 651.900     40.5    396.8      2.5  86.5    349.5  28870.0 96430.0      0.8  0.20000 
 652.000     40.5    390.6      2.6  86.5    344.1  28870.0 95795.0      0.8  0.10000 
 652.100     50.6    394.1      2.5  86.6    347.2  28875.0 96155.0      0.8  0.20000 
 652.200     30.4    405.1      2.5  86.5    356.6  28870.0 97280.0      1.0  0.10000 
 652.300     30.4    413.8      2.4  86.6    364.0  28875.0 98165.0      1.0  0.20000 
 652.400     35.4    422.5      2.4  86.5    371.6  28870.0 99060.0      1.0  0.20000 
 652.500     70.9    430.4      2.3  86.6    378.3  28875.0 99865.0      0.6  0.10000 
 652.600    101.3    434.8      2.3  86.6    382.2  28875.0 100320.0     0.8  0.20000 
 652.700     75.9    434.4      2.3  86.5    381.7  28870.0 100270.0     0.8  0.20000 
 652.800     70.9    432.7      2.3  86.6    380.4  28875.0 100105.0     0.8  0.10000 
 652.900     55.7    429.2      2.3  86.5    377.3  28870.0 99745.0      0.2  0.20000 
 653.000     40.5    430.7      2.3  86.7    378.6  28880.0 99900.0      0.2  0.10000 
 653.100     55.7    426.8      2.3  86.5    375.3  28870.0 99500.0      0.2  0.20000 
 653.200     50.6    420.8      2.4  86.7    370.1  28880.0 98880.0      0.3  0.20000 
 653.300     70.9    416.7      2.4  86.5    366.6  28870.0 98470.0      0.3  0.20000 
 653.400     30.4    419.5      2.4  86.6    369.0  28875.0 98750.0      0.3  0.10000 
 653.500     54.0    423.3      2.4  86.6    372.2  28875.0 99140.0      1.0  0.20000 
 653.600     91.1    431.3      2.3  86.5    379.1  28870.0 99960.0      1.0  0.10000 
 653.700     35.4    440.4      2.3  86.6    386.9  28875.0 100885.0     1.0  0.20000 
 653.800     50.6    451.5      2.2  86.5    396.4  28870.0 102020.0     2.0  0.20000 
 653.900     81.0    454.8      2.2  86.6    399.3  28875.0 102355.0     3.2  0.10000 
 654.000     65.8    454.5      2.2  86.6    399.0  28875.0 102330.0     3.2  0.20000 
 654.100     30.4    452.3      2.2  86.5    397.1  28870.0 102100.0     4.7  0.20000 
 654.200     60.8    449.4      2.2  86.6    394.6  28875.0 101805.0     5.8  0.10000 
 654.300     50.6    446.3      2.2  86.6    391.9  28875.0 101485.0     5.8  0.21000 
 654.400     81.0    444.2      2.3  86.5    390.2  28870.0 101280.0     4.5  0.22000 
 654.500     40.5    445.0      2.2  86.6    390.9  28875.0 101360.0     3.3  0.11000 
 654.600     40.5    445.6      2.2  86.6    391.4  28875.0 101415.0     3.3  0.22000 
 654.700     70.9    448.4      2.2  86.5    393.7  28870.0 101700.0     1.1  0.22000 
 654.800     35.4    447.8      2.2  86.6    393.3  28875.0 101645.0     0.0  0.11000 
 654.900     30.4    447.1      2.2  86.6    392.7  28875.0 101570.0     0.0  0.11000 
 655.000     50.6    450.9      2.2  86.7    395.9  28880.0 101960.0     0.0  0.20000 
 655.100     20.3    455.3      2.2  86.5    399.7  28870.0 102405.0     0.0  0.10000 
 655.200     81.0    453.5      2.2  86.6    398.2  28875.0 102225.0     0.0  0.20000 
 655.300     35.4    450.7      2.2  86.7    395.8  28880.0 101940.0     0.0  0.20000 
 655.400     91.1    453.2      2.2  86.6    397.9  28875.0 102195.0     0.0  0.10000 
 655.500     81.0    457.8      2.2  86.6    401.9  28875.0 102665.0     0.0  0.20000 
 655.600     55.7    458.4      2.2  86.5    402.4  28870.0 102730.0     0.0  0.10000 
 655.700     40.5    460.7      2.2  86.6    404.3  28875.0 102960.0     0.0  0.20000 
 655.800     50.6    462.2      2.2  86.7    405.6  28880.0 103110.0     0.0  0.20000 
 655.900     30.4    461.5      2.2  86.5    405.0  28870.0 103045.0     0.0  0.10000 
 656.000     75.9    460.3      2.2  86.6    404.0  28875.0 102920.0     0.0  0.20000 
 656.100     40.5    462.7      2.2  86.7    406.0  28880.0 103160.0     0.0  0.20000 
 656.200     50.6    464.3      2.2  86.6    407.5  28875.0 103330.0     0.0  0.10000 
 656.300     30.4    462.5      2.2  86.6    405.9  28875.0 103145.0     0.0  0.20000 
 656.400     60.8    460.9      2.2  86.5    404.5  28870.0 102980.0     0.3  0.20000 
 656.500     35.4    458.8      2.2  86.6    402.7  28875.0 102765.0     0.3  0.10000 
 656.600     70.9    455.9      2.2  86.6    400.2  28875.0 102465.0     0.3  0.20000 
 656.700     30.4    455.1      2.2  86.7    399.6  28880.0 102390.0     0.3  0.20000 
 656.800     30.4    451.2      2.2  86.6    396.1  28875.0 101985.0     0.3  0.10000 
 656.900     65.8    450.5      2.2  86.6    395.6  28875.0 101920.0     0.3  0.20000 
 657.000     40.5    446.7      2.2  86.5    392.3  28870.0 101530.0     0.1  0.20000 
 657.100     30.4    447.0      2.2  86.6    392.6  28875.0 101560.0     0.1  0.22000 
 657.200     15.2    446.1      2.2  86.6    391.8  28875.0 101465.0     0.1  0.11000 
 657.300     47.3    445.2      2.2  86.6    391.0  28875.0 101375.0     0.6  0.22000 
 657.400     47.3    444.4      2.3  86.5    390.4  28870.0 101300.0     0.6  0.22000 
 657.500     40.5    442.2      2.3  86.6    388.5  28875.0 101075.0     0.6  0.11000 
 657.600     65.8    439.6      2.3  86.6    386.2  28875.0 100805.0     2.8  0.11000 
 657.700     60.8    440.1      2.3  86.7    386.7  28880.0 100860.0     2.8  0.21000 
 657.800     40.5    438.3      2.3  86.5    385.1  28870.0 100670.0     2.8  0.10000 
 657.900     40.5    432.6      2.3  86.7    380.3  28876.7 100093.3     2.8  0.20000 
