~Version Information
 VERS.                2.0:  CWLS LOG ASCII STANDARD -VERSION 2.0
 WRAP.                 NO:  ONE LINE PER DEPTH STEP
~WELL INFORMATION BLOCK
#MNEM.UNIT       DATA		            DESCRIPTION OF MNEMONIC
#---------    -------------            ------------------------
 STRT.FT  1.400                          :START DEPTH
 STOP.FT  1872.000                       :STOP DEPTH
 STEP.FT  0.100                          :STEP    UP_HOLE  
 NULL.    0                              :NULL VALUE
 COMP.                            USGS   :COMPANY
 WELL.                      MCWD-DMW #1  :WELL
 FLD .                           Marina  :FIELD
 LOC .    None  None  None               :LOCATION
 CNTY.                         Monterey  :COUNTY
 STAT.             California            :STATE
 SRVC.    Western Reg                    :SERVICE COMPANY
 DATE.   05/27/00                        :LOG DATE
 UWI .                       	         :UNIQUE WELL ID
 LIC .                                   :LICENSE NUMBER
~Curve Information Block
#MNEM.UNIT      API CODE     Curve Description
#---------    -------------  ------------------------
 DEPT     .FT        00 001 00 00          :  1  DEPTH   
 TIME(N)  .USEC      00 000 00 00          :  2              TIME(N)
 TIME(F)  .USEC      00 000 00 00          :  3              TIME(F)
 DELTAT   .USEC/FT   00 522 00 00          :  4               DELTAT
 AMP(N)   .MV        00 000 00 00          :  5               AMP(N)
 AMP(F)   .MV        00 000 00 00          :  6               AMP(F)
 XTR PWR  .PERCENT   00 000 00 00          :  7              XTR PWR
 POR(SON) .PERCENT   00 890 00 00          :  8             POR(SON)
 BHC-DELT .USEC/FT   00 520 00 00          :  9             BHC-DELT
 TENSION  .POUNDS    00 000 00 00          : 10              TENSION
 TIME     .MINUTES   00 000 00 00          : 11                 TIME
~Parameter Information Block
#MNEM.UNIT   Information     Description
#---------- ---------------  ------------------------
~Other Information
#MNEM.UNIT  Information      Description
#---------- ---------------  ------------------------
 FILE.      ORIGINAL           File Type
 FIID.      9300A              File Type Identifier
 VERS.      1.0                System Version
 SER .      1                  System Serial Number
 TRUK.      0.5                Truck Calibration Number
 TOOL.         691             Tool Serial Number
 TIME.      07:18:             Time
 LAT .          None           Latitude
 LON .          None           Longitude
 LMF .           LSD           Log Measured From
 DMF .           LSD           Driller Measured From
 PD  .          None           Permanent Data
 PDEV.          None           Elevation Permanent Data
 EKB .M         None           Elevation Kelly Bushing
 ELEV.DF        None           Elevation DF
 EGL .M         None           Elevation Ground Level
 DRDP.         1990'           Driller's Depth
 CASD.         0               Casing Diameter
 CASB.          None           Casing Bottom
 CASX.          None           Casing Type
 CAST.         0               Casing Thickness
 TNOC.          None           Time Circulation Stopped
 LOGU.       WRRD              Logging Unit
 RECB.           Everett       Recorded By
 OSR1.       Pimente           Other Services
 OSR2.       mud vis           Other Services
 OSR3.           =62           Other Services
 BS  .MM           6           Bit Size
 MST .                         Mean Surface Temperature
 TGRD.        0                Temperature Gradiant
 MAGN.             0           Magnetic Declination
 MDEN.      2.71               Density Matrix
 MATR.       Dolomite          Neutron Matrix
 DTMT.            54           Delta T Matrix
 DTFL.                         Delta T Fluid
 MUDS.               0         Mud Sample Source
 MRS .           0             Mud Resistivity
 MTP .           0             Mud Temperature
 MFRS.                         Resistivity Mud Filtrate
 MFTP.                         Temperature Mud Filtrate
 MCRS.         0               Resistivity Mud Cake
 MCTP.                         Temperature Mud Cake
 FTYP.             0           Fluid Type
 FD  .K/M3                     Fluid Density
 DFV .S                        Fluid Viscosity
 FPH .                         Fuild PH
 ELCO.        2500             Electron Cutoff
# -------------------------- 
~A DEPTH  TIME(N) TIME(F) DELTAT AMP(N)   AMP(F)   XTR PWR POR(SON) BHC-DELT TENSION  TIME    
# ...
 375.400   621     776    155.6   2868.5   2265.5  16.8    40.8      153         1.6  0.20000 
 375.500   621     777    156.4   2931.0   2198.5  15.9    40.9      154         0.5  0.20000 
 375.600   621     778    156.9   3066.5   2312.0  15.0    41.0      155         0.5  0.20000 
 375.700   621     778    157.3   3238.5   2362.0  14.7    41.1      155         0.5  0.20000 
 375.800   621     779    157.9   3344.0   2214.5  14.9    41.2      156         0.2  0.20000 
 375.900   622     780    158.6   3183.0   1987.0  15.2    41.3      157         0.2  0.20000 
 376.000   622     782    159.7   3163.0   1915.0  15.3    41.5      158         0.2  0.20000 
 376.100   622     783    160.4   3514.0   2195.0  15.4    41.6      159         0.0  0.20000 
 376.200   622     783    160.8   4065.0   2344.5  15.5    41.6      159         0.0  0.20000 
 376.300   621     782    161.3   4754.0   2312.0  15.7    41.7      160         0.0  0.20000 
 376.400   621     782    161.1   5602.0   2230.5  15.8    41.8      160         0.0  0.10000 
 376.500   621     782    161.6   6357.5   2149.0  15.3    41.9      161         0.0  0.20000 
 376.600   620     782    161.9   6520.0   2040.0  14.7    41.9      161         0.0  0.20000 
 376.700   619     781    162.4   6221.5   1852.5  15.2    41.9      161         0.0  0.20000 
 376.800   618     781    163.1   5782.5   1771.5  17.4    41.9      161         0.0  0.20000 
 376.900   616     780    163.4   5358.5   1737.0  20.1    41.9      161         0.0  0.20000 
 377.000   614     778    164.2   4829.5   1580.5  23.1    41.9      161         0.0  0.20000 
 377.100   612     777    164.7   4955.0   1522.0  25.3    41.9      161         0.0  0.20000 
 377.200   610     774    164.1   5003.0   1667.0  27.6    41.9      161         0.0  0.20000 
 377.300   607     771    164.0   4363.0   1800.5  30.8    41.8      161         0.0  0.20000 
 377.400   605     769    164.1   3273.5   1979.5  34.1    41.8      161         0.0  0.10000 
 377.500   603     767    164.3   2480.5   2129.5  37.5    41.9      161         0.0  0.20000 
 377.600   601     766    164.6   2446.0   2314.0  41.0    41.9      161         0.0  0.20000 
 377.700   600     764    164.8   2382.5   2519.0  44.5    41.9      161         0.0  0.20000 
 377.800   598     763    164.8   2331.5   2756.0  48.2    41.9      162         0.0  0.20000 
 377.900   597     761    164.1   2620.5   3236.5  51.3    41.9      162         0.0  0.20000 
 378.000   595     758    162.9   2962.5   3472.5  51.5    41.9      161         0.0  0.20000 
 378.100   594     756    161.8   3194.0   3525.5  50.3    41.9      161         0.0  0.10000 
 378.200   592     753    160.4   3248.5   3244.5  49.1    41.8      161         0.0  0.20000 
 378.300   591     750    158.9   3221.0   2718.5  47.0    41.7      160         0.0  0.20000 
 378.400   590     748    157.8   2962.0   2230.0  44.6    41.7      159         0.0  0.20000 
 378.500   591     747    156.6   2830.0   1950.5  42.5    41.6      159         0.0  0.20000 
 378.600   591     747    155.8   2987.0   1901.0  40.9    41.6      159         0.0  0.20000 
 378.700   592     747    154.9   3191.5   1843.5  39.5    41.5      158         0.0  0.20000 
 378.800   593     746    153.0   3157.5   1683.5  38.5    41.4      157         0.0  0.20000 
 378.900   593     745    152.3   2743.0   1472.0  37.9    41.3      157         0.0  0.20000 
 379.000   594     746    151.9   2405.0   1331.0  37.5    41.4      157         0.0  0.20000 
 379.100   596     746    150.4   2166.5   1256.0  38.4    41.3      157         0.0  0.20000 
 379.200   599     747    148.3   1972.0   1312.5  41.0    41.1      155         0.0  0.20000 
 379.300   602     748    145.9   2016.5   1544.0  43.9    40.9      154         0.0  0.10000 
 379.400   605     749    144.1   2157.0   1855.5  45.3    40.7      153         0.0  0.20000 
 379.500   607     750    142.2   2491.0   2306.0  45.0    40.6      152         0.0  0.20000 
 379.600   610     751    140.4   2744.0   2942.0  43.1    40.4      151         0.0  0.20000 
 379.700   612     752    139.5   2551.0   3105.5  40.2    40.3      150         0.0  0.20000 
 379.800   614     753    138.8   2404.0   2797.5  37.3    40.2      149         0.0  0.20000 
 379.900   616     754    137.6   2239.0   2363.0  34.8    40.0      148         0.0  0.20000 
 380.000   618     754    136.7   2180.0   1949.5  32.8    39.7      146         0.0  0.20000 
 380.100   620     756    135.9   2194.0   1770.0  31.0    39.5      145         0.0  0.20000 
 380.200   621     758    137.0   2440.0   1782.5  28.3    39.5      145         0.0  0.20000 
 380.300   621     760    139.1   2833.0   1910.5  24.5    39.5      145         0.3  0.20000 
 380.400   620     762    141.5   2983.5   1938.5  21.4    39.5      145         0.3  0.10000 
 380.500   619     763    143.9   3252.5   1817.5  19.1    39.6      145         0.3  0.20000 
 380.600   620     766    146.3   3462.0   1352.0  18.4    39.7      146         1.3  0.20000 
 380.700   621     770    149.1   3474.5    971.5  17.9    39.9      147         1.3  0.20000 
 380.800   622     774    152.3   3409.0    747.5  18.8    40.1      149         1.5  0.20000 
 380.900   622     777    154.7   3698.5    655.0  20.1    40.3      150         3.1  0.20000 
 381.000   622     814    191.4   3942.0   2537.0  21.0    42.7      168         3.1  0.20000 
 381.100   622     816    193.1   4027.0   2545.0  20.3    42.8      169         2.9  0.20000 
 381.200   622     816    194.7   3921.0   2758.5  19.2    42.9      169         2.9  0.20000 
 381.300   621     816    195.6   3949.5   2862.0  18.6    42.9      169         2.7  0.20000 
 381.400   620     817    197.4   3924.5   2378.5  18.1    43.0      170         0.8  0.10000 
 381.500   620     808    188.8   3968.5   1831.0  18.3    42.6      166         0.8  0.20000 
 381.600   619     778    158.4   4105.5   1007.5  19.0    40.6      152         0.8  0.20000 
 381.700   618     778    159.1   4358.5   1290.5  20.6    40.8      153         0.8  0.20000 
 381.800   618     778    160.1   4726.5   1354.0  21.8    40.9      154         1.0  0.20000 
 381.900   617     777    160.7   4961.5   1314.0  22.9    41.0      155         1.0  0.20000 
 382.000   616     778    161.6   4794.0   1419.5  23.1    41.2      156         1.0  0.20000 
 382.100   615     778    162.6   4858.0   1602.0  23.0    41.4      157         1.0  0.20000 
 382.200   615     777    162.1   5006.0   1808.0  22.9    41.5      158         0.2  0.20000 
 382.300   614     776    161.6   4964.0   1696.5  23.4    41.6      159         0.0  0.20000 
 382.400   614     776    162.0   3815.0   1276.0  25.2    41.8      160         0.0  0.20000 
 382.500   615     778    163.4   3568.5    994.5  27.5    41.9      161         0.0  0.20000 
 382.600   615     779    164.1   3434.5    890.5  29.9    42.0      162         0.0  0.20000 
 382.700   614     778    163.9   3111.5    792.5  32.0    42.0      162         0.0  0.10000 
 382.800   615     777    161.7   2962.5    833.0  33.6    41.9      161         0.0  0.20000 
 382.900   617     776    158.9   2689.5   1015.0  36.0    41.7      160         0.0  0.20000 
 383.000   618     775    157.3   1976.0   1179.5  35.6    41.6      159         0.0  0.20000 
 383.100   615     775    159.3   1661.5   1296.5  35.1    41.7      160         0.0  0.20000 
 383.200   616     774    158.4   2278.0   1474.0  34.5    41.6      159         0.0  0.20000 
 383.300   617     774    156.9   2837.5   1488.0  33.5    41.4      158         0.0  0.20000 
 383.400   620     775    155.7   3125.0   1235.3  32.1    41.2      156         0.0  0.20000 
 383.500   622     776    154.7   3082.0   1263.0  28.9    41.1      155         0.0  0.20000 
 383.600   623     779    156.2   3126.5   1352.5  24.8    41.2      156         0.0  0.20000 
 383.700   624     781    157.1   3439.5   1520.0  21.9    41.4      157         0.0  0.10000 
 383.800   624     782    157.2   4334.5   1570.0  20.4    41.5      158         0.0  0.20000 
