~Version Information
 VERS.                2.0:  CWLS LOG ASCII STANDARD -VERSION 2.0
 WRAP.                 NO:  ONE LINE PER DEPTH STEP
~WELL INFORMATION BLOCK
#MNEM.UNIT       DATA		            DESCRIPTION OF MNEMONIC
#---------    -------------            ------------------------
 STRT.FT  41.500                         :START DEPTH
 STOP.FT  1871.500                       :STOP DEPTH
 STEP.FT  0.100                          :STEP    UP_HOLE  
 NULL.    0                              :NULL VALUE
 COMP.                            USGS   :COMPANY
 WELL.                      MCWD-DMW #1  :WELL
 FLD .                           Marina  :FIELD
 LOC .    None  None  None               :LOCATION
 CNTY.                         Monterey  :COUNTY
 STAT.             California            :STATE
 SRVC.    Western Reg                    :SERVICE COMPANY
 DATE.   05/27/00                        :LOG DATE
 UWI .                       	         :UNIQUE WELL ID
 LIC .                                   :LICENSE NUMBER
~Curve Information Block
#MNEM.UNIT      API CODE     Curve Description
#---------    -------------  ------------------------
 DEPT     .FT        00 001 00 00          :  1  DEPTH   
 GAM(NAT) .API-GR    00 310 00 00          :  2             GAM(NAT)
 COND     .MMHO/M    00 000 00 00          :  3                 COND
 RES      .OHM-M     00 000 00 00          :  4                  RES
 TEMP     .DEG F     00 660 00 00          :  5                 TEMP
 AP-COND  .MMHO/M    00 000 00 00          :  6              AP-COND
 TEMP     .CPS       00 660 00 00          :  7                 TEMP
 AP-COND  .CPS       00 000 00 00          :  8              AP-COND
 TENSION  .POUNDS    00 000 00 00          :  9              TENSION
 TIME     .MINUTES   00 000 00 00          : 10                 TIME
~Parameter Information Block
#MNEM.UNIT   Information     Description
#---------- ---------------  ------------------------
~Other Information
#MNEM.UNIT  Information      Description
#---------- ---------------  ------------------------
 FILE.      ORIGINAL           File Type
 FIID.      9511A              File Type Identifier
 VERS.      1.0                System Version
 SER .      1                  System Serial Number
 TRUK.      0.5                Truck Calibration Number
 TOOL.         770             Tool Serial Number
 TIME.      05:18:             Time
 LAT .          None           Latitude
 LON .          None           Longitude
 LMF .           LSD           Log Measured From
 DMF .           LSD           Driller Measured From
 PD  .          None           Permanent Data
 PDEV.          None           Elevation Permanent Data
 EKB .M         None           Elevation Kelly Bushing
 ELEV.DF        None           Elevation DF
 EGL .M         None           Elevation Ground Level
 DRDP.         1990'           Driller's Depth
 CASD.         0               Casing Diameter
 CASB.          None           Casing Bottom
 CASX.          None           Casing Type
 CAST.         0               Casing Thickness
 TNOC.          None           Time Circulation Stopped
 LOGU.       WRRD              Logging Unit
 RECB.           Everett       Recorded By
 OSR1.       Pimente           Other Services
 OSR2.       mud vis           Other Services
 OSR3.           =62           Other Services
 BS  .MM           6           Bit Size
 MST .                         Mean Surface Temperature
 TGRD.        0                Temperature Gradiant
 MAGN.             0           Magnetic Declination
 MDEN.      2.71               Density Matrix
 MATR.       Dolomite          Neutron Matrix
 DTMT.            54           Delta T Matrix
 DTFL.                         Delta T Fluid
 MUDS.               0         Mud Sample Source
 MRS .           0             Mud Resistivity
 MTP .           0             Mud Temperature
 MFRS.                         Resistivity Mud Filtrate
 MFTP.                         Temperature Mud Filtrate
 MCRS.         0               Resistivity Mud Cake
 MCTP.                         Temperature Mud Cake
 FTYP.             0           Fluid Type
 FD  .K/M3                     Fluid Density
 DFV .S                        Fluid Viscosity
 FPH .                         Fuild PH
 ELCO.        2500             Electron Cutoff
# -------------------------- 
~A DEPTH  GAM(NAT) COND     RES      TEMP  AP-COND  TEMP  AP-COND  TENSION  TIME    
# ...
1743.600     50.6     71.6     14.0  97.2     65.6  29420.0 62545.0      2.3  0.20000 
1743.700     45.6     71.3     14.0  97.2     65.3  29420.0 62505.0      2.9  0.20000 
1743.800     70.9     70.8     14.1  97.2     64.9  29420.0 62455.0      2.9  0.20000 
1743.900     60.8     72.0     13.9  97.2     66.0  29420.0 62585.0      2.4  0.20000 
1744.000     20.3     72.6     13.8  97.2     66.5  29420.0 62645.0      1.0  0.20000 
1744.100     35.4     72.1     13.9  97.2     66.1  29420.0 62595.0      0.8  0.20000 
1744.200     50.6     72.0     13.9  97.2     65.9  29420.0 62580.0      0.0  0.20000 
1744.300     45.6     74.8     13.4  97.2     68.5  29420.0 62880.0      0.0  0.20000 
1744.400     40.5     71.4     14.0  97.2     65.4  29420.0 62515.0      0.3  0.10000 
1744.500     45.6     73.3     13.6  97.2     67.1  29420.0 62720.0      1.4  0.20000 
1744.600     86.1     75.4     13.3  97.2     69.0  29420.0 62940.0      1.4  0.20000 
1744.700     86.1     74.4     13.4  97.2     68.1  29420.0 62840.0      2.0  0.20000 
1744.800     50.6     75.2     13.3  97.2     68.8  29420.0 62925.0      4.8  0.20000 
1744.900     81.0     76.3     13.1  97.2     69.8  29420.0 63040.0      4.8  0.20000 
1745.000     65.8     75.3     13.3  97.1     68.9  29415.0 62940.0      5.8  0.20000 
1745.100     55.7     75.8     13.2  97.2     69.3  29420.0 62985.0      8.1  0.20000 
1745.200     30.4     78.2     12.8  97.2     71.5  29420.0 63240.0      8.6  0.20000 
1745.300     50.6     77.3     12.9  97.2     70.7  29420.0 63150.0      8.3  0.20000 
1745.400     64.1     78.2     12.8  97.2     71.5  29420.0 63245.0      8.3  0.20000 
1745.500     65.8     80.4     12.4  97.2     73.5  29420.0 63475.0      7.7  0.20000 
1745.600     91.1     80.2     12.5  97.2     73.3  29420.0 63455.0      5.4  0.20000 
1745.700     50.6     79.4     12.6  97.2     72.6  29420.0 63370.0      4.3  0.20000 
1745.800     30.4     81.8     12.2  97.2     74.7  29420.0 63620.0      2.9  0.10000 
1745.900     50.6     83.5     12.0  97.2     76.3  29420.0 63810.0      2.9  0.20000 
1746.000     70.9     81.8     12.2  97.2     74.7  29420.0 63620.0      2.4  0.20000 
1746.100     60.8     82.5     12.1  97.2     75.3  29420.0 63700.0      2.7  0.20000 
1746.200     40.5     84.8     11.8  97.2     77.4  29420.0 63945.0      2.7  0.20000 
1746.300     55.7     84.0     11.9  97.2     76.6  29420.0 63855.0      2.8  0.20000 
1746.400     40.5     85.7     11.7  97.2     78.2  29420.0 64035.0      2.5  0.20000 
1746.500     50.6     85.4     11.7  97.2     77.9  29420.0 64005.0      2.3  0.20000 
1746.600     50.6     87.1     11.5  97.2     79.5  29420.0 64190.0      0.9  0.20000 
1746.700     55.7     86.8     11.5  97.2     79.1  29420.0 64150.0      0.9  0.20000 
1746.800     70.9     88.7     11.3  97.2     80.9  29420.0 64360.0      0.8  0.20000 
1746.900     45.6     90.7     11.0  97.2     82.7  29420.0 64570.0      0.3  0.10000 
1747.000     60.8     89.6     11.2  97.2     81.7  29420.0 64455.0      0.8  0.20000 
1747.100     50.6     90.6     11.0  97.2     82.6  29420.0 64560.0      1.7  0.20000 
1747.200     40.5     89.2     11.2  97.2     81.3  29420.0 64405.0      1.7  0.20000 
1747.300     55.7     90.0     11.1  97.2     82.0  29420.0 64495.0      2.1  0.20000 
1747.400     60.8     91.1     11.0  97.2     83.0  29420.0 64615.0      1.8  0.20000 
1747.500     81.0     91.7     10.9  97.2     83.5  29420.0 64675.0      1.8  0.20000 
1747.600     65.8     92.4     10.8  97.2     84.1  29420.0 64745.0      1.8  0.20000 
1747.700     50.6     91.8     10.9  97.2     83.6  29420.0 64680.0      1.2  0.20000 
1747.800     45.6     93.9     10.6  97.2     85.5  29420.0 64910.0      0.8  0.20000 
1747.900     60.8     92.8     10.8  97.2     84.5  29420.0 64795.0      0.8  0.20000 
1748.000     20.3     93.1     10.7  97.2     84.8  29420.0 64825.0      2.9  0.20000 
1748.100     45.6     93.0     10.8  97.2     84.7  29420.0 64810.0      3.3  0.10000 
1748.200    101.3     92.8     10.8  97.2     84.5  29420.0 64790.0      5.1  0.20000 
1748.300     50.6     92.2     10.8  97.2     84.0  29420.0 64730.0      6.0  0.20000 
1748.400     45.6     93.2     10.7  97.2     84.8  29420.0 64830.0      6.0  0.20000 
1748.500     50.6     92.9     10.8  97.2     84.6  29420.0 64805.0      3.5  0.20000 
1748.600     81.0     92.4     10.8  97.2     84.2  29420.0 64750.0      3.1  0.20000 
1748.700     50.6     92.4     10.8  97.2     84.2  29420.0 64750.0      3.1  0.20000 
1748.800     25.3     92.5     10.8  97.2     84.2  29420.0 64755.0      1.5  0.20000 
1748.900     50.6     93.4     10.7  97.2     85.0  29420.0 64855.0      1.4  0.20000 
1749.000     45.6     95.1     10.5  97.2     86.5  29420.0 65030.0      2.9  0.21000 
1749.100     60.8     92.5     10.8  97.2     84.2  29420.0 64755.0      5.0  0.11000 
1749.200     60.8     94.2     10.6  97.2     85.8  29420.0 64940.0      5.0  0.22000 
1749.300     50.6     95.0     10.5  97.2     86.4  29420.0 65020.0      6.4  0.22000 
1749.400     50.6     92.2     10.8  97.2     84.0  29420.0 64730.0      5.6  0.22000 
1749.500     60.8     92.5     10.8  97.2     84.2  29420.0 64760.0      5.6  0.11000 
1749.600     50.6     91.8     10.9  97.2     83.7  29420.0 64690.0      4.0  0.21000 
1749.700     75.9     95.0     10.5  97.2     86.4  29420.0 65020.0      1.9  0.20000 
1749.800     45.6     92.2     10.9  97.2     83.9  29420.0 64723.3      1.9  0.20000 
1749.900     65.8     91.1     11.0  97.2     83.0  29420.0 64610.0      1.5  0.20000 
1750.000     55.7     93.2     10.7  97.2     84.8  29420.0 64830.0      2.8  0.20000 
1750.100     45.6     91.7     10.9  97.2     83.5  29420.0 64675.0      4.1  0.20000 
1750.200     75.9     90.8     11.0  97.2     82.7  29420.0 64575.0      7.0  0.22000 
1750.300     75.9     90.6     11.0  97.2     82.5  29420.0 64555.0      7.0  0.11000 
1750.400     55.7     91.2     11.0  97.2     83.1  29420.0 64620.0      6.5  0.22000 
1750.500     60.8     89.0     11.2  97.2     81.1  29420.0 64390.0      5.2  0.22000 
1750.600     60.8     90.5     11.0  97.2     82.5  29420.0 64550.0      5.5  0.22000 
1750.700     60.8     90.1     11.1  97.2     82.1  29420.0 64510.0      4.4  0.11000 
1750.800     70.9     89.5     11.2  97.2     81.6  29420.0 64440.0      1.5  0.20000 
1750.900     45.6     90.4     11.1  97.2     82.4  29420.0 64540.0      0.5  0.20000 
1751.000    111.4     89.3     11.2  97.2     81.4  29420.0 64425.0      0.5  0.20000 
1751.100     25.3     88.2     11.3  97.2     80.4  29420.0 64300.0      0.7  0.20000 
1751.200     35.4     88.2     11.3  97.2     80.4  29420.0 64300.0      1.5  0.20000 
1751.300     45.6     87.2     11.5  97.2     79.5  29420.0 64200.0      3.9  0.10000 
1751.400     60.8     85.8     11.7  97.2     78.2  29420.0 64045.0      3.9  0.20000 
1751.500     60.8     84.2     11.9  97.2     76.9  29420.0 63880.0      4.9  0.20000 
1751.600     55.7     85.2     11.7  97.2     77.8  29420.0 63990.0      6.0  0.20000 
1751.700     50.6     83.5     12.0  97.2     76.2  29420.0 63800.0      6.0  0.20000 
1751.800     50.6     83.4     12.0  97.2     76.1  29420.0 63795.0      5.1  0.20000 
1751.900     65.8     81.3     12.3  97.2     74.3  29420.0 63570.0      4.1  0.20000 
1752.000     70.9     78.6     12.7  97.2     71.9  29420.0 63285.0      3.5  0.20000 
1752.100     45.6     78.7     12.7  97.2     72.0  29420.0 63300.0      2.2  0.20000 
1752.200     40.5     77.3     12.9  97.2     70.7  29420.0 63150.0      2.2  0.20000 
1752.300     25.3     74.7     13.4  97.2     68.3  29420.0 62865.0      2.0  0.22000 
1752.400     30.4     73.7     13.6  97.2     67.5  29420.0 62765.0      0.4  0.11000 
1752.500     86.1     70.2     14.2  97.2     64.4  29420.0 62395.0      0.0  0.22000 
1752.600     60.8     70.5     14.2  97.2     64.6  29420.0 62420.0      0.2  0.22000 
1752.700     65.8     67.3     14.9  97.2     61.7  29420.0 62080.0      0.2  0.22000 
