~Version Information
 VERS.                2.0:  CWLS LOG ASCII STANDARD -VERSION 2.0
 WRAP.                 NO:  ONE LINE PER DEPTH STEP
~WELL INFORMATION BLOCK
#MNEM.UNIT       DATA		            DESCRIPTION OF MNEMONIC
#---------    -------------            ------------------------
 STRT.FT  1.400                          :START DEPTH
 STOP.FT  1872.000                       :STOP DEPTH
 STEP.FT  0.100                          :STEP    UP_HOLE  
 NULL.    0                              :NULL VALUE
 COMP.                            USGS   :COMPANY
 WELL.                      MCWD-DMW #1  :WELL
 FLD .                           Marina  :FIELD
 LOC .    None  None  None               :LOCATION
 CNTY.                         Monterey  :COUNTY
 STAT.             California            :STATE
 SRVC.    Western Reg                    :SERVICE COMPANY
 DATE.   05/27/00                        :LOG DATE
 UWI .                       	         :UNIQUE WELL ID
 LIC .                                   :LICENSE NUMBER
~Curve Information Block
#MNEM.UNIT      API CODE     Curve Description
#---------    -------------  ------------------------
 DEPT     .FT        00 001 00 00          :  1  DEPTH   
 TIME(N)  .USEC      00 000 00 00          :  2              TIME(N)
 TIME(F)  .USEC      00 000 00 00          :  3              TIME(F)
 DELTAT   .USEC/FT   00 522 00 00          :  4               DELTAT
 AMP(N)   .MV        00 000 00 00          :  5               AMP(N)
 AMP(F)   .MV        00 000 00 00          :  6               AMP(F)
 XTR PWR  .PERCENT   00 000 00 00          :  7              XTR PWR
 POR(SON) .PERCENT   00 890 00 00          :  8             POR(SON)
 BHC-DELT .USEC/FT   00 520 00 00          :  9             BHC-DELT
 TENSION  .POUNDS    00 000 00 00          : 10              TENSION
 TIME     .MINUTES   00 000 00 00          : 11                 TIME
~Parameter Information Block
#MNEM.UNIT   Information     Description
#---------- ---------------  ------------------------
~Other Information
#MNEM.UNIT  Information      Description
#---------- ---------------  ------------------------
 FILE.      ORIGINAL           File Type
 FIID.      9300A              File Type Identifier
 VERS.      1.0                System Version
 SER .      1                  System Serial Number
 TRUK.      0.5                Truck Calibration Number
 TOOL.         691             Tool Serial Number
 TIME.      07:18:             Time
 LAT .          None           Latitude
 LON .          None           Longitude
 LMF .           LSD           Log Measured From
 DMF .           LSD           Driller Measured From
 PD  .          None           Permanent Data
 PDEV.          None           Elevation Permanent Data
 EKB .M         None           Elevation Kelly Bushing
 ELEV.DF        None           Elevation DF
 EGL .M         None           Elevation Ground Level
 DRDP.         1990'           Driller's Depth
 CASD.         0               Casing Diameter
 CASB.          None           Casing Bottom
 CASX.          None           Casing Type
 CAST.         0               Casing Thickness
 TNOC.          None           Time Circulation Stopped
 LOGU.       WRRD              Logging Unit
 RECB.           Everett       Recorded By
 OSR1.       Pimente           Other Services
 OSR2.       mud vis           Other Services
 OSR3.           =62           Other Services
 BS  .MM           6           Bit Size
 MST .                         Mean Surface Temperature
 TGRD.        0                Temperature Gradiant
 MAGN.             0           Magnetic Declination
 MDEN.      2.71               Density Matrix
 MATR.       Dolomite          Neutron Matrix
 DTMT.            54           Delta T Matrix
 DTFL.                         Delta T Fluid
 MUDS.               0         Mud Sample Source
 MRS .           0             Mud Resistivity
 MTP .           0             Mud Temperature
 MFRS.                         Resistivity Mud Filtrate
 MFTP.                         Temperature Mud Filtrate
 MCRS.         0               Resistivity Mud Cake
 MCTP.                         Temperature Mud Cake
 FTYP.             0           Fluid Type
 FD  .K/M3                     Fluid Density
 DFV .S                        Fluid Viscosity
 FPH .                         Fuild PH
 ELCO.        2500             Electron Cutoff
# -------------------------- 
~A DEPTH  TIME(N) TIME(F) DELTAT AMP(N)   AMP(F)   XTR PWR POR(SON) BHC-DELT TENSION  TIME    
# ...
1242.400   529     666    136.3   3085.0   2268.0  28.6    38.5      139         8.4  0.20000 
1242.500   529     665    136.8   3155.0   2242.0  28.7    38.5      139         5.5  0.20000 
1242.600   528     665    137.1   3287.0   2323.5  28.3    38.5      139         8.4  0.20000 
1242.700   527     665    137.3   3260.0   2410.5  28.0    38.5      139         6.3  0.20000 
1242.800   526     664    137.4   3064.0   2418.5  27.7    38.5      139         8.8  0.20000 
1242.900   525     663    138.3   2785.0   2212.5  27.2    38.5      139         5.4  0.20000 
1243.000   524     663    139.1   2737.5   2028.5  27.2    38.5      139         5.8  0.20000 
1243.100   523     663    139.9   2744.0   1978.0  28.6    38.6      139         2.9  0.20000 
1243.200   522     663    140.9   2782.0   1939.0  30.7    38.6      140         3.1  0.20000 
1243.300   521     663    142.0   2677.5   1804.0  32.0    38.7      140         0.6  0.20000 
1243.400   521     663    142.6   2609.5   1868.5  31.9    38.7      140         2.6  0.20000 
1243.500   521     664    142.3   3001.0   2241.0  31.5    38.7      140         2.2  0.20000 
1243.600   522     664    142.0   3623.5   2587.5  31.4    38.7      140         2.7  0.20000 
1243.700   522     663    141.6   3990.5   2451.5  31.5    38.6      140         2.5  0.20000 
1243.800   522     662    140.8   3782.5   2118.0  31.6    38.5      139         2.5  0.20000 
1243.900   522     661    139.1   3321.0   2043.0  30.9    38.4      138         0.5  0.20000 
1244.000   522     660    138.1   3392.5   2244.0  29.8    38.3      138         1.0  0.20000 
1244.100   522     659    137.4   3912.0   2320.0  29.5    38.2      137         0.5  0.20000 
1244.200   521     658    136.9   4467.0   2348.0  30.7    38.2      137         0.7  0.20000 
1244.300   521     657    136.0   4499.5   2181.0  32.4    38.1      137         0.7  0.20000 
1244.400   520     656    135.4   4105.5   1961.5  32.8    38.1      137         0.7  0.20000 
1244.500   519     654    135.1   3641.5   1768.5  32.1    38.1      137         0.2  0.20000 
1244.600   517     653    135.3   3324.0   1712.0  31.6    38.2      137         0.4  0.20000 
1244.700   516     651    134.9   3055.5   1769.0  33.0    38.1      137         0.2  0.20000 
1244.800   516     651    135.1   2749.0   1657.5  35.5    38.2      137         1.8  0.20000 
1244.900   516     652    136.0   2719.5   1462.5  37.7    38.3      138         1.8  0.20000 
1245.000   516     652    136.4   2835.0   1355.5  38.6    38.3      138         4.1  0.20000 
1245.100   516     652    136.4   2878.5   1381.0  38.1    38.3      138         3.9  0.20000 
1245.200   515     652    137.1   3113.5   1501.5  37.0    38.3      138         5.4  0.20000 
1245.300   515     652    137.6   3207.0   1578.0  35.2    38.3      138         3.8  0.20000 
1245.400   513     652    138.4   2920.0   1470.5  33.2    38.4      138         3.8  0.20000 
1245.500   512     651    138.9   2560.0   1315.0  31.9    38.4      138         1.5  0.20000 
1245.600   511     649    138.9   2220.5   1262.5  31.2    38.3      138         1.7  0.20000 
1245.700   509     649    139.3   2156.5   1309.5  31.4    38.3      138         0.9  0.20000 
1245.800   509     648    139.4   2487.5   1458.5  33.3    38.2      137         0.9  0.20000 
1245.900   510     648    138.4   2711.0   1691.5  34.8    38.1      137         0.9  0.20000 
1246.000   512     649    137.0   2849.0   1879.5  34.8    37.9      136         0.9  0.20000 
1246.100   514     649    135.5   3351.5   2051.5  33.4    37.7      134         0.7  0.20000 
1246.200   515     649    134.0   4212.0   2503.5  30.6    37.5      133         0.9  0.20000 
1246.300   515     647    132.6   4002.0   2639.0  28.0    37.3      133         0.9  0.20000 
1246.400   514     645    131.5   3206.0   2299.0  26.4    37.4      133         4.8  0.20000 
1246.500   514     644    130.1   3013.5   2041.5  25.6    37.3      132         4.8  0.20000 
1246.600   514     643    128.6   3004.0   1780.0  25.6    37.3      132         8.6  0.20000 
1246.700   515     642    126.9   3078.5   1707.5  27.7    37.1      131         7.7  0.20000 
1246.800   517     642    125.3   3442.5   1814.5  30.7    37.0      131        11.6  0.20000 
1246.900   517     643    125.6   3827.0   1912.0  32.0    37.0      131         7.7  0.10000 
1247.000   517     644    127.1   4055.0   2075.5  31.3    37.1      131        11.0  0.20000 
1247.100   516     646    129.4   3968.0   2180.5  30.2    37.4      133         7.2  0.20000 
1247.200   515     646    131.8   3566.5   2304.5  29.4    37.6      134         9.5  0.20000 
1247.300   513     647    133.5   2920.0   2030.0  29.1    37.8      135         5.6  0.20000 
1247.400   513     647    133.8   2616.5   1657.5  30.0    37.7      134         6.3  0.20000 
1247.500   512     647    135.0   2624.0   1583.5  32.1    37.6      134         3.0  0.20000 
1247.600   511     647    136.4   2801.0   1662.5  34.8    37.6      134         3.0  0.20000 
1247.700   511     648    137.7   3107.0   1707.0  37.0    37.6      134         1.3  0.20000 
1247.800   510     649    138.9   3429.0   1824.0  38.1    37.6      134         1.3  0.20000 
1247.900   509     649    140.1   3526.0   1921.0  37.6    37.8      135         2.3  0.20000 
1248.000   508     648    140.6   3390.5   2029.5  36.6    37.9      135         2.8  0.20000 
1248.100   506     648    141.3   3346.5   2083.5  35.6    38.0      136         3.1  0.20000 
1248.200   505     647    141.6   3207.5   2126.0  35.1    38.0      136         2.7  0.20000 
1248.300   505     647    141.8   3044.5   2068.5  35.5    38.1      137         2.7  0.20000 
1248.400   505     647    142.6   2892.0   2027.5  37.1    38.2      137         1.0  0.20000 
1248.500   505     647    142.9   3011.0   1963.0  38.7    38.3      137         0.5  0.20000 
1248.600   505     647    142.5   3088.5   1937.0  39.8    38.2      137         0.2  0.20000 
1248.700   504     647    143.1   2998.5   1982.0  40.8    38.3      138         0.1  0.20000 
1248.800   503     646    142.9   3219.0   2129.5  41.0    38.3      138         0.1  0.20000 
1248.900   502     645    142.5   3490.5   2219.5  40.5    38.3      138         0.1  0.20000 
1249.000   502     644    141.8   3562.5   2147.0  39.9    38.2      137         0.1  0.20000 
1249.100   501     642    140.9   3171.5   2136.5  39.7    38.2      137         0.1  0.20000 
1249.200   501     641    140.5   2942.5   2012.0  39.5    38.1      137         0.1  0.20000 
1249.300   501     641    139.8   2884.0   1885.0  39.3    38.0      136         0.1  0.20000 
1249.400   502     641    138.8   2871.5   1832.5  40.1    37.9      135         1.9  0.20000 
1249.500   503     641    137.9   3042.0   1927.0  41.8    37.8      135         1.9  0.20000 
1249.600   503     641    137.6   3323.5   1924.0  43.0    37.8      135         4.5  0.20000 
1249.700   503     640    137.2   3472.0   1865.0  42.8    37.8      135         4.4  0.20000 
1249.800   503     639    136.6   3540.5   2000.0  42.0    37.7      135         5.5  0.20000 
1249.900   502     639    136.7   3540.0   2143.5  40.9    37.8      135         3.7  0.20000 
1250.000   501     638    136.9   3467.0   2145.0  39.7    37.8      135         3.7  0.20000 
1250.100   500     637    136.9   3366.0   1926.0  39.4    37.7      135         1.1  0.20000 
1250.200   499     636    136.9   3223.5   1780.5  39.9    37.7      134         1.1  0.20000 
1250.300   498     636    137.8   3192.0   1734.0  40.8    37.8      135         1.0  0.20000 
1250.400   498     636    138.6   3281.5   1663.0  42.3    37.9      136         1.0  0.20000 
1250.500   498     637    139.0   3258.0   1736.0  43.7    38.0      136         1.0  0.20000 
1250.600   497     636    139.0   3243.5   1907.5  44.8    38.0      136         1.4  0.20000 
1250.700   497     636    139.0   3232.0   2028.0  45.4    38.0      136         1.4  0.20000 
1250.800   496     635    138.8   3257.0   2048.0  45.6    37.9      135         0.8  0.20000 
