~Version Information
 VERS.                2.0:  CWLS LOG ASCII STANDARD -VERSION 2.0
 WRAP.                 NO:  ONE LINE PER DEPTH STEP
~WELL INFORMATION BLOCK
#MNEM.UNIT       DATA		            DESCRIPTION OF MNEMONIC
#---------    -------------            ------------------------
 STRT.FT  5.300                          :START DEPTH
 STOP.FT  1874.500                       :STOP DEPTH
 STEP.FT  0.100                          :STEP    UP_HOLE  
 NULL.    0                              :NULL VALUE
 COMP.                            USGS   :COMPANY
 WELL.                      MCWD-DMW #1  :WELL
 FLD .                           Marina  :FIELD
 LOC .    None  None  None               :LOCATION
 CNTY.                         Monterey  :COUNTY
 STAT.             California            :STATE
 SRVC.    Western Reg                    :SERVICE COMPANY
 DATE.   05/27/00                        :LOG DATE
 UWI .                       	         :UNIQUE WELL ID
 LIC .                                   :LICENSE NUMBER
~Curve Information Block
#MNEM.UNIT      API CODE     Curve Description
#---------    -------------  ------------------------
 DEPT     .FT        00 001 00 00          :  1  DEPTH   
 CALIPER  .INCH      00 280 00 00          :  2              CALIPER
 TENSION  .POUNDS    00 000 00 00          :  3              TENSION
 TIME     .MINUTES   00 000 00 00          :  4                 TIME
~Parameter Information Block
#MNEM.UNIT   Information     Description
#---------- ---------------  ------------------------
~Other Information
#MNEM.UNIT  Information      Description
#---------- ---------------  ------------------------
 FILE.      ORIGINAL           File Type
 FIID.      9065A              File Type Identifier
 VERS.      1.0                System Version
 SER .      1                  System Serial Number
 TRUK.      0.5                Truck Calibration Number
 TOOL.         573             Tool Serial Number
 TIME.      03:05:             Time
 LAT .          None           Latitude
 LON .          None           Longitude
 LMF .           LSD           Log Measured From
 DMF .           LSD           Driller Measured From
 PD  .          None           Permanent Data
 PDEV.          None           Elevation Permanent Data
 EKB .M         None           Elevation Kelly Bushing
 ELEV.DF        None           Elevation DF
 EGL .M         None           Elevation Ground Level
 DRDP.         1990'           Driller's Depth
 CASD.         0               Casing Diameter
 CASB.          None           Casing Bottom
 CASX.          None           Casing Type
 CAST.         0               Casing Thickness
 TNOC.          None           Time Circulation Stopped
 LOGU.       WRRD              Logging Unit
 RECB.           Everett       Recorded By
 OSR1.       Pimente           Other Services
 OSR2.       mud vis           Other Services
 OSR3.           =62           Other Services
 BS  .MM           6           Bit Size
 MST .                         Mean Surface Temperature
 TGRD.        0                Temperature Gradiant
 MAGN.             0           Magnetic Declination
 MDEN.      2.71               Density Matrix
 MATR.       Dolomite          Neutron Matrix
 DTMT.            54           Delta T Matrix
 DTFL.                         Delta T Fluid
 MUDS.               0         Mud Sample Source
 MRS .           0             Mud Resistivity
 MTP .           0             Mud Temperature
 MFRS.                         Resistivity Mud Filtrate
 MFTP.                         Temperature Mud Filtrate
 MCRS.         0               Resistivity Mud Cake
 MCTP.                         Temperature Mud Cake
 FTYP.             0           Fluid Type
 FD  .K/M3                     Fluid Density
 DFV .S                        Fluid Viscosity
 FPH .                         Fuild PH
 ELCO.        2500             Electron Cutoff
# -------------------------- 
~A DEPTH  CALIPER TENSION  TIME    
# ...
1610.900   7.4        3.5  0.20000 
1611.000   7.4        2.8  0.10000 
1611.100   7.4        3.0  0.20000 
1611.200   7.4        3.0  0.20000 
1611.300   7.4        1.7  0.20000 
1611.400   7.5        1.7  0.20000 
1611.500   7.5        0.9  0.20000 
1611.600   7.5        0.6  0.20000 
1611.700   7.6        1.2  0.20000 
1611.800   7.7        1.2  0.20000 
1611.900   7.5        1.2  0.20000 
1612.000   7.5        1.1  0.20000 
1612.100   7.5        1.3  0.10000 
1612.200   7.5        0.7  0.20000 
1612.300   7.5        1.1  0.20000 
1612.400   7.5        1.1  0.20000 
1612.500   7.4        1.0  0.20000 
1612.600   7.4        1.0  0.22000 
1612.700   7.4        0.8  0.22000 
1612.800   7.4        0.4  0.22000 
1612.900   7.4        0.4  0.22000 
1613.000   7.4        0.0  0.11000 
1613.100   7.4        0.0  0.21000 
1613.200   7.5        0.0  0.10000 
1613.300   7.5        0.0  0.20000 
1613.400   7.4        0.0  0.20000 
1613.500   7.4        0.0  0.20000 
1613.600   7.4        0.0  0.20000 
1613.700   7.4        0.4  0.20000 
1613.800   7.4        0.4  0.20000 
1613.900   7.4        0.4  0.20000 
1614.000   7.4        0.4  0.20000 
1614.100   7.4        0.4  0.20000 
1614.200   7.5        0.0  0.20000 
1614.300   7.5        0.0  0.10000 
1614.400   7.5        0.0  0.20000 
1614.500   7.4        0.7  0.20000 
1614.600   7.4        0.7  0.20000 
1614.700   7.4        0.7  0.20000 
1614.800   7.4        0.7  0.20000 
1614.900   7.5        0.7  0.22000 
1615.000   7.4        0.8  0.22000 
1615.100   7.4        0.1  0.22000 
1615.200   7.5        0.1  0.22000 
1615.300   7.5        0.1  0.11000 
1615.400   7.5        0.1  0.11000 
1615.500   7.5        0.0  0.20000 
1615.600   7.5        0.0  0.20000 
1615.700   7.4        0.0  0.20000 
1615.800   7.4        0.0  0.20000 
1615.900   7.4        0.0  0.20000 
1616.000   7.4        0.0  0.20000 
1616.100   7.4        0.0  0.20000 
1616.200   7.4        0.0  0.20000 
1616.300   7.4        0.0  0.20000 
1616.400   7.5        0.0  0.10000 
1616.500   7.5        0.0  0.20000 
1616.600   7.4        0.0  0.20000 
1616.700   7.4        0.7  0.20000 
1616.800   7.4        0.7  0.20000 
1616.900   7.4        0.7  0.20000 
1617.000   7.4        0.8  0.20000 
1617.100   7.4        0.8  0.20000 
1617.200   7.4        0.1  0.20000 
1617.300   7.4        0.1  0.20000 
1617.400   7.4        0.8  0.20000 
1617.500   7.4        0.7  0.10000 
1617.600   7.4        1.7  0.20000 
1617.700   7.4        1.8  0.20000 
1617.800   7.4        1.8  0.20000 
1617.900   7.4        2.4  0.20000 
1618.000   7.4        1.7  0.20000 
1618.100   7.4        0.9  0.20000 
1618.200   7.4        1.4  0.20000 
1618.300   7.4        1.3  0.20000 
1618.400   7.4        1.0  0.20000 
1618.500   7.4        1.0  0.20000 
1618.600   7.4        1.0  0.10000 
1618.700   7.4        0.5  0.20000 
1618.800   7.4        0.9  0.20000 
1618.900   7.4        0.6  0.20000 
1619.000   7.4        1.1  0.20000 
1619.100   7.4        1.7  0.20000 
1619.200   7.4        1.5  0.20000 
1619.300   7.4        1.1  0.20000 
1619.400   7.4        1.9  0.20000 
1619.500   7.4        1.4  0.20000 
1619.600   7.4        1.3  0.20000 
1619.700   7.4        1.3  0.10000 
1619.800   7.4        1.3  0.20000 
1619.900   7.4        0.5  0.20000 
1620.000   7.4        0.5  0.20000 
1620.100   7.4        0.0  0.20000 
1620.200   7.4        0.7  0.20000 
1620.300   7.4        0.7  0.20000 
1620.400   7.5        0.7  0.20000 
1620.500   7.5        1.2  0.20000 
1620.600   7.5        2.4  0.20000 
1620.700   7.5        1.7  0.20000 
1620.800   7.5        1.7  0.10000 
1620.900   7.5        2.0  0.20000 
1621.000   7.5        1.5  0.20000 
1621.100   7.6        1.5  0.20000 
1621.200   7.6        0.3  0.20000 
1621.300   7.5        0.3  0.20000 
1621.400   7.5        0.3  0.20000 
1621.500   7.4        0.4  0.20000 
1621.600   7.4        0.4  0.20000 
1621.700   7.4        0.7  0.20000 
1621.800   7.4        0.8  0.10000 
1621.900   7.4        0.8  0.20000 
1622.000   7.4        1.2  0.20000 
1622.100   7.4        1.2  0.20000 
1622.200   7.4        1.3  0.20000 
1622.300   7.4        2.6  0.20000 
1622.400   7.4        2.5  0.20000 
1622.500   7.4        3.2  0.20000 
1622.600   7.4        3.2  0.20000 
1622.700   7.4        2.8  0.20000 
1622.800   7.4        1.5  0.20000 
1622.900   7.4        1.5  0.10000 
1623.000   7.4        0.0  0.20000 
1623.100   7.4        0.0  0.20000 
1623.200   7.4        0.0  0.20000 
1623.300   7.4        0.0  0.20000 
1623.400   7.4        0.0  0.20000 
1623.500   7.4        0.0  0.20000 
1623.600   7.4        0.0  0.20000 
1623.700   7.4        0.0  0.20000 
1623.800   7.4        0.0  0.20000 
1623.900   7.5        0.0  0.20000 
1624.000   7.4        0.0  0.10000 
1624.100   7.4        0.0  0.20000 
1624.200   7.4        0.0  0.22000 
1624.300   7.4        0.0  0.22000 
1624.400   7.4        0.4  0.22000 
1624.500   7.5        0.4  0.22000 
1624.600   7.4        0.4  0.11000 
1624.700   7.4        0.9  0.21000 
1624.800   7.4        1.5  0.20000 
1624.900   7.4        1.5  0.20000 
1625.000   7.4        2.2  0.20000 
1625.100   7.4        2.2  0.10000 
1625.200   7.4        1.8  0.20000 
1625.300   7.4        1.8  0.20000 
1625.400   7.4        1.2  0.20000 
1625.500   7.4        1.2  0.20000 
1625.600   7.4        0.1  0.20000 
1625.700   7.4        0.0  0.20000 
1625.800   7.4        0.0  0.20000 
1625.900   7.4        0.4  0.20000 
1626.000   7.4        0.4  0.20000 
1626.100   7.4        0.4  0.10000 
1626.200   7.4        1.4  0.20000 
1626.300   7.4        1.4  0.20000 
1626.400   7.5        1.6  0.20000 
1626.500   7.6        1.2  0.20000 
1626.600   7.7        1.6  0.20000 
1626.700   7.7        1.6  0.20000 
1626.800   7.5        0.6  0.20000 
1626.900   7.5        0.4  0.20000 
1627.000   7.5        0.4  0.20000 
1627.100   7.7        0.3  0.20000 
1627.200   7.9        0.3  0.10000 
1627.300   7.9        0.4  0.20000 
1627.400   8.1        0.6  0.22000 
1627.500   8.2        0.6  0.22000 
1627.600   8.4        1.2  0.22000 
1627.700   8.3        1.2  0.22000 
1627.800   8.3        1.1  0.11000 
1627.900   8.3        2.3  0.21000 
1628.000   8.3        3.2  0.20000 
1628.100   8.3        3.2  0.20000 
1628.200   8.2        2.6  0.10000 
1628.300   8.1        2.3  0.20000 
1628.400   8.1        1.1  0.20000 
1628.500   8.3        1.3  0.20000 
1628.600   8.4        0.2  0.20000 
1628.700   8.4        0.2  0.20000 
1628.800   8.5        0.7  0.20000 
1628.900   8.4        0.7  0.20000 
1629.000   8.3        0.5  0.20000 
1629.100   8.0        0.6  0.20000 
1629.200   7.8        0.6  0.20000 
1629.300   7.9        0.7  0.10000 
1629.400   8.0        2.2  0.20000 
1629.500   8.1        2.2  0.20000 
1629.600   8.2        2.6  0.20000 
1629.700   8.3        2.5  0.20000 
1629.800   8.3        1.9  0.20000 
1629.900   8.3        2.3  0.22000 
1630.000   8.2        1.0  0.22000 
1630.100   8.2        0.6  0.22000 
1630.200   8.1        0.6  0.22000 
1630.300   7.9        1.1  0.11000 
1630.400   8.0        1.0  0.11000 
1630.500   8.1        0.8  0.20000 
1630.600   8.2        1.5  0.20000 
1630.700   8.3        1.5  0.20000 
1630.800   8.0        2.1  0.20000 
1630.900   7.9        1.6  0.20000 
1631.000   7.5        1.3  0.20000 
1631.100   7.5        1.3  0.20000 
1631.200   7.4        0.6  0.20000 
1631.300   7.5        0.0  0.20000 
1631.400   7.6        0.0  0.20000 
1631.500   7.8        0.0  0.20000 
1631.600   7.8        0.0  0.10000 
1631.700   7.9        0.0  0.20000 
1631.800   7.9        0.2  0.20000 
1631.900   8.0        0.2  0.20000 
1632.000   8.0        0.2  0.20000 
1632.100   8.1        0.2  0.20000 
1632.200   8.1        0.9  0.22000 
1632.300   7.9        2.5  0.22000 
1632.400   7.7        2.3  0.22000 
1632.500   7.6        2.3  0.22000 
1632.600   7.5        2.3  0.11000 
1632.700   7.5        2.2  0.11000 
1632.800   7.5        1.4  0.20000 
1632.900   7.5        1.4  0.20000 
1633.000   7.5        1.4  0.20000 
1633.100   7.5        1.6  0.20000 
