~Version Information
 VERS.                2.0:  CWLS LOG ASCII STANDARD -VERSION 2.0
 WRAP.                 NO:  ONE LINE PER DEPTH STEP
~WELL INFORMATION BLOCK
#MNEM.UNIT       DATA		            DESCRIPTION OF MNEMONIC
#---------    -------------            ------------------------
 STRT.FT  1.400                          :START DEPTH
 STOP.FT  1872.000                       :STOP DEPTH
 STEP.FT  0.100                          :STEP    UP_HOLE  
 NULL.    0                              :NULL VALUE
 COMP.                            USGS   :COMPANY
 WELL.                      MCWD-DMW #1  :WELL
 FLD .                           Marina  :FIELD
 LOC .    None  None  None               :LOCATION
 CNTY.                         Monterey  :COUNTY
 STAT.             California            :STATE
 SRVC.    Western Reg                    :SERVICE COMPANY
 DATE.   05/27/00                        :LOG DATE
 UWI .                       	         :UNIQUE WELL ID
 LIC .                                   :LICENSE NUMBER
~Curve Information Block
#MNEM.UNIT      API CODE     Curve Description
#---------    -------------  ------------------------
 DEPT     .FT        00 001 00 00          :  1  DEPTH   
 TIME(N)  .USEC      00 000 00 00          :  2              TIME(N)
 TIME(F)  .USEC      00 000 00 00          :  3              TIME(F)
 DELTAT   .USEC/FT   00 522 00 00          :  4               DELTAT
 AMP(N)   .MV        00 000 00 00          :  5               AMP(N)
 AMP(F)   .MV        00 000 00 00          :  6               AMP(F)
 XTR PWR  .PERCENT   00 000 00 00          :  7              XTR PWR
 POR(SON) .PERCENT   00 890 00 00          :  8             POR(SON)
 BHC-DELT .USEC/FT   00 520 00 00          :  9             BHC-DELT
 TENSION  .POUNDS    00 000 00 00          : 10              TENSION
 TIME     .MINUTES   00 000 00 00          : 11                 TIME
~Parameter Information Block
#MNEM.UNIT   Information     Description
#---------- ---------------  ------------------------
~Other Information
#MNEM.UNIT  Information      Description
#---------- ---------------  ------------------------
 FILE.      ORIGINAL           File Type
 FIID.      9300A              File Type Identifier
 VERS.      1.0                System Version
 SER .      1                  System Serial Number
 TRUK.      0.5                Truck Calibration Number
 TOOL.         691             Tool Serial Number
 TIME.      07:18:             Time
 LAT .          None           Latitude
 LON .          None           Longitude
 LMF .           LSD           Log Measured From
 DMF .           LSD           Driller Measured From
 PD  .          None           Permanent Data
 PDEV.          None           Elevation Permanent Data
 EKB .M         None           Elevation Kelly Bushing
 ELEV.DF        None           Elevation DF
 EGL .M         None           Elevation Ground Level
 DRDP.         1990'           Driller's Depth
 CASD.         0               Casing Diameter
 CASB.          None           Casing Bottom
 CASX.          None           Casing Type
 CAST.         0               Casing Thickness
 TNOC.          None           Time Circulation Stopped
 LOGU.       WRRD              Logging Unit
 RECB.           Everett       Recorded By
 OSR1.       Pimente           Other Services
 OSR2.       mud vis           Other Services
 OSR3.           =62           Other Services
 BS  .MM           6           Bit Size
 MST .                         Mean Surface Temperature
 TGRD.        0                Temperature Gradiant
 MAGN.             0           Magnetic Declination
 MDEN.      2.71               Density Matrix
 MATR.       Dolomite          Neutron Matrix
 DTMT.            54           Delta T Matrix
 DTFL.                         Delta T Fluid
 MUDS.               0         Mud Sample Source
 MRS .           0             Mud Resistivity
 MTP .           0             Mud Temperature
 MFRS.                         Resistivity Mud Filtrate
 MFTP.                         Temperature Mud Filtrate
 MCRS.         0               Resistivity Mud Cake
 MCTP.                         Temperature Mud Cake
 FTYP.             0           Fluid Type
 FD  .K/M3                     Fluid Density
 DFV .S                        Fluid Viscosity
 FPH .                         Fuild PH
 ELCO.        2500             Electron Cutoff
# -------------------------- 
~A DEPTH  TIME(N) TIME(F) DELTAT AMP(N)   AMP(F)   XTR PWR POR(SON) BHC-DELT TENSION  TIME    
# ...
 128.900   550     783    232.6   1512.0   2117.5  100.0   48.0      226         3.3  0.20000 
 129.000   551     783    232.5   1372.0   1637.0  100.0   48.0      226         3.3  0.10000 
 129.100   550     784    233.2   1471.5   1447.5  100.0   48.0      227         5.5  0.20000 
 129.200   550     788    237.8   1523.0   1285.0  100.0   48.2      230         4.8  0.20000 
 129.300   551     793    242.0   1480.5   1274.0  100.0   48.4      232         4.8  0.20000 
 129.400   552     787    234.4   1317.0   1001.0  100.0   48.1      229         3.6  0.10000 
 129.500   551     784    233.7   1152.0    974.5  100.0   48.1      229         3.7  0.22000 
 129.600   552     772    220.3   1227.0   1045.5  100.0   47.7      222         2.4  0.22000 
 129.700   553     770    216.6   1143.5   1676.3  99.9    47.6      220         2.4  0.22000 
 129.800   555     770    215.1   1008.5   1676.3  99.8    47.4      218         2.4  0.11000 
 129.900   552     769    216.9   1058.0   2433.5  99.8    47.4      219         1.8  0.22000 
 130.000   554     769    214.4    990.0   2644.0  99.7    47.4      218         1.8  0.11000 
 130.100   556     769    212.9    922.0   3085.5  99.6    47.3      217         1.7  0.10000 
 130.200   562     769    207.0    997.5   3581.5  99.7    47.2      215         1.8  0.20000 
 130.300   556     770    214.1    859.0   4239.5  99.7    47.5      219         1.8  0.20000 
 130.400   569     770    201.6   1324.5   4608.0  99.8    47.0      213         1.8  0.20000 
 130.500   570     770    199.7   1711.5   5220.5  99.8    46.9      212         1.6  0.10000 
 130.600   555     769    214.2   1042.0   6185.0  100.0   47.5      220         1.6  0.20000 
 130.700   569     768    198.8   1668.0   6601.0  100.0   46.9      211         2.3  0.20000 
 130.800   584     768    184.2   3018.0   6976.5  100.0   46.4      205         1.7  0.20000 
 130.900   570     767    196.6   1882.5   6718.0  100.0   47.0      212         1.7  0.10000 
 131.000   558     767    208.3    824.0   5603.0  100.0   47.4      218         2.2  0.20000 
 131.100   589     765    176.6   3091.0   3890.0  100.0   46.2      203         2.1  0.20000 
 131.200   601     765    164.2   3812.5   2903.5  100.0   45.7      197         2.1  0.20000 
 131.300   607     764    157.9   4094.0   2443.0  99.9    45.5      194         1.4  0.20000 
 131.400   606     765    158.9   3697.0   2028.5  100.0   45.5      195         1.0  0.10000 
 131.500   604     767    162.6   2117.0   1777.5  100.0   45.7      197         0.8  0.20000 
 131.600   604     769    164.8   1419.0   1892.0  99.9    45.8      198         0.3  0.20000 
 131.700   606     768    161.9   2066.0   1815.5  99.9    45.7      197         0.3  0.20000 
 131.800   613     771    157.4   2763.0   2008.5  99.9    45.6      195         0.3  0.10000 
 131.900   617     772    155.8   3140.0   2283.0  99.9    45.5      195         0.3  0.20000 
 132.000   618     773    155.4   3353.0   2391.0  100.0   45.5      195         0.3  0.22000 
 132.100   619     774    155.4   3335.0   2536.5  100.0   45.5      195         0.0  0.11000 
 132.200   619     775    156.0   3445.5   2758.5  100.0   45.8      197         0.0  0.22000 
 132.300   620     776    155.9   3395.0   2628.0  100.0   46.0      200         1.0  0.22000 
 132.400   620     776    155.6   3299.5   2406.5  100.0   45.7      196         1.0  0.22000 
 132.500   620     777    157.8   3111.5   2126.0  100.0   45.7      196         1.0  0.00000 
 132.600   619     777    158.6   2991.5   2183.0  99.9    45.2      191         2.5  0.21000 
 132.700   618     777    159.3   3077.0   2198.0  100.0   45.0      190         2.5  0.20000 
 132.800   617     775    158.0   3021.5   2256.0  99.9    45.0      189         2.5  0.10000 
 132.900   617     774    157.1   2608.5   2004.0  100.0   44.9      188         3.4  0.20000 
 133.000   619     776    156.8   1905.5   2115.0  100.0   44.8      187         4.9  0.20000 
 133.100   623     775    152.3   1344.0   2187.5  100.0   44.6      185         4.9  0.20000 
 133.200   620     776    155.7    734.5   2291.0  100.0   44.8      187         6.3  0.10000 
 133.300   597     777    179.8    896.0   2394.0  100.0   45.9      200         7.6  0.20000 
 133.400   595     778    183.1   1023.5   2190.5  100.0   46.0      201         7.4  0.20000 
 133.500   594     778    183.8   1135.0   1749.5  100.0   46.1      201         7.4  0.20000 
 133.600   595     779    184.3   1146.0   1521.5  100.0   46.0      201         6.0  0.20000 
 133.700   595     780    185.3   1081.5   1377.0  100.0   46.0      200         5.1  0.10000 
 133.800   595     781    185.9   1110.0   1282.5  100.0   46.0      200         2.5  0.20000 
 133.900   595     784    189.3   1263.5   1275.0  100.0   46.2      202         2.5  0.20000 
 134.000   595     785    190.3   1405.0   1251.0  100.0   46.1      201         2.5  0.20000 
 134.100   595     790    195.3   1615.5   1284.0  100.0   46.2      202         1.4  0.10000 
 134.200   596     788    192.3   1933.5   1202.0  100.0   45.8      197         1.4  0.20000 
 134.300   597     787    190.7   2123.0   1407.0  100.0   46.0      200         2.4  0.20000 
 134.400   597     787    189.4   2020.5   1712.0  100.0   45.4      193         2.2  0.10000 
 134.500   599     786    187.3   1737.0   1341.0  100.0   45.3      192         2.2  0.20000 
 134.600   601     788    186.9   1438.0   1485.5  100.0   46.0      200         2.3  0.20000 
 134.700   613     783    170.1   1888.0   1205.0  100.0   44.6      184         2.3  0.20000 
 134.800   626     778    151.8   1139.5   1065.0  100.0   42.9      169         2.3  0.10000 
 134.900   622     778    156.3   2706.0   1331.5  100.0   44.0      179         1.8  0.20000 
 135.000   622     779    157.6   3966.5   1529.0  100.0   44.7      186         1.8  0.20000 
 135.100   622     779    156.8   4986.0   1577.5  100.0   43.1      171         1.8  0.10000 
 135.200   623     779    155.8   4717.5   1768.0  100.0   42.4      165         2.0  0.20000 
 135.300   609     779    170.0   2627.0   1671.0  99.9    43.0      170         2.0  0.20000 
 135.400   613     779    166.6   4381.0   1342.0  100.0   42.7      168         2.0  0.10000 
 135.500   582     781    198.6   1950.0   1057.5  100.0   44.7      186         1.0  0.20000 
 135.600   580     781    201.3   1568.5   1030.0  100.0   44.8      187         1.0  0.20000 
 135.700   557     806    248.8   1057.0   3104.5  100.0   46.8      210         1.0  0.20000 
 135.800   558     830    272.3   1187.5   6005.0  100.0   47.3      217         0.0  0.10000 
 135.900   557     815    258.8   1391.0   2743.0  100.0   46.7      208         0.0  0.20000 
 136.000   557     796    238.8   1442.0   1212.0  100.0   45.9      198         0.0  0.20000 
 136.100   557     785    227.9   1625.0   1011.0  100.0   45.3      192         0.0  0.10000 
 136.200   557     789    232.2   1732.5   1111.5  100.0   45.5      194         0.0  0.20000 
 136.300   557     790    233.0   1799.0   1407.0  100.0   45.5      195         0.0  0.20000 
 136.400   558     791    233.1   1745.0   1840.5  100.0   45.6      195         0.0  0.20000 
 136.500   558     793    235.3   1817.0   1895.0  100.0   45.7      197         0.0  0.10000 
 136.600   559     795    235.9   1851.5   1509.0  100.0   45.8      198         0.0  0.20000 
 136.700   559     794    234.6   1861.5   1194.0  100.0   45.9      198         0.0  0.20000 
 136.800   559     789    229.6   1829.0   1378.5  100.0   45.7      197         0.0  0.20000 
 136.900   560     786    226.3   1694.5   1409.5  100.0   45.7      197         0.0  0.10000 
 137.000   561     784    223.1   1706.5   1400.0  100.0   45.5      194         0.0  0.20000 
 137.100   561     782    221.1   1659.0   1585.5  100.0   45.5      194         0.0  0.22000 
 137.200   561     781    220.3   1646.5   1771.0  100.0   45.5      194         0.0  0.22000 
 137.300   560     779    218.5   1625.0   1819.5  100.0   46.4      205         0.0  0.11000 
