~Version Information
 VERS.                2.0:  CWLS LOG ASCII STANDARD -VERSION 2.0
 WRAP.                 NO:  ONE LINE PER DEPTH STEP
~WELL INFORMATION BLOCK
#MNEM.UNIT       DATA		            DESCRIPTION OF MNEMONIC
#---------    -------------            ------------------------
 STRT.FT  41.500                         :START DEPTH
 STOP.FT  1871.500                       :STOP DEPTH
 STEP.FT  0.100                          :STEP    UP_HOLE  
 NULL.    0                              :NULL VALUE
 COMP.                            USGS   :COMPANY
 WELL.                      MCWD-DMW #1  :WELL
 FLD .                           Marina  :FIELD
 LOC .    None  None  None               :LOCATION
 CNTY.                         Monterey  :COUNTY
 STAT.             California            :STATE
 SRVC.    Western Reg                    :SERVICE COMPANY
 DATE.   05/27/00                        :LOG DATE
 UWI .                       	         :UNIQUE WELL ID
 LIC .                                   :LICENSE NUMBER
~Curve Information Block
#MNEM.UNIT      API CODE     Curve Description
#---------    -------------  ------------------------
 DEPT     .FT        00 001 00 00          :  1  DEPTH   
 GAM(NAT) .API-GR    00 310 00 00          :  2             GAM(NAT)
 COND     .MMHO/M    00 000 00 00          :  3                 COND
 RES      .OHM-M     00 000 00 00          :  4                  RES
 TEMP     .DEG F     00 660 00 00          :  5                 TEMP
 AP-COND  .MMHO/M    00 000 00 00          :  6              AP-COND
 TEMP     .CPS       00 660 00 00          :  7                 TEMP
 AP-COND  .CPS       00 000 00 00          :  8              AP-COND
 TENSION  .POUNDS    00 000 00 00          :  9              TENSION
 TIME     .MINUTES   00 000 00 00          : 10                 TIME
~Parameter Information Block
#MNEM.UNIT   Information     Description
#---------- ---------------  ------------------------
~Other Information
#MNEM.UNIT  Information      Description
#---------- ---------------  ------------------------
 FILE.      ORIGINAL           File Type
 FIID.      9511A              File Type Identifier
 VERS.      1.0                System Version
 SER .      1                  System Serial Number
 TRUK.      0.5                Truck Calibration Number
 TOOL.         770             Tool Serial Number
 TIME.      05:18:             Time
 LAT .          None           Latitude
 LON .          None           Longitude
 LMF .           LSD           Log Measured From
 DMF .           LSD           Driller Measured From
 PD  .          None           Permanent Data
 PDEV.          None           Elevation Permanent Data
 EKB .M         None           Elevation Kelly Bushing
 ELEV.DF        None           Elevation DF
 EGL .M         None           Elevation Ground Level
 DRDP.         1990'           Driller's Depth
 CASD.         0               Casing Diameter
 CASB.          None           Casing Bottom
 CASX.          None           Casing Type
 CAST.         0               Casing Thickness
 TNOC.          None           Time Circulation Stopped
 LOGU.       WRRD              Logging Unit
 RECB.           Everett       Recorded By
 OSR1.       Pimente           Other Services
 OSR2.       mud vis           Other Services
 OSR3.           =62           Other Services
 BS  .MM           6           Bit Size
 MST .                         Mean Surface Temperature
 TGRD.        0                Temperature Gradiant
 MAGN.             0           Magnetic Declination
 MDEN.      2.71               Density Matrix
 MATR.       Dolomite          Neutron Matrix
 DTMT.            54           Delta T Matrix
 DTFL.                         Delta T Fluid
 MUDS.               0         Mud Sample Source
 MRS .           0             Mud Resistivity
 MTP .           0             Mud Temperature
 MFRS.                         Resistivity Mud Filtrate
 MFTP.                         Temperature Mud Filtrate
 MCRS.         0               Resistivity Mud Cake
 MCTP.                         Temperature Mud Cake
 FTYP.             0           Fluid Type
 FD  .K/M3                     Fluid Density
 DFV .S                        Fluid Viscosity
 FPH .                         Fuild PH
 ELCO.        2500             Electron Cutoff
# -------------------------- 
~A DEPTH  GAM(NAT) COND     RES      TEMP  AP-COND  TEMP  AP-COND  TENSION  TIME    
# ...
 529.200     60.8    413.5      2.4  85.5    363.8  28815.0 98150.0      0.0  0.20000 
 529.300     86.1    407.2      2.5  85.6    358.4  28820.0 97500.0      0.0  0.20000 
 529.400     81.0    402.9      2.5  85.5    354.7  28815.0 97060.0      0.0  0.10000 
 529.500     55.7    399.9      2.5  85.5    352.1  28815.0 96755.0      0.0  0.20000 
 529.600     20.3    394.4      2.5  85.4    347.4  28810.0 96200.0      0.0  0.20000 
 529.700     65.8    396.3      2.5  85.5    349.0  28815.0 96385.0      0.0  0.10000 
 529.800     50.6    402.8      2.5  85.5    354.6  28815.0 97050.0      0.0  0.20000 
 529.900     55.7    408.3      2.4  85.6    359.4  28820.0 97620.0      0.0  0.10000 
 530.000     50.6    414.1      2.4  85.5    364.3  28815.0 98210.0      0.0  0.20000 
 530.100     70.9    423.3      2.4  85.4    372.2  28810.0 99150.0      0.0  0.20000 
 530.200     75.9    429.8      2.3  85.5    377.8  28815.0 99815.0      0.0  0.10000 
 530.300     50.6    434.9      2.3  85.5    382.2  28815.0 100335.0     0.0  0.20000 
 530.400     60.8    440.3      2.3  85.6    386.9  28820.0 100890.0     0.0  0.10000 
 530.500     40.5    447.0      2.2  85.5    392.6  28815.0 101570.0     0.0  0.20000 
 530.600     75.9    450.9      2.2  85.4    395.9  28810.0 101970.0     0.0  0.10000 
 530.700     40.5    462.1      2.2  85.5    405.5  28815.0 103115.0     0.0  0.20000 
 530.800     50.6    471.1      2.1  85.6    413.2  28820.0 104030.0     0.0  0.20000 
 530.900     45.6    479.5      2.1  85.5    420.5  28815.0 104890.0     0.0  0.10000 
 531.000     40.5    493.5      2.0  85.5    432.4  28815.0 106315.0     0.0  0.20000 
 531.100     25.3    501.1      2.0  85.6    439.0  28820.0 107090.0     0.0  0.10000 
 531.200     50.6    511.8      2.0  85.5    448.1  28815.0 108180.0     0.1  0.20000 
 531.300     45.6    519.4      1.9  85.4    454.6  28810.0 108950.0     0.1  0.10000 
 531.400     81.0    528.4      1.9  85.6    462.3  28820.0 109870.0     0.1  0.20000 
 531.500     30.4    534.4      1.9  85.4    467.4  28810.0 110480.0     0.1  0.10000 
 531.600     40.5    541.1      1.8  85.5    473.2  28815.0 111165.0     0.1  0.20000 
 531.700     60.8    545.7      1.8  85.6    477.1  28820.0 111630.0     0.1  0.20000 
 531.800     65.8    552.9      1.8  85.5    483.2  28815.0 112360.0     0.1  0.10000 
 531.900    101.3    561.2      1.8  85.5    490.3  28815.0 113200.0     0.3  0.20000 
 532.000     45.6    565.6      1.8  85.6    494.1  28820.0 113650.0     0.3  0.10000 
 532.100     30.4    569.9      1.8  85.5    497.7  28815.0 114085.0     0.3  0.20000 
 532.200     70.9    574.2      1.7  85.6    501.4  28820.0 114520.0     0.9  0.10000 
 532.300     81.0    577.1      1.7  85.4    503.9  28810.0 114815.0     0.9  0.20000 
 532.400     40.5    580.1      1.7  85.6    506.4  28820.0 115120.0     0.9  0.10000 
 532.500     96.2    583.4      1.7  85.5    509.2  28815.0 115455.0     0.7  0.20000 
 532.600    151.9    587.0      1.7  85.6    512.3  28820.0 115820.0     0.6  0.22000 
 532.700     50.6    590.0      1.7  85.5    514.9  28815.0 116130.0     0.6  0.11000 
 532.800     60.8    593.7      1.7  85.5    518.1  28815.0 116505.0     0.6  0.22000 
 532.900     75.9    596.6      1.7  85.6    520.5  28820.0 116790.0     0.0  0.11000 
 533.000     60.8    599.0      1.7  85.5    522.5  28815.0 117035.0     0.0  0.22000 
 533.100     60.8    600.6      1.7  85.6    523.9  28820.0 117200.0     0.0  0.11000 
 533.200     75.9    603.6      1.7  85.5    526.5  28815.0 117505.0     0.0  0.11000 
 533.300     40.5    604.2      1.7  85.6    527.0  28820.0 117570.0     0.0  0.20000 
 533.400     55.7    606.4      1.6  85.5    528.8  28815.0 117785.0     0.0  0.10000 
 533.500     70.9    610.7      1.6  85.6    532.5  28820.0 118220.0     0.0  0.20000 
 533.600     35.4    612.7      1.6  85.4    534.2  28810.0 118430.0     0.0  0.10000 
 533.700     50.6    617.1      1.6  85.6    538.0  28820.0 118875.0     0.0  0.20000 
 533.800     40.5    621.4      1.6  85.6    541.6  28820.0 119310.0     0.0  0.10000 
 533.900     55.7    625.4      1.6  85.5    545.0  28815.0 119715.0     0.0  0.20000 
 534.000     40.5    624.8      1.6  85.6    544.5  28820.0 119650.0     0.0  0.11000 
 534.100     35.4    626.7      1.6  85.5    546.1  28815.0 119845.0     0.0  0.22000 
 534.200     40.5    625.7      1.6  85.6    545.3  28820.0 119740.0     0.0  0.11000 
 534.300     91.1    624.4      1.6  85.5    544.2  28815.0 119610.0     0.0  0.22000 
 534.400     55.7    626.6      1.6  85.6    546.1  28820.0 119840.0     0.0  0.22000 
 534.500     60.8    621.9      1.6  85.5    542.0  28815.0 119360.0     0.0  0.11000 
 534.600     45.6    622.0      1.6  85.6    542.1  28820.0 119370.0     0.0  0.11000 
 534.700     40.5    619.2      1.6  85.6    539.8  28820.0 119090.0     0.0  0.10000 
 534.800     91.1    617.4      1.6  85.5    538.2  28815.0 118900.0     0.0  0.20000 
 534.900    121.5    615.6      1.6  85.6    536.7  28820.0 118720.0     0.0  0.10000 
 535.000     40.5    611.2      1.6  85.5    532.9  28815.0 118275.0     0.4  0.20000 
 535.100     40.5    606.3      1.6  85.6    528.8  28820.0 117780.0     0.4  0.20000 
 535.200     50.6    603.0      1.7  85.6    526.0  28820.0 117445.0     0.4  0.10000 
 535.300     75.9    590.5      1.7  85.5    515.3  28815.0 116175.0     0.4  0.20000 
 535.400     20.3    580.5      1.7  85.6    506.8  28820.0 115160.0     0.4  0.11000 
 535.500     60.8    570.4      1.8  85.6    498.2  28820.0 114135.0     0.4  0.22000 
 535.600     65.8    564.5      1.8  85.4    493.1  28810.0 113540.0     0.0  0.11000 
 535.700     20.3    561.3      1.8  85.6    490.4  28820.0 113215.0     0.0  0.22000 
 535.800     65.8    560.0      1.8  85.6    489.3  28820.0 113080.0     0.0  0.22000 
 535.900     91.1    557.7      1.8  85.4    487.3  28810.0 112845.0     0.0  0.11000 
 536.000     70.9    549.4      1.8  85.6    480.2  28820.0 112000.0     0.0  0.11000 
 536.100     55.7    539.8      1.9  85.6    472.1  28820.0 111030.0     0.0  0.10000 
 536.200     70.9    528.3      1.9  85.4    462.2  28810.0 109860.0     0.0  0.20000 
 536.300     75.9    517.0      1.9  85.6    452.6  28820.0 108710.0     0.0  0.10000 
 536.400     30.4    504.4      2.0  85.6    441.7  28820.0 107420.0     0.0  0.20000 
 536.500    121.5    493.5      2.0  85.6    432.4  28820.0 106310.0     0.0  0.20000 
 536.600     50.6    485.2      2.1  85.5    425.3  28815.0 105470.0     0.0  0.10000 
 536.700    141.8    470.6      2.1  85.6    412.8  28820.0 103980.0     0.2  0.20000 
 536.800    131.6    461.5      2.2  85.6    405.0  28820.0 103050.0     0.2  0.10000 
 536.900    101.3    453.6      2.2  85.4    398.3  28810.0 102250.0     0.2  0.20000 
 537.000     50.6    444.6      2.2  85.6    390.6  28820.0 101330.0     1.1  0.10000 
 537.100     55.7    434.7      2.3  85.6    382.0  28820.0 100315.0     1.7  0.20000 
 537.200     50.6    428.4      2.3  85.6    376.6  28820.0 99670.0      1.7  0.20000 
 537.300     91.1    422.1      2.4  85.5    371.2  28815.0 99025.0      1.7  0.10000 
 537.400    106.3    412.5      2.4  85.6    363.0  28820.0 98045.0      2.3  0.20000 
 537.500     40.5    406.4      2.5  85.6    357.7  28820.0 97420.0      2.3  0.10000 
 537.600     81.0    402.1      2.5  85.6    354.0  28820.0 96985.0      2.3  0.20000 
 537.700    121.5    394.7      2.5  85.6    347.6  28820.0 96220.0      1.6  0.10000 
 537.800    131.6    391.8      2.6  85.5    345.2  28815.0 95930.0      2.0  0.20000 
 537.900     86.1    389.1      2.6  85.6    342.8  28820.0 95650.0      2.0  0.10000 
 538.000     20.3    384.1      2.6  85.6    338.5  28820.0 95140.0      2.0  0.20000 
 538.100     70.9    379.3      2.6  85.6    334.4  28820.0 94650.0      2.4  0.20000 
 538.200    106.3    377.1      2.7  85.6    332.5  28820.0 94420.0      2.4  0.11000 
 538.300     50.6    374.5      2.7  85.6    330.2  28820.0 94150.0      2.4  0.22000 
