~Version Information
 VERS.                2.0:  CWLS LOG ASCII STANDARD -VERSION 2.0
 WRAP.                 NO:  ONE LINE PER DEPTH STEP
~WELL INFORMATION BLOCK
#MNEM.UNIT       DATA		            DESCRIPTION OF MNEMONIC
#---------    -------------            ------------------------
 STRT.FT  1.400                          :START DEPTH
 STOP.FT  1872.000                       :STOP DEPTH
 STEP.FT  0.100                          :STEP    UP_HOLE  
 NULL.    0                              :NULL VALUE
 COMP.                            USGS   :COMPANY
 WELL.                      MCWD-DMW #1  :WELL
 FLD .                           Marina  :FIELD
 LOC .    None  None  None               :LOCATION
 CNTY.                         Monterey  :COUNTY
 STAT.             California            :STATE
 SRVC.    Western Reg                    :SERVICE COMPANY
 DATE.   05/27/00                        :LOG DATE
 UWI .                       	         :UNIQUE WELL ID
 LIC .                                   :LICENSE NUMBER
~Curve Information Block
#MNEM.UNIT      API CODE     Curve Description
#---------    -------------  ------------------------
 DEPT     .FT        00 001 00 00          :  1  DEPTH   
 TIME(N)  .USEC      00 000 00 00          :  2              TIME(N)
 TIME(F)  .USEC      00 000 00 00          :  3              TIME(F)
 DELTAT   .USEC/FT   00 522 00 00          :  4               DELTAT
 AMP(N)   .MV        00 000 00 00          :  5               AMP(N)
 AMP(F)   .MV        00 000 00 00          :  6               AMP(F)
 XTR PWR  .PERCENT   00 000 00 00          :  7              XTR PWR
 POR(SON) .PERCENT   00 890 00 00          :  8             POR(SON)
 BHC-DELT .USEC/FT   00 520 00 00          :  9             BHC-DELT
 TENSION  .POUNDS    00 000 00 00          : 10              TENSION
 TIME     .MINUTES   00 000 00 00          : 11                 TIME
~Parameter Information Block
#MNEM.UNIT   Information     Description
#---------- ---------------  ------------------------
~Other Information
#MNEM.UNIT  Information      Description
#---------- ---------------  ------------------------
 FILE.      ORIGINAL           File Type
 FIID.      9300A              File Type Identifier
 VERS.      1.0                System Version
 SER .      1                  System Serial Number
 TRUK.      0.5                Truck Calibration Number
 TOOL.         691             Tool Serial Number
 TIME.      07:18:             Time
 LAT .          None           Latitude
 LON .          None           Longitude
 LMF .           LSD           Log Measured From
 DMF .           LSD           Driller Measured From
 PD  .          None           Permanent Data
 PDEV.          None           Elevation Permanent Data
 EKB .M         None           Elevation Kelly Bushing
 ELEV.DF        None           Elevation DF
 EGL .M         None           Elevation Ground Level
 DRDP.         1990'           Driller's Depth
 CASD.         0               Casing Diameter
 CASB.          None           Casing Bottom
 CASX.          None           Casing Type
 CAST.         0               Casing Thickness
 TNOC.          None           Time Circulation Stopped
 LOGU.       WRRD              Logging Unit
 RECB.           Everett       Recorded By
 OSR1.       Pimente           Other Services
 OSR2.       mud vis           Other Services
 OSR3.           =62           Other Services
 BS  .MM           6           Bit Size
 MST .                         Mean Surface Temperature
 TGRD.        0                Temperature Gradiant
 MAGN.             0           Magnetic Declination
 MDEN.      2.71               Density Matrix
 MATR.       Dolomite          Neutron Matrix
 DTMT.            54           Delta T Matrix
 DTFL.                         Delta T Fluid
 MUDS.               0         Mud Sample Source
 MRS .           0             Mud Resistivity
 MTP .           0             Mud Temperature
 MFRS.                         Resistivity Mud Filtrate
 MFTP.                         Temperature Mud Filtrate
 MCRS.         0               Resistivity Mud Cake
 MCTP.                         Temperature Mud Cake
 FTYP.             0           Fluid Type
 FD  .K/M3                     Fluid Density
 DFV .S                        Fluid Viscosity
 FPH .                         Fuild PH
 ELCO.        2500             Electron Cutoff
# -------------------------- 
~A DEPTH  TIME(N) TIME(F) DELTAT AMP(N)   AMP(F)   XTR PWR POR(SON) BHC-DELT TENSION  TIME    
# ...
1735.400   446     567    120.9   3323.5   1769.5  73.2    35.0      121         0.0  0.20000 
1735.500   448     598    149.9   2825.0   2523.5  73.8    38.0      136         0.0  0.20000 
1735.600   450     623    173.1   2596.5   6613.0  76.2    38.1      136         0.0  0.20000 
1735.700   451     589    137.8   2621.0   3112.5  79.3    35.8      125         0.0  0.20000 
1735.800   453     577    124.3   2694.0   1364.0  81.9    34.8      121         0.0  0.10000 
1735.900   455     579    124.4   2818.5   1203.0  82.7    35.1      122         0.0  0.20000 
1736.000   456     580    124.6   2851.5   1297.5  81.4    35.2      122         0.0  0.20000 
1736.100   456     582    125.9   2813.5   1508.5  79.2    35.3      123         0.0  0.20000 
1736.200   456     582    125.9   2900.0   1481.0  77.4    35.4      123         0.0  0.20000 
1736.300   456     582    126.8   3407.0   1523.5  75.6    35.6      124         0.0  0.20000 
1736.400   454     583    129.4   4193.0   1412.0  73.4    35.9      125         0.0  0.10000 
1736.500   451     584    133.4   4973.5   1274.0  71.6    36.3      128         0.3  0.20000 
1736.600   448     585    136.8   5262.0   1176.5  69.7    36.7      129         0.3  0.20000 
1736.700   446     586    140.5   4929.5   1179.0  67.9    37.1      131         0.8  0.20000 
1736.800   443     587    144.1   4120.5   1300.0  66.8    37.4      133         0.8  0.20000 
1736.900   441     587    146.2   2989.0   1415.5  68.1    37.6      134         0.8  0.20000 
1737.000   442     587    144.9   2264.0   1426.5  72.1    37.4      133         0.8  0.20000 
1737.100   445     586    141.2   1919.0   1445.0  75.5    40.4      151         0.9  0.10000 
1737.200   452     585    133.7   1908.5   1514.5  78.9    38.9      141         1.6  0.20000 
1737.300   461     583    122.8   1840.0   1740.5  83.2    37.9      135         2.8  0.20000 
1737.400   466     580    114.6   2575.0   2288.0  84.8    36.4      128         2.9  0.20000 
1737.500   470     577    106.9   2223.0   2408.5  83.3    34.8      121         2.9  0.20000 
1737.600   492     575     83.4   3058.5   2106.0  81.0    32.3      111         2.5  0.20000 
1737.700   490     574     84.0   8811.0   2258.5  78.7    33.7      116         1.4  0.20000 
1737.800   484     571     86.4   7114.5   2112.5  76.3    33.1      114         0.4  0.20000 
1737.900   463     568    105.5    658.5   1738.5  75.4    34.1      118         0.3  0.20000 
1738.000   462     569    106.7   1141.5   1502.0  77.3    27.1       95         0.3  0.10000 
1738.100   463     573    109.8   1357.5   1578.0  77.2    26.4       93         0.3  0.20000 
1738.200   465     580    115.1   1673.0   1997.5  80.1    28.7       99         0.2  0.20000 
1738.300   467     590    122.7   1910.0   2262.0  84.9    33.1      114         0.2  0.20000 
1738.400   469     597    127.8   2015.0   3387.0  85.5    36.9      130         0.3  0.20000 
1738.500   471     603    131.6   2001.0   3152.5  83.1    40.1      149         0.5  0.20000 
1738.600   473     612    139.1   2147.5   3311.0  80.7    40.0      148         0.6  0.20000 
1738.700   473     597    124.8   2514.5   2013.5  78.3    38.3      138         0.6  0.10000 
1738.800   473     595    122.1   2637.0   1259.0  76.4    37.0      131         0.6  0.20000 
1738.900   472     597    124.4   2586.5   1098.5  74.4    37.3      133         1.0  0.20000 
1739.000   471     597    126.3   2518.0   1054.5  71.8    37.5      133         0.8  0.20000 
1739.100   469     598    128.9   2423.5    810.5  69.4    37.7      134         2.0  0.20000 
1739.200   468     599    131.3   2315.0    684.0  71.6    38.0      136         2.9  0.20000 
1739.300   467     600    133.3   2146.0    671.0  75.5    37.8      135         2.9  0.20000 
1739.400   466     600    134.6   2015.5    768.5  74.9    38.0      136         2.9  0.20000 
1739.500   464     601    136.1   1939.5    890.0  76.4    38.0      136         2.2  0.10000 
1739.600   463     609    146.2   1315.0   3953.0  78.9    38.9      141         0.9  0.20000 
1739.700   494     629    135.5   7735.0   7957.0  80.5    37.8      135         0.0  0.20000 
1739.800   483     619    136.0   3142.0   3711.0  81.6    37.8      135         0.0  0.20000 
1739.900   474     608    134.7   2848.0   2704.0  82.1    37.5      134         0.0  0.20000 
1740.000   471     606    134.8   3899.0   3597.0  80.9    37.4      133         0.0  0.20000 
1740.100   470     604    134.0   3724.5   3505.5  78.7    37.3      132         0.0  0.20000 
1740.200   470     604    133.2   3023.5   3391.0  78.9    37.1      131         0.1  0.20000 
1740.300   472     603    130.6   2276.0   3305.5  83.3    36.7      129         0.9  0.20000 
1740.400   473     602    128.4   1226.0   2814.5  85.1    36.3      127         2.8  0.10000 
1740.500   469     601    131.9   1790.0   2191.5  84.3    36.6      129         3.9  0.20000 
1740.600   470     601    131.2   2229.5   1665.0  85.3    36.6      129         3.9  0.20000 
1740.700   470     600    129.3   2060.0   1348.5  85.5    36.6      129         3.8  0.20000 
1740.800   471     614    143.6   1187.0   3310.5  83.9    37.9      136         3.1  0.20000 
1740.900   496     619    123.2   2696.5   1539.0  81.7    35.8      125         1.8  0.20000 
1741.000   499     604    105.3   1297.0   1736.0  79.4    33.7      116         2.0  0.20000 
1741.100   478     597    119.4   1604.5   1582.0  78.1    35.5      124         3.3  0.20000 
1741.200   467     588    120.5   2423.0   1586.0  77.3    35.7      125         4.1  0.10000 
1741.300   464     585    120.8   1852.5   1464.0  75.8    35.8      125         4.2  0.20000 
1741.400   464     584    119.7   2340.0   1753.0  74.9    35.9      126         4.1  0.20000 
1741.500   462     582    120.3   2535.0   2180.0  73.6    36.1      127         2.8  0.20000 
1741.600   440     584    144.3    419.0   2566.5  71.6    37.3      132         1.5  0.20000 
1741.700   442     588    146.3    492.0   2233.0  71.5    36.1      127         1.7  0.20000 
1741.800   475     592    116.8   2115.0   1868.0  70.6    33.1      114         4.0  0.20000 
1741.900   502     595     92.6   4549.0   1555.5  68.2    32.9      113         3.8  0.20000 
1742.000   502     599     97.3   2920.5    968.0  66.5    33.7      116         3.3  0.20000 
1742.100   502     627    124.3   3208.5   2945.0  65.1    36.7      129         3.3  0.10000 
1742.200   504     629    125.4   5465.5   2566.5  62.8    36.7      130         2.3  0.20000 
1742.300   505     629    124.3   9665.0   2178.0  59.7    36.5      128         0.0  0.20000 
1742.400   476     630    153.9   3048.5   1824.0  60.3    39.1      142         0.0  0.20000 
1742.500   463     630    167.4   1699.0   1559.5  59.9    40.0      148         0.0  0.20000 
1742.600   463     630    167.1   2243.5   1269.0  57.0    40.6      152         0.0  0.20000 
1742.700   463     629    166.0   2316.0   1117.5  55.3    41.9      161         0.0  0.20000 
1742.800   464     627    163.4   2167.5    740.5  59.7    41.0      155         0.4  0.20000 
1742.900   463     612    148.8   2162.0    933.0  63.0    39.1      142         1.5  0.20000 
1743.000   463     612    148.6   2314.5    935.5  66.0    39.0      142         2.3  0.10000 
1743.100   462     612    149.7   2458.0    653.0  64.3    39.1      143         3.4  0.20000 
1743.200   461     620    159.0   2349.5   2453.5  61.5    39.9      148         3.4  0.20000 
1743.300   460     634    174.1   2118.0   9479.0  58.6    41.1      155         3.4  0.22000 
1743.400   459     634    174.8   1825.0   9493.0  55.6    41.1      156         3.4  0.22000 
1743.500   458     605    146.4   1321.5   2654.0  52.5    39.0      142         3.5  0.22000 
1743.600   479     593    114.0   2661.0   1277.0  49.8    36.0      126         4.4  0.22000 
1743.700   485     595    110.3   1348.0   1375.5  47.4    31.6      108         4.7  0.11000 
1743.800   498     596     97.6   1514.0   1284.5  45.1    33.2      114         5.6  0.11000 
