~Version Information
 VERS.                2.0:  CWLS LOG ASCII STANDARD -VERSION 2.0
 WRAP.                 NO:  ONE LINE PER DEPTH STEP
~WELL INFORMATION BLOCK
#MNEM.UNIT       DATA		            DESCRIPTION OF MNEMONIC
#---------    -------------            ------------------------
 STRT.FT  1.400                          :START DEPTH
 STOP.FT  1872.000                       :STOP DEPTH
 STEP.FT  0.100                          :STEP    UP_HOLE  
 NULL.    0                              :NULL VALUE
 COMP.                            USGS   :COMPANY
 WELL.                      MCWD-DMW #1  :WELL
 FLD .                           Marina  :FIELD
 LOC .    None  None  None               :LOCATION
 CNTY.                         Monterey  :COUNTY
 STAT.             California            :STATE
 SRVC.    Western Reg                    :SERVICE COMPANY
 DATE.   05/27/00                        :LOG DATE
 UWI .                       	         :UNIQUE WELL ID
 LIC .                                   :LICENSE NUMBER
~Curve Information Block
#MNEM.UNIT      API CODE     Curve Description
#---------    -------------  ------------------------
 DEPT     .FT        00 001 00 00          :  1  DEPTH   
 TIME(N)  .USEC      00 000 00 00          :  2              TIME(N)
 TIME(F)  .USEC      00 000 00 00          :  3              TIME(F)
 DELTAT   .USEC/FT   00 522 00 00          :  4               DELTAT
 AMP(N)   .MV        00 000 00 00          :  5               AMP(N)
 AMP(F)   .MV        00 000 00 00          :  6               AMP(F)
 XTR PWR  .PERCENT   00 000 00 00          :  7              XTR PWR
 POR(SON) .PERCENT   00 890 00 00          :  8             POR(SON)
 BHC-DELT .USEC/FT   00 520 00 00          :  9             BHC-DELT
 TENSION  .POUNDS    00 000 00 00          : 10              TENSION
 TIME     .MINUTES   00 000 00 00          : 11                 TIME
~Parameter Information Block
#MNEM.UNIT   Information     Description
#---------- ---------------  ------------------------
~Other Information
#MNEM.UNIT  Information      Description
#---------- ---------------  ------------------------
 FILE.      ORIGINAL           File Type
 FIID.      9300A              File Type Identifier
 VERS.      1.0                System Version
 SER .      1                  System Serial Number
 TRUK.      0.5                Truck Calibration Number
 TOOL.         691             Tool Serial Number
 TIME.      07:18:             Time
 LAT .          None           Latitude
 LON .          None           Longitude
 LMF .           LSD           Log Measured From
 DMF .           LSD           Driller Measured From
 PD  .          None           Permanent Data
 PDEV.          None           Elevation Permanent Data
 EKB .M         None           Elevation Kelly Bushing
 ELEV.DF        None           Elevation DF
 EGL .M         None           Elevation Ground Level
 DRDP.         1990'           Driller's Depth
 CASD.         0               Casing Diameter
 CASB.          None           Casing Bottom
 CASX.          None           Casing Type
 CAST.         0               Casing Thickness
 TNOC.          None           Time Circulation Stopped
 LOGU.       WRRD              Logging Unit
 RECB.           Everett       Recorded By
 OSR1.       Pimente           Other Services
 OSR2.       mud vis           Other Services
 OSR3.           =62           Other Services
 BS  .MM           6           Bit Size
 MST .                         Mean Surface Temperature
 TGRD.        0                Temperature Gradiant
 MAGN.             0           Magnetic Declination
 MDEN.      2.71               Density Matrix
 MATR.       Dolomite          Neutron Matrix
 DTMT.            54           Delta T Matrix
 DTFL.                         Delta T Fluid
 MUDS.               0         Mud Sample Source
 MRS .           0             Mud Resistivity
 MTP .           0             Mud Temperature
 MFRS.                         Resistivity Mud Filtrate
 MFTP.                         Temperature Mud Filtrate
 MCRS.         0               Resistivity Mud Cake
 MCTP.                         Temperature Mud Cake
 FTYP.             0           Fluid Type
 FD  .K/M3                     Fluid Density
 DFV .S                        Fluid Viscosity
 FPH .                         Fuild PH
 ELCO.        2500             Electron Cutoff
# -------------------------- 
~A DEPTH  TIME(N) TIME(F) DELTAT AMP(N)   AMP(F)   XTR PWR POR(SON) BHC-DELT TENSION  TIME    
# ...
1114.900   549     707    158.1   2938.0   1515.0  49.1    41.2      156         0.0  0.20000 
1115.000   548     705    156.9   2750.5   1546.5  50.1    41.2      156         0.0  0.20000 
1115.100   547     703    156.7   2483.5   1522.0  50.9    41.2      156         0.0  0.10000 
1115.200   545     701    155.7   2523.0   1632.5  51.5    41.2      156         0.0  0.20000 
1115.300   544     698    154.1   2454.0   1733.5  51.4    41.1      155         1.0  0.20000 
1115.400   542     696    153.4   2542.0   1867.0  51.0    41.1      155         1.0  0.20000 
1115.500   541     693    152.8   2742.0   1971.5  50.3    41.1      156         1.0  0.20000 
1115.600   539     692    152.4   2819.0   1974.0  48.4    41.1      156         1.7  0.20000 
1115.700   538     690    152.3   2900.0   1861.0  46.3    41.2      156         1.7  0.20000 
1115.800   536     688    152.0   3141.5   1811.5  44.0    41.2      156         1.7  0.10000 
1115.900   534     687    152.8   3365.5   1718.0  41.3    41.3      157         0.7  0.20000 
1116.000   533     686    153.1   3470.0   1653.0  38.7    41.4      157         1.0  0.20000 
1116.100   531     685    153.3   3479.0   1634.0  37.0    41.4      158         0.3  0.20000 
1116.200   530     684    153.9   3370.5   1616.5  35.6    41.5      158         0.3  0.20000 
1116.300   529     683    154.4   3287.5   1510.5  34.1    41.5      159         0.5  0.20000 
1116.400   528     683    154.2   3251.0   1359.0  33.8    41.5      158         0.5  0.20000 
1116.500   528     681    153.2   3235.0   1372.0  34.4    41.4      158         0.7  0.10000 
1116.600   528     680    152.1   3339.0   1403.0  35.5    41.3      157         1.1  0.20000 
1116.700   528     678    150.4   3397.0   1462.0  36.3    41.1      156         1.1  0.20000 
1116.800   528     676    148.3   3223.5   1618.0  36.8    40.9      154         0.9  0.20000 
1116.900   528     675    147.4   3144.5   1833.5  37.1    40.7      153         1.1  0.20000 
1117.000   527     674    146.5   3181.5   1978.5  37.3    40.6      152         0.9  0.20000 
1117.100   527     672    145.6   3282.0   1964.0  37.7    40.4      150         0.9  0.10000 
1117.200   527     671    144.4   3463.0   1909.5  38.5    40.2      149         0.6  0.20000 
1117.300   526     670    143.7   3624.0   1889.5  39.1    40.0      148         0.6  0.20000 
1117.400   526     669    143.4   3856.0   1927.0  38.8    39.9      147         0.4  0.20000 
1117.500   525     669    143.6   3990.0   1954.0  38.3    39.8      147         0.4  0.20000 
1117.600   525     669    143.9   3982.5   1967.5  38.0    39.7      146         0.4  0.20000 
1117.700   525     670    144.7   3746.5   1936.5  38.2    39.6      146         0.4  0.20000 
1117.800   524     670    145.8   3200.5   1797.5  38.8    39.6      145         0.0  0.20000 
1117.900   524     670    146.7   3044.5   1660.5  40.0    39.6      146         0.0  0.10000 
1118.000   523     670    146.9   3397.5   1690.5  41.4    39.6      145         0.3  0.20000 
1118.100   522     669    147.0   3475.0   1773.0  43.2    39.6      145         0.3  0.20000 
1118.200   521     669    147.8   3376.5   1800.5  45.4    39.5      145         0.3  0.20000 
1118.300   521     669    148.4   3207.0   1780.0  46.3    39.5      145         0.3  0.20000 
1118.400   520     669    148.9   3206.0   1867.5  45.5    39.4      144         0.3  0.20000 
1118.500   520     669    148.8   3243.0   1999.0  44.8    39.3      144         0.3  0.20000 
1118.600   520     669    148.5   3192.0   2041.5  45.1    39.3      144         0.0  0.20000 
1118.700   520     669    148.4   2993.0   1885.5  45.5    39.3      144         0.0  0.10000 
1118.800   521     669    148.1   2863.5   1625.0  46.0    39.2      143         0.0  0.20000 
1118.900   521     668    147.3   2760.0   1602.5  46.6    39.2      143         0.0  0.20000 
1119.000   521     668    146.4   2809.0   1698.0  47.0    39.1      142         0.0  0.20000 
1119.100   522     668    145.8   2791.5   1708.0  47.3    39.0      142         0.0  0.20000 
1119.200   523     668    144.7   2934.0   1868.0  47.5    39.0      142         0.0  0.20000 
1119.300   524     668    143.2   3220.5   2062.0  47.1    38.9      141         0.0  0.20000 
1119.400   525     667    141.9   3263.0   2059.5  45.9    38.9      141         0.0  0.10000 
1119.500   526     668    141.3   3323.5   1981.0  44.3    38.9      141         0.0  0.20000 
1119.600   527     668    140.8   3375.0   1980.0  42.7    38.8      141         0.0  0.20000 
1119.700   528     669    141.1   3290.0   1886.0  41.0    38.8      141         0.0  0.20000 
1119.800   528     669    141.1   3266.5   1724.5  39.7    38.8      141         0.0  0.20000 
1119.900   529     671    141.1   3226.5   1593.0  39.1    38.9      141         0.0  0.20000 
1120.000   530     671    141.1   3263.5   1575.5  38.6    38.9      141         0.1  0.20000 
1120.100   532     673    141.0   3286.5   1528.5  38.5    38.9      141         0.1  0.20000 
1120.200   532     674    141.8   3118.5   1499.0  38.5    38.9      141         0.2  0.10000 
1120.300   533     675    142.4   2933.0   1521.5  38.5    39.0      142         0.2  0.20000 
1120.400   533     677    143.6   2711.5   1546.5  38.7    39.1      142         0.2  0.20000 
1120.500   534     679    144.1   2616.0   1603.0  39.0    39.1      142         0.2  0.20000 
1120.600   536     680    143.6   2744.5   1688.0  39.7    39.1      142         0.6  0.20000 
1120.700   538     681    143.3   2816.0   1751.0  40.3    39.1      143         0.6  0.20000 
1120.800   540     683    143.2   2906.0   1835.5  40.3    39.1      143         1.5  0.20000 
1120.900   541     685    143.9   2901.0   1906.0  39.4    39.2      143         1.5  0.20000 
1121.000   545     688    142.4   2731.7   1999.5  37.8    39.1      142         2.7  0.20000 
1121.100   548     690    142.9   2523.0   2078.5  37.5    39.2      143         2.2  0.20000 
1121.200   550     694    143.7   2305.5   1938.5  38.4    39.2      143         2.7  0.20000 
1121.300   554     697    142.8   2041.0   1728.0  39.3    39.2      143         1.7  0.10000 
1121.400   559     701    141.9   2075.5   1603.5  39.8    39.1      143         1.8  0.20000 
1121.500   563     705    142.3   2802.5   2122.0  39.7    39.2      143         0.6  0.20000 
1121.600   565     708    142.8   3213.5   2576.0  39.2    39.2      143         0.6  0.20000 
1121.700   567     710    143.3   3370.0   2617.0  38.0    39.3      144         0.1  0.20000 
1121.800   568     712    143.9   3226.5   2441.5  35.3    39.4      144         0.1  0.20000 
1121.900   569     713    144.5   3004.0   2257.0  31.7    39.5      145         0.0  0.20000 
1122.000   569     716    147.2   2895.0   2055.0  28.6    39.7      146         0.0  0.22000 
1122.100   569     717    148.1   2991.0   1946.0  27.1    39.8      147         0.0  0.22000 
1122.200   569     718    149.0   3074.5   1764.0  27.1    40.0      148         0.0  0.22000 
1122.300   570     720    150.3   3094.0   1618.5  28.9    40.1      149         0.0  0.11000 
1122.400   572     723    150.8   2906.0   1462.0  30.5    40.2      149         0.0  0.22000 
1122.500   576     726    150.5   2705.5   1468.5  31.9    40.2      149         0.0  0.11000 
1122.600   580     730    150.0   2472.5   1590.0  33.5    40.2      149         0.0  0.20000 
1122.700   583     733    149.6   2795.0   2210.0  34.9    40.2      149         0.0  0.20000 
1122.800   585     735    150.0   3032.0   2711.5  35.5    40.2      149         0.0  0.20000 
1122.900   586     736    149.7   3298.0   2801.0  35.1    40.3      150         0.0  0.20000 
1123.000   588     736    148.6   3772.0   2835.0  33.9    40.2      149         0.0  0.20000 
1123.100   589     738    148.3   3912.5   2649.5  31.5    40.2      149         0.4  0.20000 
1123.200   591     738    147.3   3069.0   2303.5  28.7    40.1      149         0.4  0.20000 
1123.300   592     738    146.5   2209.0   1920.0  27.0    40.1      149         0.4  0.20000 
