~Version Information
 VERS.                2.0:  CWLS LOG ASCII STANDARD -VERSION 2.0
 WRAP.                 NO:  ONE LINE PER DEPTH STEP
~WELL INFORMATION BLOCK
#MNEM.UNIT       DATA		            DESCRIPTION OF MNEMONIC
#---------    -------------            ------------------------
 STRT.FT  41.500                         :START DEPTH
 STOP.FT  1871.500                       :STOP DEPTH
 STEP.FT  0.100                          :STEP    UP_HOLE  
 NULL.    0                              :NULL VALUE
 COMP.                            USGS   :COMPANY
 WELL.                      MCWD-DMW #1  :WELL
 FLD .                           Marina  :FIELD
 LOC .    None  None  None               :LOCATION
 CNTY.                         Monterey  :COUNTY
 STAT.             California            :STATE
 SRVC.    Western Reg                    :SERVICE COMPANY
 DATE.   05/27/00                        :LOG DATE
 UWI .                       	         :UNIQUE WELL ID
 LIC .                                   :LICENSE NUMBER
~Curve Information Block
#MNEM.UNIT      API CODE     Curve Description
#---------    -------------  ------------------------
 DEPT     .FT        00 001 00 00          :  1  DEPTH   
 GAM(NAT) .API-GR    00 310 00 00          :  2             GAM(NAT)
 COND     .MMHO/M    00 000 00 00          :  3                 COND
 RES      .OHM-M     00 000 00 00          :  4                  RES
 TEMP     .DEG F     00 660 00 00          :  5                 TEMP
 AP-COND  .MMHO/M    00 000 00 00          :  6              AP-COND
 TEMP     .CPS       00 660 00 00          :  7                 TEMP
 AP-COND  .CPS       00 000 00 00          :  8              AP-COND
 TENSION  .POUNDS    00 000 00 00          :  9              TENSION
 TIME     .MINUTES   00 000 00 00          : 10                 TIME
~Parameter Information Block
#MNEM.UNIT   Information     Description
#---------- ---------------  ------------------------
~Other Information
#MNEM.UNIT  Information      Description
#---------- ---------------  ------------------------
 FILE.      ORIGINAL           File Type
 FIID.      9511A              File Type Identifier
 VERS.      1.0                System Version
 SER .      1                  System Serial Number
 TRUK.      0.5                Truck Calibration Number
 TOOL.         770             Tool Serial Number
 TIME.      05:18:             Time
 LAT .          None           Latitude
 LON .          None           Longitude
 LMF .           LSD           Log Measured From
 DMF .           LSD           Driller Measured From
 PD  .          None           Permanent Data
 PDEV.          None           Elevation Permanent Data
 EKB .M         None           Elevation Kelly Bushing
 ELEV.DF        None           Elevation DF
 EGL .M         None           Elevation Ground Level
 DRDP.         1990'           Driller's Depth
 CASD.         0               Casing Diameter
 CASB.          None           Casing Bottom
 CASX.          None           Casing Type
 CAST.         0               Casing Thickness
 TNOC.          None           Time Circulation Stopped
 LOGU.       WRRD              Logging Unit
 RECB.           Everett       Recorded By
 OSR1.       Pimente           Other Services
 OSR2.       mud vis           Other Services
 OSR3.           =62           Other Services
 BS  .MM           6           Bit Size
 MST .                         Mean Surface Temperature
 TGRD.        0                Temperature Gradiant
 MAGN.             0           Magnetic Declination
 MDEN.      2.71               Density Matrix
 MATR.       Dolomite          Neutron Matrix
 DTMT.            54           Delta T Matrix
 DTFL.                         Delta T Fluid
 MUDS.               0         Mud Sample Source
 MRS .           0             Mud Resistivity
 MTP .           0             Mud Temperature
 MFRS.                         Resistivity Mud Filtrate
 MFTP.                         Temperature Mud Filtrate
 MCRS.         0               Resistivity Mud Cake
 MCTP.                         Temperature Mud Cake
 FTYP.             0           Fluid Type
 FD  .K/M3                     Fluid Density
 DFV .S                        Fluid Viscosity
 FPH .                         Fuild PH
 ELCO.        2500             Electron Cutoff
# -------------------------- 
~A DEPTH  GAM(NAT) COND     RES      TEMP  AP-COND  TEMP  AP-COND  TENSION  TIME    
# ...
 161.200     20.3    743.1      1.3  80.9    645.0  28580.0 131660.0     0.0  0.20000 
 161.300     55.7    735.0      1.4  80.9    638.2  28580.0 130845.0     0.0  0.20000 
 161.400     40.5    728.6      1.4  80.9    632.7  28580.0 130195.0     0.0  0.20000 
 161.500     35.4    721.6      1.4  81.0    626.8  28585.0 129490.0     0.0  0.20000 
 161.600     67.5    717.3      1.4  80.9    623.1  28580.0 129055.0     0.0  0.20000 
 161.700     20.3    708.5      1.4  80.9    615.7  28580.0 128170.0     0.0  0.20000 
 161.800     50.6    704.3      1.4  80.9    612.1  28580.0 127745.0     0.0  0.20000 
 161.900     40.5    697.4      1.4  80.9    606.2  28580.0 127045.0     0.3  0.20000 
 162.000     40.5    691.0      1.4  80.9    600.8  28580.0 126400.0     0.3  0.20000 
 162.100     55.7    684.2      1.5  80.9    595.0  28580.0 125710.0     1.1  0.20000 
 162.200     40.5    678.6      1.5  80.9    590.3  28580.0 125145.0     1.1  0.20000 
 162.300     35.4    674.0      1.5  81.0    586.4  28585.0 124680.0     1.6  0.20000 
 162.400     60.8    666.5      1.5  80.9    580.0  28580.0 123925.0     1.3  0.20000 
 162.500     40.5    660.6      1.5  80.9    575.0  28580.0 123325.0     2.7  0.20000 
 162.600     35.4    653.9      1.5  80.9    569.3  28580.0 122645.0     1.9  0.20000 
 162.700     40.5    649.8      1.5  80.9    565.8  28580.0 122230.0     3.4  0.20000 
 162.800     50.6    644.0      1.6  80.9    560.9  28580.0 121645.0     4.2  0.20000 
 162.900     55.7    640.7      1.6  81.0    558.1  28585.0 121310.0     5.3  0.20000 
 163.000     86.1    635.4      1.6  80.9    553.6  28580.0 120775.0     4.2  0.20000 
 163.100     35.4    631.6      1.6  81.0    550.3  28585.0 120385.0     4.2  0.20000 
 163.200     50.6    628.9      1.6  80.9    548.0  28580.0 120120.0     3.3  0.20000 
 163.300     50.6    626.9      1.6  81.0    546.3  28585.0 119915.0     2.0  0.20000 
 163.400     50.6    626.8      1.6  80.9    546.2  28580.0 119900.0     1.6  0.20000 
 163.500     45.6    628.6      1.6  80.9    547.8  28580.0 120090.0     1.3  0.20000 
 163.600     75.9    629.8      1.6  80.9    548.8  28580.0 120210.0     1.8  0.20000 
 163.700     30.4    629.7      1.6  80.9    548.7  28580.0 120200.0     1.7  0.20000 
 163.800     70.9    631.9      1.6  80.9    550.6  28580.0 120425.0     1.7  0.20000 
 163.900     55.7    635.4      1.6  81.0    553.6  28585.0 120775.0     1.6  0.20000 
 164.000     57.4    635.6      1.6  80.9    553.7  28580.0 120790.0     1.6  0.20000 
 164.100     40.5    636.6      1.6  80.9    554.6  28580.0 120900.0     1.7  0.20000 
 164.200     30.4    635.7      1.6  80.9    553.8  28580.0 120810.0     1.2  0.20000 
 164.300     60.8    638.5      1.6  81.0    556.2  28585.0 121090.0     3.0  0.20000 
 164.400     60.8    637.7      1.6  81.0    555.5  28585.0 121005.0     2.4  0.20000 
 164.500     65.8    636.5      1.6  80.9    554.5  28580.0 120890.0     4.9  0.20000 
 164.600     35.4    633.5      1.6  81.0    551.9  28585.0 120580.0     4.4  0.20000 
 164.700     55.7    630.3      1.6  81.0    549.2  28585.0 120260.0     4.6  0.20000 
 164.800     40.5    626.5      1.6  80.9    545.9  28580.0 119870.0     2.8  0.20000 
 164.900     55.7    621.6      1.6  81.0    541.8  28585.0 119375.0     2.8  0.20000 
 165.000     81.0    616.1      1.6  81.0    537.1  28585.0 118815.0     0.3  0.20000 
 165.100     60.8    610.2      1.6  80.9    532.1  28580.0 118225.0     0.2  0.20000 
 165.200     35.4    602.0      1.7  81.0    525.1  28585.0 117385.0     0.0  0.20000 
 165.300     81.0    592.9      1.7  81.0    517.4  28585.0 116470.0     0.0  0.20000 
 165.400     45.6    585.4      1.7  81.0    510.9  28585.0 115700.0     0.0  0.20000 
 165.500     40.5    577.0      1.7  80.9    503.8  28580.0 114850.0     0.0  0.20000 
 165.600     75.9    567.5      1.8  81.0    495.7  28585.0 113885.0     0.0  0.20000 
 165.700     96.2    560.9      1.8  81.0    490.0  28585.0 113215.0     0.9  0.20000 
 165.800     81.0    552.2      1.8  81.0    482.6  28585.0 112335.0     1.4  0.30000 
 165.900     50.6    545.1      1.8  81.0    476.6  28585.0 111615.0     1.4  0.20000 
 166.000     50.6    536.1      1.9  80.9    468.9  28580.0 110696.7     1.6  0.20000 
 166.100     45.6    527.7      1.9  81.0    461.7  28585.0 109840.0     0.7  0.20000 
 166.200     75.9    522.4      1.9  81.0    457.2  28585.0 109305.0     0.7  0.20000 
 166.300     60.8    517.3      1.9  81.0    452.8  28585.0 108785.0     0.2  0.20000 
 166.400     65.8    510.8      2.0  81.0    447.3  28585.0 108125.0     0.2  0.20000 
 166.500     40.5    505.5      2.0  81.0    442.7  28585.0 107580.0     0.0  0.20000 
 166.600     70.9    498.3      2.0  81.0    436.5  28585.0 106845.0     0.2  0.20000 
 166.700     55.7    494.5      2.0  80.9    433.3  28580.0 106465.0     0.2  0.20000 
 166.800     45.6    487.3      2.1  80.9    427.1  28580.0 105725.0     0.2  0.20000 
 166.900     55.7    483.1      2.1  80.9    423.5  28580.0 105300.0     0.2  0.20000 
 167.000     70.9    477.3      2.1  81.0    418.6  28585.0 104710.0     0.5  0.20000 
 167.100     25.3    470.5      2.1  81.0    412.7  28585.0 104015.0     0.3  0.20000 
 167.200     40.5    464.8      2.2  81.0    407.9  28585.0 103435.0     0.3  0.20000 
 167.300     75.9    458.9      2.2  81.0    402.8  28585.0 102835.0     0.3  0.20000 
 167.400     86.1    452.5      2.2  81.0    397.3  28585.0 102175.0     0.3  0.20000 
 167.500     50.6    445.4      2.2  81.0    391.2  28585.0 101450.0     0.0  0.20000 
 167.600     45.6    441.7      2.3  81.0    388.0  28585.0 101075.0     0.0  0.20000 
 167.700     40.5    437.7      2.3  81.0    384.6  28585.0 100670.0     0.0  0.20000 
 167.800     50.6    433.2      2.3  81.0    380.8  28585.0 100210.0     0.0  0.20000 
 167.900     50.6    430.2      2.3  81.0    378.2  28585.0 99900.0      0.0  0.20000 
 168.000     47.3    429.6      2.3  81.0    377.7  28585.0 99845.0      0.0  0.20000 
 168.100     35.4    429.2      2.3  81.0    377.3  28585.0 99800.0      0.0  0.20000 
 168.200     60.8    427.7      2.3  81.0    376.1  28585.0 99650.0      0.0  0.31000 
 168.300     35.4    427.4      2.3  80.9    375.8  28580.0 99620.0      0.0  0.22000 
 168.400     65.8    430.5      2.3  81.0    378.4  28586.7 99933.3      0.0  0.22000 
 168.500     50.6    432.9      2.3  81.0    380.5  28585.0 100180.0     0.0  0.22000 
 168.600     50.6    434.3      2.3  81.1    381.7  28590.0 100320.0     0.8  0.22000 
 168.700     75.9    439.1      2.3  81.0    385.8  28585.0 100810.0     0.8  0.11000 
 168.800     81.0    440.2      2.3  81.0    386.8  28585.0 100925.0     2.0  0.20000 
 168.900     30.4    443.0      2.3  81.0    389.2  28585.0 101210.0     2.0  0.20000 
 169.000     70.9    442.1      2.3  81.1    388.4  28590.0 101120.0     2.0  0.20000 
 169.100     40.5    442.9      2.3  81.0    389.0  28585.0 101195.0     1.8  0.20000 
 169.200     55.7    444.8      2.2  81.0    390.7  28585.0 101395.0     1.2  0.20000 
 169.300     35.4    443.5      2.3  81.1    389.5  28590.0 101255.0     1.0  0.20000 
 169.400     91.1    441.3      2.3  81.0    387.7  28585.0 101040.0     1.0  0.20000 
 169.500     65.8    438.7      2.3  81.0    385.5  28585.0 100775.0     1.0  0.20000 
 169.600     70.9    436.1      2.3  81.0    383.2  28585.0 100505.0     1.0  0.20000 
 169.700     45.6    433.0      2.3  81.0    380.5  28585.0 100185.0     1.0  0.20000 
 169.800     55.7    426.5      2.3  81.1    375.0  28590.0 99525.0      0.0  0.20000 
 169.900     50.6    422.5      2.4  81.0    371.5  28585.0 99110.0      0.0  0.20000 
 170.000     70.9    417.3      2.4  81.1    367.1  28590.0 98585.0      0.0  0.20000 
 170.100     70.9    409.8      2.4  80.9    360.6  28580.0 97815.0      0.0  0.20000 
 170.200     45.6    404.0      2.5  81.1    355.7  28590.0 97225.0      0.0  0.20000 
 170.300     40.5    397.6      2.5  80.9    350.2  28580.0 96570.0      0.0  0.20000 
