~Version Information
 VERS.                2.0:  CWLS LOG ASCII STANDARD -VERSION 2.0
 WRAP.                 NO:  ONE LINE PER DEPTH STEP
~WELL INFORMATION BLOCK
#MNEM.UNIT       DATA		            DESCRIPTION OF MNEMONIC
#---------    -------------            ------------------------
 STRT.FT  5.300                          :START DEPTH
 STOP.FT  1874.500                       :STOP DEPTH
 STEP.FT  0.100                          :STEP    UP_HOLE  
 NULL.    0                              :NULL VALUE
 COMP.                            USGS   :COMPANY
 WELL.                      MCWD-DMW #1  :WELL
 FLD .                           Marina  :FIELD
 LOC .    None  None  None               :LOCATION
 CNTY.                         Monterey  :COUNTY
 STAT.             California            :STATE
 SRVC.    Western Reg                    :SERVICE COMPANY
 DATE.   05/27/00                        :LOG DATE
 UWI .                       	         :UNIQUE WELL ID
 LIC .                                   :LICENSE NUMBER
~Curve Information Block
#MNEM.UNIT      API CODE     Curve Description
#---------    -------------  ------------------------
 DEPT     .FT        00 001 00 00          :  1  DEPTH   
 CALIPER  .INCH      00 280 00 00          :  2              CALIPER
 TENSION  .POUNDS    00 000 00 00          :  3              TENSION
 TIME     .MINUTES   00 000 00 00          :  4                 TIME
~Parameter Information Block
#MNEM.UNIT   Information     Description
#---------- ---------------  ------------------------
~Other Information
#MNEM.UNIT  Information      Description
#---------- ---------------  ------------------------
 FILE.      ORIGINAL           File Type
 FIID.      9065A              File Type Identifier
 VERS.      1.0                System Version
 SER .      1                  System Serial Number
 TRUK.      0.5                Truck Calibration Number
 TOOL.         573             Tool Serial Number
 TIME.      03:05:             Time
 LAT .          None           Latitude
 LON .          None           Longitude
 LMF .           LSD           Log Measured From
 DMF .           LSD           Driller Measured From
 PD  .          None           Permanent Data
 PDEV.          None           Elevation Permanent Data
 EKB .M         None           Elevation Kelly Bushing
 ELEV.DF        None           Elevation DF
 EGL .M         None           Elevation Ground Level
 DRDP.         1990'           Driller's Depth
 CASD.         0               Casing Diameter
 CASB.          None           Casing Bottom
 CASX.          None           Casing Type
 CAST.         0               Casing Thickness
 TNOC.          None           Time Circulation Stopped
 LOGU.       WRRD              Logging Unit
 RECB.           Everett       Recorded By
 OSR1.       Pimente           Other Services
 OSR2.       mud vis           Other Services
 OSR3.           =62           Other Services
 BS  .MM           6           Bit Size
 MST .                         Mean Surface Temperature
 TGRD.        0                Temperature Gradiant
 MAGN.             0           Magnetic Declination
 MDEN.      2.71               Density Matrix
 MATR.       Dolomite          Neutron Matrix
 DTMT.            54           Delta T Matrix
 DTFL.                         Delta T Fluid
 MUDS.               0         Mud Sample Source
 MRS .           0             Mud Resistivity
 MTP .           0             Mud Temperature
 MFRS.                         Resistivity Mud Filtrate
 MFTP.                         Temperature Mud Filtrate
 MCRS.         0               Resistivity Mud Cake
 MCTP.                         Temperature Mud Cake
 FTYP.             0           Fluid Type
 FD  .K/M3                     Fluid Density
 DFV .S                        Fluid Viscosity
 FPH .                         Fuild PH
 ELCO.        2500             Electron Cutoff
# -------------------------- 
~A DEPTH  CALIPER TENSION  TIME    
# ...
 986.500   9.1        0.0  0.20000 
 986.600   9.1        0.0  0.10000 
 986.700   9.1        0.0  0.20000 
 986.800   9.1        0.0  0.20000 
 986.900   9.1        0.0  0.10000 
 987.000   9.1        0.0  0.20000 
 987.100   9.1        0.1  0.20000 
 987.200   9.1        0.1  0.20000 
 987.300   9.1        0.1  0.10000 
 987.400   9.1        0.1  0.20000 
 987.500   9.1        0.1  0.20000 
 987.600   9.1        0.1  0.10000 
 987.700   9.1        0.0  0.20000 
 987.800   9.1        0.0  0.20000 
 987.900   9.1        0.0  0.20000 
 988.000   9.1        0.0  0.10000 
 988.100   9.1        0.0  0.20000 
 988.200   9.1        0.0  0.21000 
 988.300   9.1        0.0  0.22000 
 988.400   9.1        0.0  0.11000 
 988.500   9.1        0.0  0.22000 
 988.600   9.1        0.0  0.22000 
 988.700   9.1        0.0  0.11000 
 988.800   9.1        0.2  0.11000 
 988.900   9.1        0.3  0.20000 
 989.000   9.1        0.3  0.20000 
 989.100   9.1        0.3  0.10000 
 989.200   9.1        0.3  0.20000 
 989.300   9.1        0.3  0.20000 
 989.400   9.1        0.1  0.20000 
 989.500   9.1        0.0  0.11000 
 989.600   9.1        0.0  0.22000 
 989.700   9.2        0.0  0.22000 
 989.800   9.2        0.0  0.11000 
 989.900   9.2        0.0  0.22000 
 990.000   9.2        0.2  0.11000 
 990.100   9.2        0.2  0.21000 
 990.200   9.2        0.2  0.10000 
 990.300   9.2        0.2  0.20000 
 990.400   9.2        1.0  0.20000 
 990.500   9.2        1.0  0.10000 
 990.600   9.2        1.0  0.20000 
 990.700   9.2        1.8  0.20000 
 990.800   9.2        1.8  0.22000 
 990.900   9.3        1.8  0.11000 
 991.000   9.3        1.0  0.22000 
 991.100   9.3        1.0  0.22000 
 991.200   9.3        1.0  0.22000 
 991.300   9.3        0.0  0.00000 
 991.400   9.3        0.0  0.21000 
 991.500   9.3        0.2  0.20000 
 991.600   9.3        0.2  0.10000 
 991.700   9.3        0.2  0.20000 
 991.800   9.3        0.2  0.20000 
 991.900   9.3        0.2  0.20000 
 992.000   9.2        0.2  0.10000 
 992.100   9.2        0.2  0.22000 
 992.200   9.2        0.0  0.22000 
 992.300   9.2        0.0  0.11000 
 992.400   9.2        0.0  0.22000 
 992.500   9.2        0.0  0.22000 
 992.600   9.2        0.0  0.11000 
 992.700   9.2        0.0  0.10000 
 992.800   9.2        0.0  0.20000 
 992.900   9.2        0.0  0.20000 
 993.000   9.2        0.0  0.20000 
 993.100   9.2        0.0  0.10000 
 993.200   9.2        0.0  0.20000 
 993.300   9.2        0.0  0.20000 
 993.400   9.2        0.0  0.20000 
 993.500   9.2        0.0  0.10000 
 993.600   9.2        0.0  0.20000 
 993.700   9.2        0.0  0.20000 
 993.800   9.2        0.0  0.10000 
 993.900   9.2        0.0  0.20000 
 994.000   9.2        0.0  0.20000 
 994.100   9.2        0.0  0.20000 
 994.200   9.2        0.0  0.10000 
 994.300   9.2        0.0  0.20000 
 994.400   9.2        0.0  0.20000 
 994.500   9.2        0.0  0.21000 
 994.600   9.2        0.0  0.11000 
 994.700   9.2        0.5  0.22000 
 994.800   9.2        0.5  0.22000 
 994.900   9.2        0.6  0.11000 
 995.000   9.2        0.7  0.22000 
 995.100   9.2        0.7  0.11000 
 995.200   9.2        0.7  0.20000 
 995.300   9.2        0.2  0.10000 
 995.400   9.2        0.2  0.20000 
 995.500   9.2        0.1  0.20000 
 995.600   9.2        0.1  0.10000 
 995.700   9.2        0.0  0.20000 
 995.800   9.2        0.0  0.21000 
 995.900   9.2        0.0  0.22000 
 996.000   9.2        0.0  0.11000 
 996.100   9.2        0.0  0.22000 
 996.200   9.2        0.0  0.22000 
 996.300   9.2        0.0  0.11000 
 996.400   9.2        0.0  0.11000 
 996.500   9.2        0.0  0.20000 
 996.600   9.2        0.0  0.20000 
 996.700   9.2        0.0  0.10000 
 996.800   9.2        0.0  0.20000 
 996.900   9.2        0.3  0.20000 
 997.000   9.2        0.3  0.20000 
 997.100   9.2        0.3  0.11000 
 997.200   9.2        0.3  0.22000 
 997.300   9.2        0.3  0.22000 
 997.400   9.2        0.3  0.11000 
 997.500   9.2        0.0  0.22000 
 997.600   9.2        0.0  0.11000 
 997.700   9.2        0.0  0.21000 
 997.800   9.2        0.5  0.10000 
 997.900   9.2        0.5  0.20000 
 998.000   9.1        0.5  0.20000 
 998.100   9.1        1.5  0.20000 
 998.200   9.1        1.5  0.10000 
 998.300   9.1        1.5  0.20000 
 998.400   9.1        1.4  0.20000 
 998.500   9.1        1.6  0.10000 
 998.600   9.1        1.6  0.20000 
 998.700   9.1        0.6  0.20000 
 998.800   9.1        1.2  0.20000 
 998.900   9.1        1.2  0.10000 
 999.000   9.1        0.8  0.20000 
 999.100   9.1        0.6  0.22000 
 999.200   9.1        0.6  0.22000 
 999.300   9.1        0.6  0.11000 
 999.400   9.1        0.0  0.22000 
 999.500   9.1        0.0  0.22000 
 999.600   9.1        0.0  0.00000 
 999.700   9.1        0.0  0.21000 
 999.800   9.2        0.0  0.20000 
 999.900   9.2        0.0  0.20000 
1000.000   9.2        0.0  0.10000 
1000.100   9.2        0.0  0.20000 
1000.200   9.2        0.0  0.20000 
1000.300   9.2        0.0  0.20000 
1000.400   9.3        0.0  0.10000 
1000.500   9.3        0.0  0.20000 
1000.600   9.4        0.5  0.20000 
1000.700   9.3        0.5  0.10000 
1000.800   9.2        0.5  0.20000 
1000.900   9.1        0.9  0.20000 
1001.000   9.1        0.9  0.20000 
1001.100   9.1        0.9  0.10000 
1001.200   9.1        0.7  0.20000 
1001.300   9.1        1.0  0.20000 
1001.400   9.1        1.0  0.20000 
1001.500   9.1        2.1  0.10000 
1001.600   9.1        2.7  0.20000 
1001.700   9.1        2.7  0.20000 
1001.800   9.1        2.8  0.20000 
1001.900   9.1        2.5  0.10000 
1002.000   9.1        2.5  0.20000 
1002.100   9.1        1.0  0.20000 
1002.200   9.1        0.4  0.10000 
1002.300   9.1        0.4  0.20000 
1002.400   9.1        0.0  0.20000 
1002.500   9.1        0.0  0.20000 
1002.600   9.1        0.0  0.10000 
1002.700   9.1        0.0  0.20000 
1002.800   9.1        0.4  0.20000 
1002.900   9.1        0.4  0.10000 
1003.000   9.1        0.4  0.20000 
1003.100   9.1        0.4  0.20000 
1003.200   9.1        0.4  0.20000 
1003.300   9.1        0.4  0.10000 
1003.400   9.1        0.0  0.20000 
1003.500   9.1        0.0  0.20000 
1003.600   9.1        0.0  0.20000 
1003.700   9.1        0.0  0.10000 
1003.800   9.1        0.0  0.20000 
1003.900   9.1        0.0  0.20000 
1004.000   9.1        0.0  0.10000 
1004.100   9.1        0.0  0.20000 
1004.200   9.1        0.0  0.20000 
1004.300   9.1        0.0  0.20000 
1004.400   9.1        0.5  0.10000 
1004.500   9.1        0.5  0.20000 
1004.600   9.1        0.5  0.20000 
1004.700   9.1        0.5  0.20000 
1004.800   9.1        0.5  0.10000 
1004.900   9.1        0.0  0.20000 
1005.000   9.1        0.0  0.20000 
1005.100   9.1        0.0  0.10000 
1005.200   9.1        0.0  0.20000 
1005.300   9.1        0.0  0.20000 
1005.400   9.1        0.0  0.20000 
1005.500   9.1        0.0  0.10000 
1005.600   9.1        0.5  0.20000 
1005.700   9.1        0.5  0.20000 
1005.800   9.1        0.5  0.20000 
1005.900   9.1        0.5  0.10000 
1006.000   9.1        0.5  0.20000 
1006.100   9.1        0.5  0.20000 
1006.200   9.1        0.0  0.10000 
1006.300   9.1        0.0  0.20000 
1006.400   9.1        0.0  0.20000 
1006.500   9.1        0.0  0.20000 
1006.600   9.1        0.1  0.10000 
1006.700   9.1        0.1  0.20000 
1006.800   9.1        0.1  0.20000 
1006.900   9.1        0.7  0.20000 
1007.000   9.1        0.7  0.10000 
1007.100   9.1        0.7  0.20000 
1007.200   9.1        0.7  0.20000 
1007.300   9.1        0.7  0.20000 
1007.400   9.1        0.7  0.10000 
1007.500   9.1        0.2  0.20000 
1007.600   9.1        0.2  0.20000 
1007.700   9.1        0.2  0.10000 
1007.800   9.1        0.1  0.20000 
1007.900   9.1        0.1  0.20000 
1008.000   9.1        0.1  0.20000 
1008.100   9.1        0.0  0.10000 
1008.200   9.1        0.0  0.20000 
1008.300   9.1        0.0  0.20000 
1008.400   9.1        0.0  0.10000 
1008.500   9.1        0.1  0.20000 
1008.600   9.1        0.1  0.20000 
1008.700   9.1        0.1  0.20000 
