~Version Information
 VERS.                2.0:  CWLS LOG ASCII STANDARD -VERSION 2.0
 WRAP.                 NO:  ONE LINE PER DEPTH STEP
~WELL INFORMATION BLOCK
#MNEM.UNIT       DATA		            DESCRIPTION OF MNEMONIC
#---------    -------------            ------------------------
 STRT.FT  5.300                          :START DEPTH
 STOP.FT  1874.500                       :STOP DEPTH
 STEP.FT  0.100                          :STEP    UP_HOLE  
 NULL.    0                              :NULL VALUE
 COMP.                            USGS   :COMPANY
 WELL.                      MCWD-DMW #1  :WELL
 FLD .                           Marina  :FIELD
 LOC .    None  None  None               :LOCATION
 CNTY.                         Monterey  :COUNTY
 STAT.             California            :STATE
 SRVC.    Western Reg                    :SERVICE COMPANY
 DATE.   05/27/00                        :LOG DATE
 UWI .                       	         :UNIQUE WELL ID
 LIC .                                   :LICENSE NUMBER
~Curve Information Block
#MNEM.UNIT      API CODE     Curve Description
#---------    -------------  ------------------------
 DEPT     .FT        00 001 00 00          :  1  DEPTH   
 CALIPER  .INCH      00 280 00 00          :  2              CALIPER
 TENSION  .POUNDS    00 000 00 00          :  3              TENSION
 TIME     .MINUTES   00 000 00 00          :  4                 TIME
~Parameter Information Block
#MNEM.UNIT   Information     Description
#---------- ---------------  ------------------------
~Other Information
#MNEM.UNIT  Information      Description
#---------- ---------------  ------------------------
 FILE.      ORIGINAL           File Type
 FIID.      9065A              File Type Identifier
 VERS.      1.0                System Version
 SER .      1                  System Serial Number
 TRUK.      0.5                Truck Calibration Number
 TOOL.         573             Tool Serial Number
 TIME.      03:05:             Time
 LAT .          None           Latitude
 LON .          None           Longitude
 LMF .           LSD           Log Measured From
 DMF .           LSD           Driller Measured From
 PD  .          None           Permanent Data
 PDEV.          None           Elevation Permanent Data
 EKB .M         None           Elevation Kelly Bushing
 ELEV.DF        None           Elevation DF
 EGL .M         None           Elevation Ground Level
 DRDP.         1990'           Driller's Depth
 CASD.         0               Casing Diameter
 CASB.          None           Casing Bottom
 CASX.          None           Casing Type
 CAST.         0               Casing Thickness
 TNOC.          None           Time Circulation Stopped
 LOGU.       WRRD              Logging Unit
 RECB.           Everett       Recorded By
 OSR1.       Pimente           Other Services
 OSR2.       mud vis           Other Services
 OSR3.           =62           Other Services
 BS  .MM           6           Bit Size
 MST .                         Mean Surface Temperature
 TGRD.        0                Temperature Gradiant
 MAGN.             0           Magnetic Declination
 MDEN.      2.71               Density Matrix
 MATR.       Dolomite          Neutron Matrix
 DTMT.            54           Delta T Matrix
 DTFL.                         Delta T Fluid
 MUDS.               0         Mud Sample Source
 MRS .           0             Mud Resistivity
 MTP .           0             Mud Temperature
 MFRS.                         Resistivity Mud Filtrate
 MFTP.                         Temperature Mud Filtrate
 MCRS.         0               Resistivity Mud Cake
 MCTP.                         Temperature Mud Cake
 FTYP.             0           Fluid Type
 FD  .K/M3                     Fluid Density
 DFV .S                        Fluid Viscosity
 FPH .                         Fuild PH
 ELCO.        2500             Electron Cutoff
# -------------------------- 
~A DEPTH  CALIPER TENSION  TIME    
# ...
 384.400   9.4        0.0  0.22000 
 384.500   9.4        0.0  0.22000 
 384.600   9.4        0.0  0.11000 
 384.700   9.4        0.0  0.22000 
 384.800   9.4        0.0  0.11000 
 384.900   9.4        0.0  0.11000 
 385.000   9.4        0.1  0.21000 
 385.100   9.4        0.1  0.10000 
 385.200   9.4        0.1  0.20000 
 385.300   9.4        0.1  0.10000 
 385.400   9.4        0.1  0.20000 
 385.500   9.5        0.1  0.20000 
 385.600   9.5        0.1  0.10000 
 385.700   9.5        0.0  0.20000 
 385.800   9.5        0.0  0.10000 
 385.900   9.4        0.0  0.20000 
 386.000   9.4        0.0  0.20000 
 386.100   9.4        0.0  0.10000 
 386.200   9.4        0.0  0.20000 
 386.300   9.4        0.0  0.10000 
 386.400   9.4        0.0  0.20000 
 386.500   9.4        0.0  0.20000 
 386.600   9.4        0.0  0.10000 
 386.700   9.4        0.0  0.20000 
 386.800   9.4        0.0  0.10000 
 386.900   9.4        0.0  0.20000 
 387.000   9.4        0.0  0.10000 
 387.100   9.4        0.0  0.20000 
 387.200   9.4        0.1  0.20000 
 387.300   9.4        0.1  0.10000 
 387.400   9.4        0.1  0.20000 
 387.500   9.4        0.1  0.10000 
 387.600   9.4        0.1  0.20000 
 387.700   9.4        0.1  0.20000 
 387.800   9.4        0.1  0.10000 
 387.900   9.3        0.1  0.20000 
 388.000   9.3        0.1  0.10000 
 388.100   9.3        0.1  0.20000 
 388.200   9.3        0.3  0.20000 
 388.300   9.3        0.3  0.10000 
 388.400   9.3        1.0  0.20000 
 388.500   9.4        0.9  0.10000 
 388.600   9.4        0.9  0.20000 
 388.700   9.4        1.1  0.20000 
 388.800   9.3        1.1  0.10000 
 388.900   9.3        0.9  0.20000 
 389.000   9.2        0.2  0.10000 
 389.100   9.2        0.2  0.20000 
 389.200   9.2        0.4  0.20000 
 389.300   9.3        0.4  0.10000 
 389.400   9.3        0.5  0.20000 
 389.500   9.3        0.5  0.10000 
 389.600   9.3        1.1  0.20000 
 389.700   9.3        1.1  0.10000 
 389.800   9.3        1.1  0.20000 
 389.900   9.3        0.9  0.20000 
 390.000   9.3        0.9  0.10000 
 390.100   9.3        0.7  0.20000 
 390.200   9.3        0.1  0.10000 
 390.300   9.3        0.1  0.20000 
 390.400   9.3        0.1  0.20000 
 390.500   9.4        0.1  0.10000 
 390.600   9.4        0.1  0.20000 
 390.700   9.4        0.0  0.10000 
 390.800   9.4        0.4  0.20000 
 390.900   9.4        0.4  0.10000 
 391.000   9.4        0.4  0.20000 
 391.100   9.3        0.4  0.20000 
 391.200   9.3        0.4  0.10000 
 391.300   9.3        0.4  0.20000 
 391.400   9.3        0.0  0.10000 
 391.500   9.3        0.0  0.20000 
 391.600   9.3        0.0  0.20000 
 391.700   9.3        0.0  0.10000 
 391.800   9.3        0.0  0.20000 
 391.900   9.3        0.0  0.10000 
 392.000   9.3        0.0  0.20000 
 392.100   9.3        0.0  0.20000 
 392.200   9.3        0.0  0.10000 
 392.300   9.3        0.0  0.20000 
 392.400   9.3        0.0  0.10000 
 392.500   9.3        0.0  0.20000 
 392.600   9.3        0.0  0.20000 
 392.700   9.3        0.0  0.11000 
 392.800   9.3        0.0  0.22000 
 392.900   9.3        0.0  0.11000 
 393.000   9.3        0.0  0.22000 
 393.100   9.3        0.0  0.22000 
 393.200   9.4        0.0  0.11000 
 393.300   9.4        0.0  0.11000 
 393.400   9.4        0.0  0.10000 
 393.500   9.4        0.0  0.20000 
 393.600   9.4        0.0  0.20000 
 393.700   9.4        0.0  0.10000 
 393.800   9.4        0.0  0.20000 
 393.900   9.4        0.0  0.10000 
 394.000   9.4        0.0  0.20000 
 394.100   9.4        0.0  0.10000 
 394.200   9.4        0.0  0.20000 
 394.300   9.4        0.0  0.20000 
 394.400   9.4        0.0  0.10000 
 394.500   9.4        0.0  0.20000 
 394.600   9.4        0.0  0.10000 
 394.700   9.4        0.0  0.20000 
 394.800   9.4        0.0  0.20000 
 394.900   9.4        0.0  0.10000 
 395.000   9.4        0.0  0.20000 
 395.100   9.4        0.0  0.20000 
 395.200   9.4        0.0  0.10000 
 395.300   9.5        0.0  0.20000 
 395.400   9.5        0.0  0.10000 
 395.500   9.5        0.0  0.22000 
 395.600   9.4        0.1  0.22000 
 395.700   9.4        0.1  0.11000 
 395.800   9.4        0.1  0.22000 
 395.900   9.4        0.1  0.11000 
 396.000   9.4        0.1  0.11000 
 396.100   9.4        0.1  0.21000 
 396.200   9.4        0.1  0.10000 
 396.300   9.4        0.0  0.20000 
 396.400   9.4        0.0  0.10000 
 396.500   9.4        0.6  0.20000 
 396.600   9.4        0.6  0.20000 
 396.700   9.4        0.6  0.10000 
 396.800   9.4        0.6  0.20000 
 396.900   9.4        0.6  0.10000 
 397.000   9.4        0.6  0.20000 
 397.100   9.4        0.0  0.20000 
 397.200   9.4        0.0  0.10000 
 397.300   9.3        0.3  0.20000 
 397.400   9.3        0.3  0.10000 
 397.500   9.3        0.3  0.20000 
 397.600   9.3        0.3  0.10000 
 397.700   9.3        0.3  0.20000 
 397.800   9.3        0.5  0.20000 
 397.900   9.3        0.2  0.10000 
 398.000   9.3        0.2  0.20000 
 398.100   9.3        0.2  0.10000 
 398.200   9.3        0.2  0.21000 
 398.300   9.3        0.2  0.22000 
 398.400   9.3        0.0  0.11000 
 398.500   9.3        0.5  0.22000 
 398.600   9.3        0.5  0.11000 
 398.700   9.3        0.5  0.22000 
 398.800   9.3        0.5  0.11000 
 398.900   9.3        0.5  0.10000 
 399.000   9.3        0.5  0.20000 
 399.100   9.3        0.0  0.20000 
 399.200   9.3        0.0  0.10000 
 399.300   9.3        0.0  0.20000 
 399.400   9.3        0.0  0.10000 
 399.500   9.3        0.0  0.20000 
 399.600   9.3        0.0  0.20000 
 399.700   9.3        0.0  0.10000 
 399.800   9.4        0.0  0.20000 
 399.900   9.4        0.0  0.10000 
 400.000   9.4        0.0  0.20000 
 400.100   9.4        0.0  0.20000 
 400.200   9.4        0.0  0.10000 
 400.300   9.3        0.0  0.20000 
 400.400   9.3        0.0  0.10000 
 400.500   9.3        0.0  0.20000 
 400.600   9.3        0.0  0.20000 
 400.700   9.3        0.0  0.10000 
 400.800   9.3        0.0  0.20000 
 400.900   9.3        0.0  0.10000 
 401.000   9.3        0.0  0.22000 
 401.100   9.3        0.0  0.22000 
 401.200   9.3        0.0  0.11000 
 401.300   9.3        0.0  0.22000 
 401.400   9.3        0.0  0.22000 
 401.500   9.2        1.1  0.00000 
 401.600   9.2        1.1  0.21000 
 401.700   9.3        3.4  0.20000 
 401.800   9.3        3.4  0.10000 
 401.900   9.3        3.6  0.20000 
 402.000   9.3        4.3  0.10000 
 402.100   9.3        4.3  0.20000 
 402.200   9.2        3.7  0.20000 
 402.300   9.2        3.7  0.11000 
 402.400   9.2        1.4  0.22000 
 402.500   9.2        1.2  0.22000 
 402.600   9.2        1.2  0.11000 
 402.700   9.3        0.5  0.22000 
 402.800   9.3        0.0  0.11000 
 402.900   9.3        0.0  0.11000 
 403.000   9.3        0.0  0.20000 
 403.100   9.3        0.0  0.10000 
 403.200   9.3        0.0  0.20000 
 403.300   9.3        0.0  0.20000 
 403.400   9.2        0.0  0.10000 
 403.500   9.2        0.0  0.20000 
 403.600   9.2        0.0  0.20000 
 403.700   9.3        0.0  0.10000 
 403.800   9.3        0.0  0.20000 
 403.900   9.3        0.0  0.20000 
 404.000   9.3        0.0  0.10000 
 404.100   9.3        0.0  0.20000 
 404.200   9.3        0.0  0.10000 
 404.300   9.3        0.0  0.20000 
 404.400   9.3        0.0  0.20000 
 404.500   9.3        0.0  0.10000 
 404.600   9.3        0.0  0.20000 
 404.700   9.3        0.0  0.20000 
 404.800   9.3        0.0  0.10000 
 404.900   9.4        0.0  0.21000 
 405.000   9.4        0.0  0.22000 
 405.100   9.3        0.0  0.11000 
 405.200   9.3        0.3  0.22000 
 405.300   9.3        0.3  0.22000 
 405.400   9.3        0.3  0.11000 
 405.500   9.3        0.3  0.11000 
 405.600   9.3        0.3  0.20000 
 405.700   9.3        0.3  0.10000 
 405.800   9.3        0.3  0.20000 
 405.900   9.3        0.0  0.20000 
 406.000   9.3        0.0  0.10000 
 406.100   9.3        0.0  0.20000 
 406.200   9.3        0.0  0.10000 
 406.300   9.3        0.0  0.20000 
 406.400   9.3        0.0  0.20000 
 406.500   9.3        0.0  0.10000 
 406.600   9.3        0.0  0.20000 
