~Version Information
 VERS.                2.0:  CWLS LOG ASCII STANDARD -VERSION 2.0
 WRAP.                 NO:  ONE LINE PER DEPTH STEP
~WELL INFORMATION BLOCK
#MNEM.UNIT       DATA		            DESCRIPTION OF MNEMONIC
#---------    -------------            ------------------------
 STRT.FT  41.500                         :START DEPTH
 STOP.FT  1871.500                       :STOP DEPTH
 STEP.FT  0.100                          :STEP    UP_HOLE  
 NULL.    0                              :NULL VALUE
 COMP.                            USGS   :COMPANY
 WELL.                      MCWD-DMW #1  :WELL
 FLD .                           Marina  :FIELD
 LOC .    None  None  None               :LOCATION
 CNTY.                         Monterey  :COUNTY
 STAT.             California            :STATE
 SRVC.    Western Reg                    :SERVICE COMPANY
 DATE.   05/27/00                        :LOG DATE
 UWI .                       	         :UNIQUE WELL ID
 LIC .                                   :LICENSE NUMBER
~Curve Information Block
#MNEM.UNIT      API CODE     Curve Description
#---------    -------------  ------------------------
 DEPT     .FT        00 001 00 00          :  1  DEPTH   
 GAM(NAT) .API-GR    00 310 00 00          :  2             GAM(NAT)
 COND     .MMHO/M    00 000 00 00          :  3                 COND
 RES      .OHM-M     00 000 00 00          :  4                  RES
 TEMP     .DEG F     00 660 00 00          :  5                 TEMP
 AP-COND  .MMHO/M    00 000 00 00          :  6              AP-COND
 TEMP     .CPS       00 660 00 00          :  7                 TEMP
 AP-COND  .CPS       00 000 00 00          :  8              AP-COND
 TENSION  .POUNDS    00 000 00 00          :  9              TENSION
 TIME     .MINUTES   00 000 00 00          : 10                 TIME
~Parameter Information Block
#MNEM.UNIT   Information     Description
#---------- ---------------  ------------------------
~Other Information
#MNEM.UNIT  Information      Description
#---------- ---------------  ------------------------
 FILE.      ORIGINAL           File Type
 FIID.      9511A              File Type Identifier
 VERS.      1.0                System Version
 SER .      1                  System Serial Number
 TRUK.      0.5                Truck Calibration Number
 TOOL.         770             Tool Serial Number
 TIME.      05:18:             Time
 LAT .          None           Latitude
 LON .          None           Longitude
 LMF .           LSD           Log Measured From
 DMF .           LSD           Driller Measured From
 PD  .          None           Permanent Data
 PDEV.          None           Elevation Permanent Data
 EKB .M         None           Elevation Kelly Bushing
 ELEV.DF        None           Elevation DF
 EGL .M         None           Elevation Ground Level
 DRDP.         1990'           Driller's Depth
 CASD.         0               Casing Diameter
 CASB.          None           Casing Bottom
 CASX.          None           Casing Type
 CAST.         0               Casing Thickness
 TNOC.          None           Time Circulation Stopped
 LOGU.       WRRD              Logging Unit
 RECB.           Everett       Recorded By
 OSR1.       Pimente           Other Services
 OSR2.       mud vis           Other Services
 OSR3.           =62           Other Services
 BS  .MM           6           Bit Size
 MST .                         Mean Surface Temperature
 TGRD.        0                Temperature Gradiant
 MAGN.             0           Magnetic Declination
 MDEN.      2.71               Density Matrix
 MATR.       Dolomite          Neutron Matrix
 DTMT.            54           Delta T Matrix
 DTFL.                         Delta T Fluid
 MUDS.               0         Mud Sample Source
 MRS .           0             Mud Resistivity
 MTP .           0             Mud Temperature
 MFRS.                         Resistivity Mud Filtrate
 MFTP.                         Temperature Mud Filtrate
 MCRS.         0               Resistivity Mud Cake
 MCTP.                         Temperature Mud Cake
 FTYP.             0           Fluid Type
 FD  .K/M3                     Fluid Density
 DFV .S                        Fluid Viscosity
 FPH .                         Fuild PH
 ELCO.        2500             Electron Cutoff
# -------------------------- 
~A DEPTH  GAM(NAT) COND     RES      TEMP  AP-COND  TEMP  AP-COND  TENSION  TIME    
# ...
1495.200     45.6     72.5     13.8  94.8     66.4  29295.0 62665.0      0.0  0.22000 
1495.300     60.8     70.5     14.2  94.9     64.6  29300.0 62450.0      0.0  0.11000 
1495.400     45.6     69.5     14.4  94.9     63.7  29300.0 62340.0      0.0  0.20000 
1495.500     81.0     68.8     14.5  94.7     63.1  29290.0 62265.0      0.1  0.10000 
1495.600     50.6     67.5     14.8  94.9     62.0  29300.0 62130.0      0.1  0.20000 
1495.700    101.3     68.2     14.7  94.9     62.5  29300.0 62200.0      0.2  0.20000 
1495.800     30.4     65.0     15.4  94.9     59.7  29300.0 61860.0      0.2  0.20000 
1495.900     30.4     66.7     15.0  94.8     61.2  29295.0 62045.0      1.0  0.10000 
1496.000     55.7     67.3     14.8  94.9     61.8  29300.0 62110.0      1.0  0.20000 
1496.100     15.2     68.1     14.7  94.9     62.5  29300.0 62190.0      1.4  0.20000 
1496.200     65.8     72.5     13.8  94.9     66.4  29300.0 62655.0      1.4  0.20000 
1496.300     40.5     69.7     14.3  94.9     63.9  29300.0 62360.0      1.7  0.10000 
1496.400     60.8     66.8     15.0  94.8     61.3  29295.0 62055.0      1.7  0.20000 
1496.500     35.4     63.9     15.7  94.7     58.7  29290.0 61740.0      0.9  0.20000 
1496.600     30.4     61.5     16.3  94.9     56.5  29300.0 61485.0      1.4  0.20000 
1496.700     25.3     61.4     16.3  94.9     56.4  29300.0 61470.0      0.9  0.10000 
1496.800     50.6     67.1     14.9  94.9     61.5  29300.0 62080.0      0.9  0.20000 
1496.900     20.3     67.7     14.8  94.9     62.1  29300.0 62150.0      1.6  0.20000 
1497.000     50.6     68.4     14.6  94.9     62.8  29300.0 62225.0      1.6  0.10000 
1497.100     55.7     67.6     14.8  94.9     62.0  29300.0 62140.0      1.9  0.20000 
1497.200     55.7     66.9     15.0  94.9     61.4  29300.0 62060.0      1.4  0.20000 
1497.300     55.7     65.0     15.4  94.9     59.7  29300.0 61860.0      2.0  0.20000 
1497.400     40.5     63.5     15.7  94.9     58.3  29300.0 61700.0      1.6  0.10000 
1497.500     65.8     64.8     15.4  94.9     59.5  29300.0 61835.0      1.9  0.20000 
1497.600     60.8     62.2     16.1  94.9     57.2  29300.0 61560.0      2.2  0.20000 
1497.700     55.7     63.2     15.8  94.9     58.1  29300.0 61670.0      1.9  0.20000 
1497.800     10.1     61.1     16.4  94.9     56.2  29300.0 61445.0      3.1  0.10000 
1497.900     40.5     61.9     16.2  94.9     56.9  29300.0 61530.0      2.5  0.20000 
1498.000     40.5     66.1     15.1  94.9     60.7  29300.0 61980.0      1.6  0.20000 
1498.100     60.8     64.4     15.5  94.9     59.1  29300.0 61795.0      1.6  0.20000 
1498.200     40.5     64.4     15.5  94.9     59.1  29300.0 61795.0      1.5  0.10000 
1498.300     15.2     66.3     15.1  94.9     60.9  29300.0 62000.0      1.5  0.20000 
1498.400     30.4     67.5     14.8  94.9     62.0  29300.0 62130.0      0.3  0.20000 
1498.500     70.9     66.5     15.0  94.9     61.0  29300.0 62015.0      0.4  0.20000 
1498.600     30.4     62.8     15.9  94.9     57.8  29300.0 61630.0      0.3  0.10000 
1498.700     50.6     58.7     17.0  94.9     54.1  29300.0 61190.0      0.2  0.20000 
1498.800     65.8     54.1     18.5  94.9     49.9  29300.0 60690.0      0.3  0.20000 
1498.900     50.6     54.0     18.5  94.9     49.8  29300.0 60685.0      0.3  0.10000 
1499.000     40.5     57.2     17.5  94.9     52.7  29300.0 61030.0      0.3  0.20000 
1499.100     35.4     59.7     16.8  94.9     54.9  29300.0 61290.0      0.2  0.20000 
1499.200     25.3     64.0     15.6  94.9     58.8  29300.0 61755.0      0.2  0.20000 
1499.300     60.8     71.3     14.0  94.9     65.4  29300.0 62535.0      0.1  0.10000 
1499.400     65.8     69.1     14.5  94.9     63.3  29300.0 62295.0      0.0  0.20000 
1499.500     60.8     69.6     14.4  94.9     63.8  29300.0 62350.0      0.0  0.20000 
1499.600     65.8     68.2     14.7  94.9     62.5  29300.0 62200.0      0.0  0.20000 
1499.700     50.6     64.5     15.5  95.0     59.3  29305.0 61810.0      0.0  0.10000 
1499.800     25.3     61.6     16.2  94.9     56.6  29300.0 61495.0      0.0  0.20000 
1499.900     75.9     63.6     15.7  94.9     58.4  29300.0 61710.0      0.0  0.20000 
1500.000     40.5     62.6     16.0  94.9     57.5  29300.0 61605.0      0.3  0.20000 
1500.100     40.5     61.8     16.2  94.9     56.8  29300.0 61515.0      0.3  0.10000 
1500.200     45.6     64.3     15.6  94.9     59.0  29300.0 61780.0      0.3  0.20000 
1500.300     40.5     63.1     15.8  94.9     58.0  29300.0 61660.0      0.5  0.20000 
1500.400     50.6     66.4     15.1  95.0     60.9  29305.0 62005.0      0.5  0.20000 
1500.500    101.3     65.0     15.4  94.9     59.6  29300.0 61855.0      0.5  0.10000 
1500.600     65.8     61.3     16.3  94.9     56.3  29300.0 61460.0      0.2  0.20000 
1500.700     70.9     59.3     16.9  95.1     54.6  29310.0 61250.0      0.2  0.20000 
1500.800    111.4     60.1     16.6  94.9     55.3  29300.0 61340.0      0.2  0.10000 
1500.900     40.5     65.1     15.4  95.0     59.7  29305.0 61865.0      0.0  0.20000 
1501.000     60.8     68.2     14.7  94.9     62.5  29300.0 62200.0      0.9  0.20000 
1501.100     20.3     71.8     13.9  94.9     65.8  29300.0 62585.0      0.9  0.20000 
1501.200      0.0     73.0     13.7  94.9     66.8  29300.0 62710.0      0.9  0.10000 
1501.300     35.4     72.8     13.7  94.9     66.7  29300.0 62695.0      0.9  0.20000 
1501.400     50.6     72.2     13.9  95.1     66.1  29310.0 62620.0      0.9  0.20000 
1501.500     30.4     70.9     14.1  94.9     64.9  29300.0 62485.0      0.9  0.20000 
1501.600     20.3     69.7     14.3  95.0     63.9  29305.0 62360.0      0.0  0.10000 
1501.700     75.9     65.4     15.3  94.9     60.0  29300.0 61900.0      0.0  0.20000 
1501.800     25.3     69.0     14.5  95.1     63.2  29310.0 62280.0      0.0  0.20000 
1501.900     25.3     70.3     14.2  94.9     64.4  29300.0 62420.0      0.0  0.20000 
1502.000     30.4     75.9     13.2  95.0     69.5  29305.0 63025.0      0.0  0.10000 
1502.100     45.6     75.7     13.2  94.9     69.3  29300.0 63005.0      0.0  0.20000 
1502.200     45.6     76.5     13.1  94.9     69.9  29300.0 63080.0      0.0  0.20000 
1502.300     70.9     76.2     13.1  94.9     69.7  29300.0 63055.0      0.0  0.20000 
1502.400     40.5     73.5     13.6  95.0     67.3  29305.0 62765.0      0.0  0.10000 
1502.500     35.4     69.7     14.3  95.0     63.9  29305.0 62360.0      0.0  0.20000 
1502.600     70.9     69.1     14.5  94.9     63.4  29300.0 62300.0      0.0  0.20000 
1502.700     40.5     68.0     14.7  94.9     62.4  29300.0 62185.0      0.0  0.20000 
1502.800     30.4     66.7     15.0  95.0     61.2  29305.0 62045.0      0.0  0.10000 
1502.900     55.7     66.8     15.0  94.9     61.3  29300.0 62050.0      0.0  0.20000 
1503.000     70.9     67.8     14.7  95.1     62.2  29310.0 62160.0      0.0  0.20000 
1503.100     81.0     68.9     14.5  94.9     63.2  29300.0 62280.0      0.0  0.10000 
1503.200     25.3     69.4     14.4  94.9     63.6  29300.0 62325.0      0.0  0.20000 
1503.300     75.9     71.7     14.0  95.1     65.7  29310.0 62570.0      0.0  0.20000 
1503.400     35.4     66.5     15.0  94.9     61.1  29300.0 62025.0      0.0  0.20000 
1503.500     50.6     64.8     15.4  95.0     59.5  29305.0 61840.0      0.0  0.10000 
1503.600     35.4     63.7     15.7  95.0     58.5  29305.0 61715.0      0.3  0.20000 
1503.700     35.4     61.7     16.2  95.1     56.8  29310.0 61510.0      1.2  0.20000 
1503.800     10.1     62.4     16.0  94.9     57.3  29300.0 61580.0      1.2  0.20000 
1503.900     50.6     62.4     16.0  95.0     57.4  29305.0 61585.0      1.8  0.10000 
1504.000     30.4     66.2     15.1  95.0     60.7  29305.0 61985.0      1.8  0.20000 
1504.100     25.3     70.6     14.2  95.1     64.7  29310.0 62460.0      2.4  0.20000 
1504.200     40.5     75.8     13.2  94.9     69.3  29300.0 63010.0      2.4  0.20000 
1504.300     45.6     78.1     12.8  94.9     71.4  29300.0 63255.0      1.8  0.10000 
