~Version Information
 VERS.                2.0:  CWLS LOG ASCII STANDARD -VERSION 2.0
 WRAP.                 NO:  ONE LINE PER DEPTH STEP
~WELL INFORMATION BLOCK
#MNEM.UNIT       DATA		            DESCRIPTION OF MNEMONIC
#---------    -------------            ------------------------
 STRT.FT  5.300                          :START DEPTH
 STOP.FT  1874.500                       :STOP DEPTH
 STEP.FT  0.100                          :STEP    UP_HOLE  
 NULL.    0                              :NULL VALUE
 COMP.                            USGS   :COMPANY
 WELL.                      MCWD-DMW #1  :WELL
 FLD .                           Marina  :FIELD
 LOC .    None  None  None               :LOCATION
 CNTY.                         Monterey  :COUNTY
 STAT.             California            :STATE
 SRVC.    Western Reg                    :SERVICE COMPANY
 DATE.   05/27/00                        :LOG DATE
 UWI .                       	         :UNIQUE WELL ID
 LIC .                                   :LICENSE NUMBER
~Curve Information Block
#MNEM.UNIT      API CODE     Curve Description
#---------    -------------  ------------------------
 DEPT     .FT        00 001 00 00          :  1  DEPTH   
 CALIPER  .INCH      00 280 00 00          :  2              CALIPER
 TENSION  .POUNDS    00 000 00 00          :  3              TENSION
 TIME     .MINUTES   00 000 00 00          :  4                 TIME
~Parameter Information Block
#MNEM.UNIT   Information     Description
#---------- ---------------  ------------------------
~Other Information
#MNEM.UNIT  Information      Description
#---------- ---------------  ------------------------
 FILE.      ORIGINAL           File Type
 FIID.      9065A              File Type Identifier
 VERS.      1.0                System Version
 SER .      1                  System Serial Number
 TRUK.      0.5                Truck Calibration Number
 TOOL.         573             Tool Serial Number
 TIME.      03:05:             Time
 LAT .          None           Latitude
 LON .          None           Longitude
 LMF .           LSD           Log Measured From
 DMF .           LSD           Driller Measured From
 PD  .          None           Permanent Data
 PDEV.          None           Elevation Permanent Data
 EKB .M         None           Elevation Kelly Bushing
 ELEV.DF        None           Elevation DF
 EGL .M         None           Elevation Ground Level
 DRDP.         1990'           Driller's Depth
 CASD.         0               Casing Diameter
 CASB.          None           Casing Bottom
 CASX.          None           Casing Type
 CAST.         0               Casing Thickness
 TNOC.          None           Time Circulation Stopped
 LOGU.       WRRD              Logging Unit
 RECB.           Everett       Recorded By
 OSR1.       Pimente           Other Services
 OSR2.       mud vis           Other Services
 OSR3.           =62           Other Services
 BS  .MM           6           Bit Size
 MST .                         Mean Surface Temperature
 TGRD.        0                Temperature Gradiant
 MAGN.             0           Magnetic Declination
 MDEN.      2.71               Density Matrix
 MATR.       Dolomite          Neutron Matrix
 DTMT.            54           Delta T Matrix
 DTFL.                         Delta T Fluid
 MUDS.               0         Mud Sample Source
 MRS .           0             Mud Resistivity
 MTP .           0             Mud Temperature
 MFRS.                         Resistivity Mud Filtrate
 MFTP.                         Temperature Mud Filtrate
 MCRS.         0               Resistivity Mud Cake
 MCTP.                         Temperature Mud Cake
 FTYP.             0           Fluid Type
 FD  .K/M3                     Fluid Density
 DFV .S                        Fluid Viscosity
 FPH .                         Fuild PH
 ELCO.        2500             Electron Cutoff
# -------------------------- 
~A DEPTH  CALIPER TENSION  TIME    
# ...
1856.200   7.2        0.5  0.20000 
1856.300   7.2        0.5  0.20000 
1856.400   7.2        0.7  0.20000 
1856.500   7.2        0.9  0.10000 
1856.600   7.2        0.7  0.20000 
1856.700   7.2        1.0  0.20000 
1856.800   7.2        0.7  0.20000 
1856.900   7.2        0.7  0.20000 
1857.000   7.2        0.5  0.10000 
1857.100   7.2        0.3  0.20000 
1857.200   7.2        0.0  0.20000 
1857.300   7.2        0.0  0.20000 
1857.400   7.2        0.0  0.20000 
1857.500   7.2        0.0  0.20000 
1857.600   7.2        0.0  0.10000 
1857.700   7.2        0.0  0.20000 
1857.800   7.2        0.0  0.22000 
1857.900   7.2        0.0  0.22000 
1858.000   7.2        0.0  0.22000 
1858.100   7.2        0.0  0.22000 
1858.200   7.2        0.0  0.11000 
1858.300   7.2        0.0  0.11000 
1858.400   7.2        0.0  0.20000 
1858.500   7.2        0.0  0.20000 
1858.600   7.2        0.7  0.20000 
1858.700   7.2        0.7  0.10000 
1858.800   7.2        2.1  0.20000 
1858.900   7.2        3.3  0.20000 
1859.000   7.2        3.3  0.20000 
1859.100   7.2        3.4  0.20000 
1859.200   7.2        2.7  0.20000 
1859.300   7.2        1.3  0.20000 
1859.400   7.2        1.3  0.20000 
1859.500   7.2        0.1  0.10000 
1859.600   7.2        0.0  0.20000 
1859.700   7.2        0.0  0.20000 
1859.800   7.2        0.0  0.20000 
1859.900   7.2        1.6  0.20000 
1860.000   7.2        3.4  0.20000 
1860.100   7.2        3.4  0.10000 
1860.200   7.2        3.8  0.20000 
1860.300   7.2        3.9  0.20000 
1860.400   7.2        2.3  0.20000 
1860.500   7.2        2.3  0.20000 
1860.600   7.2        0.5  0.20000 
1860.700   7.2        0.1  0.20000 
1860.800   7.2        0.1  0.20000 
1860.900   7.2        0.0  0.20000 
1861.000   7.2        0.0  0.20000 
1861.100   7.2        0.4  0.20000 
1861.200   7.2        0.6  0.20000 
1861.300   7.2        0.6  0.22000 
1861.400   7.2        0.7  0.22000 
1861.500   7.2        0.7  0.11000 
1861.600   7.2        0.3  0.22000 
1861.700   7.2        0.1  0.22000 
1861.800   7.2        0.1  0.11000 
1861.900   7.2        0.0  0.30000 
1862.000   7.2        0.0  0.20000 
1862.100   7.2        0.2  0.20000 
1862.200   7.2        0.2  0.20000 
1862.300   7.2        0.2  0.20000 
1862.400   7.2        1.1  0.20000 
1862.500   7.2        1.1  0.20000 
1862.600   7.2        0.9  0.20000 
1862.700   7.2        0.9  0.20000 
1862.800   7.2        2.4  0.20000 
1862.900   7.2        1.5  0.20000 
1863.000   7.2        1.7  0.20000 
1863.100   7.2        1.7  0.20000 
1863.200   7.2        2.7  0.20000 
1863.300   7.1        1.2  0.20000 
1863.400   7.1        2.4  0.20000 
1863.500   7.1        5.1  0.20000 
1863.600   7.1        5.1  0.20000 
1863.700   7.1        5.8  0.20000 
1863.800   7.1        8.4  0.20000 
1863.900   7.1        7.2  0.20000 
1864.000   7.1        7.6  0.30000 
1864.100   7.1        8.4  0.20000 
1864.200   7.1        6.7  0.20000 
1864.300   7.1        4.3  0.20000 
1864.400   7.1        1.0  0.20000 
1864.500   7.1        1.0  0.20000 
1864.600   7.1        0.2  0.20000 
1864.700   7.1        0.2  0.30000 
1864.800   7.1        0.0  0.20000 
1864.900   7.1        0.0  0.20000 
1865.000   7.1        0.7  0.20000 
1865.100   7.1        0.7  0.30000 
1865.200   7.1        1.8  0.20000 
1865.300   7.1        2.0  0.20000 
1865.400   7.1        1.3  0.20000 
1865.500   7.1        1.3  0.30000 
1865.600   7.1        0.2  0.20000 
1865.700   7.1        0.2  0.20000 
1865.800   7.1        0.0  0.20000 
1865.900   7.1        1.7  0.30000 
1866.000   7.1        1.7  0.20000 
1866.100   7.1        1.7  0.20000 
1866.200   7.1        2.6  0.20000 
1866.300   7.1        2.6  0.30000 
1866.400   7.1        2.5  0.20000 
1866.500   7.0        4.4  0.20000 
1866.600   6.8        9.5  0.20000 
1866.700   6.3        8.6  0.20000 
1866.800   5.6        7.0  0.30000 
1866.900   4.9        7.0  0.20000 
1867.000   4.4        5.1  0.30000 
1867.100   3.9        0.0  0.20000 
1867.200   3.6        0.0  0.20000 
1867.300   3.3        3.4  0.30000 
1867.400   3.1        3.4  0.20000 
1867.500   2.9        3.4  0.20000 
1867.600   2.9        3.4  0.30000 
1867.700   2.9        4.0  0.20000 
1867.800   2.9        1.8  0.30000 
1867.900   2.9        2.2  0.20000 
1868.000   2.9        2.2  0.20000 
1868.100   2.8        2.9  0.30000 
1868.200   2.6        1.9  0.20000 
1868.300   2.4        2.4  0.30000 
1868.400   2.3        2.0  0.30000 
1868.500   2.2        0.5  0.20000 
1868.600   2.2        0.5  0.40000 
1868.700   2.1        0.1  0.30000 
1868.800   2.1        0.1  0.30000 
1868.900   2.1        0.1  0.30000 
1869.000   2.1        0.2  0.30000 
1869.100   2.1        0.1  0.30000 
1869.200   2.1        0.1  0.30000 
1869.300   2.1        0.1  0.30000 
1869.400   2.1        0.0  0.30000 
1869.500   2.1        0.0  0.30000 
1869.600   2.1        0.0  0.30000 
1869.700   2.1        0.0  0.30000 
1869.800   2.1        0.0  0.30000 
1869.900   2.1        0.0  0.30000 
1870.000   2.1        0.0  0.30000 
1870.100   2.1        0.0  0.40000 
1870.200   2.1        0.0  0.32000 
1870.300   2.1        0.0  0.33000 
1870.400   2.1        0.2  0.33000 
1870.500   2.0        0.5  0.22000 
1870.600   2.0        1.0  0.30000 
1870.700   1.9        1.8  0.30000 
1870.800   1.9        1.6  0.30000 
1870.900   1.9        1.3  0.30000 
1871.000   1.9        0.8  0.30000 
1871.100   1.9        0.0  0.30000 
1871.200   1.8        0.0  0.30000 
1871.300   1.7        0.0  0.30000 
1871.400   1.7        0.0  0.30000 
1871.500   1.7        0.0  0.30000 
1871.600   1.7        0.0  0.30000 
1871.700   1.7        0.0  0.40000 
1871.800   1.7        0.0  0.30000 
1871.900   1.7        0.0  0.31000 
1872.000   1.7        0.2  0.33000 
1872.100   1.6        0.8  0.33000 
1872.200   1.6        0.8  0.22000 
1872.300   1.6        0.8  0.31000 
1872.400   1.6        0.6  0.30000 
1872.500   1.6        0.0  0.30000 
1872.600   1.6        0.0  0.30000 
1872.700   1.6        0.0  0.30000 
1872.800   1.6        0.0  0.30000 
1872.900   1.6        0.0  0.30000 
1873.000   1.6        0.4  0.30000 
1873.100   1.6        0.6  0.40000 
1873.200   1.6        0.6  0.30000 
1873.300   1.5        0.5  0.30000 
1873.400   1.5        1.5  0.33000 
1873.500   1.5        2.2  0.33000 
1873.600   1.5        3.3  0.33000 
1873.700   1.5        4.6  0.31000 
1873.800   1.5        4.6  0.30000 
1873.900   1.5        3.9  0.40000 
1874.000   1.5        0.7  0.40000 
1874.100   1.5        0.5  0.40000 
1874.200   1.5        2.0  0.40000 
1874.300   1.5        2.2  0.40000 
1874.400   1.5        2.5  0.00000 
1874.500   1.5        2.2  0.00000 
