~Version Information
 VERS.                2.0:  CWLS LOG ASCII STANDARD -VERSION 2.0
 WRAP.                 NO:  ONE LINE PER DEPTH STEP
~WELL INFORMATION BLOCK
#MNEM.UNIT       DATA		            DESCRIPTION OF MNEMONIC
#---------    -------------            ------------------------
 STRT.FT  1.400                          :START DEPTH
 STOP.FT  1872.000                       :STOP DEPTH
 STEP.FT  0.100                          :STEP    UP_HOLE  
 NULL.    0                              :NULL VALUE
 COMP.                            USGS   :COMPANY
 WELL.                      MCWD-DMW #1  :WELL
 FLD .                           Marina  :FIELD
 LOC .    None  None  None               :LOCATION
 CNTY.                         Monterey  :COUNTY
 STAT.             California            :STATE
 SRVC.    Western Reg                    :SERVICE COMPANY
 DATE.   05/27/00                        :LOG DATE
 UWI .                       	         :UNIQUE WELL ID
 LIC .                                   :LICENSE NUMBER
~Curve Information Block
#MNEM.UNIT      API CODE     Curve Description
#---------    -------------  ------------------------
 DEPT     .FT        00 001 00 00          :  1  DEPTH   
 TIME(N)  .USEC      00 000 00 00          :  2              TIME(N)
 TIME(F)  .USEC      00 000 00 00          :  3              TIME(F)
 DELTAT   .USEC/FT   00 522 00 00          :  4               DELTAT
 AMP(N)   .MV        00 000 00 00          :  5               AMP(N)
 AMP(F)   .MV        00 000 00 00          :  6               AMP(F)
 XTR PWR  .PERCENT   00 000 00 00          :  7              XTR PWR
 POR(SON) .PERCENT   00 890 00 00          :  8             POR(SON)
 BHC-DELT .USEC/FT   00 520 00 00          :  9             BHC-DELT
 TENSION  .POUNDS    00 000 00 00          : 10              TENSION
 TIME     .MINUTES   00 000 00 00          : 11                 TIME
~Parameter Information Block
#MNEM.UNIT   Information     Description
#---------- ---------------  ------------------------
~Other Information
#MNEM.UNIT  Information      Description
#---------- ---------------  ------------------------
 FILE.      ORIGINAL           File Type
 FIID.      9300A              File Type Identifier
 VERS.      1.0                System Version
 SER .      1                  System Serial Number
 TRUK.      0.5                Truck Calibration Number
 TOOL.         691             Tool Serial Number
 TIME.      07:18:             Time
 LAT .          None           Latitude
 LON .          None           Longitude
 LMF .           LSD           Log Measured From
 DMF .           LSD           Driller Measured From
 PD  .          None           Permanent Data
 PDEV.          None           Elevation Permanent Data
 EKB .M         None           Elevation Kelly Bushing
 ELEV.DF        None           Elevation DF
 EGL .M         None           Elevation Ground Level
 DRDP.         1990'           Driller's Depth
 CASD.         0               Casing Diameter
 CASB.          None           Casing Bottom
 CASX.          None           Casing Type
 CAST.         0               Casing Thickness
 TNOC.          None           Time Circulation Stopped
 LOGU.       WRRD              Logging Unit
 RECB.           Everett       Recorded By
 OSR1.       Pimente           Other Services
 OSR2.       mud vis           Other Services
 OSR3.           =62           Other Services
 BS  .MM           6           Bit Size
 MST .                         Mean Surface Temperature
 TGRD.        0                Temperature Gradiant
 MAGN.             0           Magnetic Declination
 MDEN.      2.71               Density Matrix
 MATR.       Dolomite          Neutron Matrix
 DTMT.            54           Delta T Matrix
 DTFL.                         Delta T Fluid
 MUDS.               0         Mud Sample Source
 MRS .           0             Mud Resistivity
 MTP .           0             Mud Temperature
 MFRS.                         Resistivity Mud Filtrate
 MFTP.                         Temperature Mud Filtrate
 MCRS.         0               Resistivity Mud Cake
 MCTP.                         Temperature Mud Cake
 FTYP.             0           Fluid Type
 FD  .K/M3                     Fluid Density
 DFV .S                        Fluid Viscosity
 FPH .                         Fuild PH
 ELCO.        2500             Electron Cutoff
# -------------------------- 
~A DEPTH  TIME(N) TIME(F) DELTAT AMP(N)   AMP(F)   XTR PWR POR(SON) BHC-DELT TENSION  TIME    
# ...
 621.900   451     578    127.3   2995.3   1571.5  53.2    36.7      129         1.4  0.20000 
 622.000   445     571    126.1   3103.5   1363.5  55.3    36.6      129         1.6  0.20000 
 622.100   439     563    124.1   3406.5   1624.0  58.8    36.3      128         1.4  0.20000 
 622.200   433     557    123.9   3386.5   1660.0  61.1    36.3      127         1.4  0.20000 
 622.300   429     553    124.5   2845.0   1294.0  61.4    36.3      127         1.4  0.20000 
 622.400   426     550    124.3   2600.0   1126.5  60.9    36.2      127         1.6  0.20000 
 622.500   426     548    121.7   2859.5   1289.0  60.5    35.9      126         1.8  0.20000 
 622.600   429     548    119.0   3131.0   1504.5  60.2    35.5      124         1.3  0.20000 
 622.700   432     549    117.6   3343.5   1664.5  60.4    35.3      123         1.3  0.20000 
 622.800   435     551    115.8   3132.5   1864.0  60.0    34.9      121         1.8  0.20000 
 622.900   440     555    114.8   2605.0   1886.3  58.2    34.7      120         1.5  0.21000 
 623.000   445     558    113.8   2073.0   1781.0  56.0    34.4      119         1.5  0.22000 
 623.100   449     561    112.2   1691.0   1645.5  54.5    34.1      118         1.1  0.22000 
 623.200   454     565    111.1   1580.0   1614.5  53.4    33.8      116         1.1  0.22000 
 623.300   460     568    108.9   1761.0   1570.5  52.7    33.3      114         0.6  0.22000 
 623.400   465     572    106.6   2004.0   1514.5  51.3    32.7      112         0.4  0.11000 
 623.500   471     576    105.2   2182.0   1421.5  48.3    32.2      110         0.0  0.20000 
 623.600   476     581    104.6   2301.0   1360.5  44.9    31.7      109         0.0  0.20000 
 623.700   479     585    105.3   2348.0   1403.5  41.3    31.7      109         0.0  0.20000 
 623.800   482     588    106.0   2463.0   1446.0  37.7    31.7      109         0.0  0.20000 
 623.900   485     593    107.4   2347.5   1315.5  34.0    31.9      110         0.0  0.20000 
 624.000   488     598    109.4   2119.0   1171.5  30.9    32.3      111         0.0  0.10000 
 624.100   492     603    110.9   2033.3   1094.5  29.0    32.7      112         0.0  0.20000 
 624.200   496     609    113.1   2078.5   1119.0  28.2    33.2      114         0.1  0.20000 
 624.300   499     614    114.8   2298.0   1323.5  27.8    33.5      115         0.4  0.20000 
 624.400   505     620    115.4   2472.5   1593.0  27.8    33.5      115         0.4  0.20000 
 624.500   511     626    114.8   2317.0   1912.5  27.4    33.2      114         0.5  0.20000 
 624.600   518     631    112.5   2042.0   2272.5  26.0    32.4      111         0.5  0.20000 
 624.700   527     634    106.3   1856.0   2435.0  24.8    30.9      106         1.3  0.20000 
 624.800   537     637     99.6   1926.5   2537.5  24.8    28.7       99         1.0  0.20000 
 624.900   546     641     95.1   2064.5   2521.5  26.5    26.8       94         1.3  0.20000 
 625.000   556     644     88.3   2353.0   2458.0  28.2    24.1       88         2.0  0.20000 
 625.100   566     648     81.9   3512.0   2505.3  28.4    20.8       81         2.0  0.20000 
 625.200   574     651     77.6   4648.0   2763.5  27.0    18.1       76         1.1  0.22000 
 625.300   576     656     79.3   3112.0   3222.0  25.2    17.8       75         1.1  0.22000 
 625.400   576     661     84.9   2834.5   3403.0  23.6    19.1       78         1.1  0.22000 
 625.500   577     668     90.6   2821.5   3029.5  22.9    21.1       81         0.3  0.22000 
 625.600   578     676     97.6   2917.0   2579.0  24.3    24.1       87         0.3  0.11000 
 625.700   579     685    106.6   2882.5   2378.5  27.4    27.6       96         0.3  0.21000 
 625.800   579     695    115.7   2878.0   2452.5  30.4    30.3      104         0.3  0.20000 
 625.900   580     704    123.8   2996.5   2544.0  32.0    33.1      114         0.3  0.20000 
 626.000   581     714    133.0   2967.0   2879.0  32.8    35.4      123         0.0  0.20000 
 626.100   582     725    143.0   2971.0   3948.5  33.3    37.4      133         0.6  0.20000 
 626.200   582     734    151.8   3120.5   5135.0  33.8    39.0      142         0.6  0.20000 
 626.300   582     737    154.8   3481.0   3168.0  34.0    39.9      147         0.6  0.20000 
 626.400   582     737    154.6   3614.0   2667.5  34.4    40.4      150         0.6  0.20000 
 626.500   583     738    155.4   3568.0   2473.5  35.3    40.7      153         0.6  0.20000 
 626.600   583     739    155.8   3231.0   2422.0  36.0    40.9      154         1.1  0.20000 
 626.700   584     740    156.5   2902.5   2285.5  36.5    41.0      155         1.1  0.20000 
 626.800   584     741    156.9   2934.0   2255.5  38.4    41.0      155         1.5  0.20000 
 626.900   585     742    157.5   2887.5   2414.0  40.5    41.1      155         1.5  0.20000 
 627.000   585     744    158.6   2858.0   2385.0  43.5    41.2      156         1.5  0.20000 
 627.100   585     745    159.3   2904.0   2290.0  45.6    41.3      157         0.4  0.20000 
 627.200   586     746    160.0   3064.0   2306.5  45.8    41.4      157         0.4  0.20000 
 627.300   586     746    160.3   3254.5   2596.0  44.8    41.4      157         0.0  0.21000 
 627.400   586     746    160.3   3355.5   2681.5  43.3    41.4      158         0.0  0.22000 
 627.500   586     747    160.9   3372.0   2564.0  41.7    41.4      158         0.8  0.11000 
 627.600   586     747    161.5   3300.5   2130.5  39.9    41.5      158         0.9  0.22000 
 627.700   585     747    162.4   3203.5   1751.5  37.7    41.5      158         2.0  0.22000 
 627.800   583     747    163.3   3244.0   1564.5  36.3    41.6      159         2.0  0.11000 
 627.900   582     747    165.0   3100.5   1280.0  35.8    41.8      160         2.4  0.21000 
 628.000   582     748    166.3   2695.5   1162.0  36.1    41.9      161         4.2  0.20000 
 628.100   582     748    166.4   2500.5   1173.0  37.0    41.9      161         3.4  0.20000 
 628.200   582     748    166.0   2282.5   1279.5  38.2    41.9      161         4.3  0.20000 
 628.300   583     748    165.6   2120.0   1482.0  39.8    41.8      161         3.3  0.20000 
 628.400   583     748    164.8   1974.5   1717.5  41.8    41.8      161         3.5  0.20000 
 628.500   584     748    164.3   1977.0   1972.5  43.3    41.8      161         5.1  0.20000 
 628.600   585     748    162.8   2355.3   2248.0  43.8    41.8      160         3.3  0.20000 
 628.700   585     747    161.8   2752.0   2400.5  44.1    41.7      160         2.8  0.20000 
 628.800   585     746    161.1   2924.5   2575.5  43.8    41.7      159         2.7  0.20000 
 628.900   585     746    160.8   3050.0   2718.5  43.0    41.7      160         2.5  0.20000 
 629.000   585     746    160.7   3244.5   2638.5  42.2    41.7      160         1.1  0.20000 
 629.100   585     746    160.9   3249.0   2720.0  41.1    41.7      160         1.1  0.20000 
 629.200   585     747    161.4   3210.5   2684.5  41.4    41.8      161         1.1  0.20000 
 629.300   585     747    162.2   3179.0   2624.0  43.3    41.9      161         1.1  0.20000 
 629.400   585     748    162.8   3319.0   2627.5  46.0    42.0      162         1.1  0.10000 
 629.500   585     748    163.4   3557.5   2615.0  49.3    42.0      162         0.5  0.20000 
 629.600   585     750    164.5   3434.0   2612.7  51.9    42.1      163         0.5  0.21000 
 629.700   586     751    165.3   3290.5   2867.0  54.0    42.2      163         0.5  0.22000 
 629.800   586     751    165.7   3412.5   3123.5  56.0    42.2      164         0.0  0.22000 
 629.900   586     752    165.5   3668.5   3271.0  57.5    42.2      164         0.0  0.22000 
 630.000   587     752    165.1   3720.0   3275.0  58.8    42.2      164         0.0  0.22000 
 630.100   588     752    164.9   3713.0   3102.0  60.2    42.2      164         1.3  0.11000 
 630.200   588     752    164.4   3744.0   2774.0  60.8    42.3      164         1.3  0.20000 
 630.300   589     752    163.4   3624.0   2541.5  60.7    42.2      164         1.5  0.20000 
