~Version Information
 VERS.                2.0:  CWLS LOG ASCII STANDARD -VERSION 2.0
 WRAP.                 NO:  ONE LINE PER DEPTH STEP
~WELL INFORMATION BLOCK
#MNEM.UNIT       DATA		            DESCRIPTION OF MNEMONIC
#---------    -------------            ------------------------
 STRT.FT  1.400                          :START DEPTH
 STOP.FT  1872.000                       :STOP DEPTH
 STEP.FT  0.100                          :STEP    UP_HOLE  
 NULL.    0                              :NULL VALUE
 COMP.                            USGS   :COMPANY
 WELL.                      MCWD-DMW #1  :WELL
 FLD .                           Marina  :FIELD
 LOC .    None  None  None               :LOCATION
 CNTY.                         Monterey  :COUNTY
 STAT.             California            :STATE
 SRVC.    Western Reg                    :SERVICE COMPANY
 DATE.   05/27/00                        :LOG DATE
 UWI .                       	         :UNIQUE WELL ID
 LIC .                                   :LICENSE NUMBER
~Curve Information Block
#MNEM.UNIT      API CODE     Curve Description
#---------    -------------  ------------------------
 DEPT     .FT        00 001 00 00          :  1  DEPTH   
 TIME(N)  .USEC      00 000 00 00          :  2              TIME(N)
 TIME(F)  .USEC      00 000 00 00          :  3              TIME(F)
 DELTAT   .USEC/FT   00 522 00 00          :  4               DELTAT
 AMP(N)   .MV        00 000 00 00          :  5               AMP(N)
 AMP(F)   .MV        00 000 00 00          :  6               AMP(F)
 XTR PWR  .PERCENT   00 000 00 00          :  7              XTR PWR
 POR(SON) .PERCENT   00 890 00 00          :  8             POR(SON)
 BHC-DELT .USEC/FT   00 520 00 00          :  9             BHC-DELT
 TENSION  .POUNDS    00 000 00 00          : 10              TENSION
 TIME     .MINUTES   00 000 00 00          : 11                 TIME
~Parameter Information Block
#MNEM.UNIT   Information     Description
#---------- ---------------  ------------------------
~Other Information
#MNEM.UNIT  Information      Description
#---------- ---------------  ------------------------
 FILE.      ORIGINAL           File Type
 FIID.      9300A              File Type Identifier
 VERS.      1.0                System Version
 SER .      1                  System Serial Number
 TRUK.      0.5                Truck Calibration Number
 TOOL.         691             Tool Serial Number
 TIME.      07:18:             Time
 LAT .          None           Latitude
 LON .          None           Longitude
 LMF .           LSD           Log Measured From
 DMF .           LSD           Driller Measured From
 PD  .          None           Permanent Data
 PDEV.          None           Elevation Permanent Data
 EKB .M         None           Elevation Kelly Bushing
 ELEV.DF        None           Elevation DF
 EGL .M         None           Elevation Ground Level
 DRDP.         1990'           Driller's Depth
 CASD.         0               Casing Diameter
 CASB.          None           Casing Bottom
 CASX.          None           Casing Type
 CAST.         0               Casing Thickness
 TNOC.          None           Time Circulation Stopped
 LOGU.       WRRD              Logging Unit
 RECB.           Everett       Recorded By
 OSR1.       Pimente           Other Services
 OSR2.       mud vis           Other Services
 OSR3.           =62           Other Services
 BS  .MM           6           Bit Size
 MST .                         Mean Surface Temperature
 TGRD.        0                Temperature Gradiant
 MAGN.             0           Magnetic Declination
 MDEN.      2.71               Density Matrix
 MATR.       Dolomite          Neutron Matrix
 DTMT.            54           Delta T Matrix
 DTFL.                         Delta T Fluid
 MUDS.               0         Mud Sample Source
 MRS .           0             Mud Resistivity
 MTP .           0             Mud Temperature
 MFRS.                         Resistivity Mud Filtrate
 MFTP.                         Temperature Mud Filtrate
 MCRS.         0               Resistivity Mud Cake
 MCTP.                         Temperature Mud Cake
 FTYP.             0           Fluid Type
 FD  .K/M3                     Fluid Density
 DFV .S                        Fluid Viscosity
 FPH .                         Fuild PH
 ELCO.        2500             Electron Cutoff
# -------------------------- 
~A DEPTH  TIME(N) TIME(F) DELTAT AMP(N)   AMP(F)   XTR PWR POR(SON) BHC-DELT TENSION  TIME    
# ...
 868.400   570     718    147.4   2455.0   3642.0  23.7    40.5      151         0.0  0.20000 
 868.500   573     718    144.9   2570.0   3225.0  23.0    40.2      149         0.0  0.21000 
 868.600   578     718    140.2   2704.0   2594.0  22.2    39.7      146         0.0  0.22000 
 868.700   580     719    138.2   2802.5   2388.5  21.3    39.3      144         0.0  0.22000 
 868.800   584     720    135.6   3077.5   2302.0  20.0    38.9      141         0.0  0.22000 
 868.900   587     721    134.3   3308.0   2238.5  18.5    38.6      139         0.0  0.22000 
 869.000   590     723    132.6   3126.0   2161.0  17.3    38.2      137         0.0  0.11000 
 869.100   594     725    130.9   2955.0   2173.0  16.6    37.8      135         0.0  0.20000 
 869.200   598     728    130.1   2662.0   2129.0  16.4    37.5      133         0.0  0.20000 
 869.300   601     732    130.9   2406.5   1956.5  16.9    37.5      133         0.0  0.20000 
 869.400   603     736    133.3   2619.0   2063.5  19.0    37.7      134         1.1  0.20000 
 869.500   604     740    135.9   2940.5   2154.5  21.3    37.8      135         2.2  0.20000 
 869.600   605     745    139.4   3381.0   2210.0  22.9    38.2      137         2.2  0.21000 
 869.700   606     747    140.8   3912.0   2290.0  23.9    38.4      139         2.8  0.22000 
 869.800   606     749    143.0   4357.0   2618.0  23.5    38.7      140         2.9  0.22000 
 869.900   604     749    145.0   4306.5   2752.0  21.9    39.1      142         1.8  0.22000 
 870.000   602     750    147.9   3478.5   2662.5  20.3    39.5      145         1.2  0.11000 
 870.100   598     750    152.3   2545.5   2575.5  19.8    40.0      148         1.2  0.11000 
 870.200   593     750    157.6   2491.0   2417.5  20.8    40.5      151         1.3  0.21000 
 870.300   588     750    161.8   2614.5   2014.0  22.8    40.9      154         1.3  0.20000 
 870.400   584     749    164.7   2723.0   1726.5  25.8    41.3      157         1.5  0.20000 
 870.500   581     747    166.6   2818.0   1728.0  28.7    41.7      159         1.5  0.20000 
 870.600   578     746    167.5   3068.5   1997.5  29.8    41.9      161         1.0  0.20000 
 870.700   575     744    168.6   3009.5   2223.0  28.8    42.1      163         1.0  0.20000 
 870.800   573     742    168.9   2811.5   2343.5  27.7    42.2      164         0.7  0.22000 
 870.900   571     739    168.1   2859.5   2477.5  26.4    42.2      164         0.4  0.22000 
 871.000   569     737    167.6   2970.0   2433.0  25.0    42.3      164         0.4  0.22000 
 871.100   566     734    167.4   3068.0   2198.5  24.0    42.3      164         1.1  0.22000 
 871.200   564     731    167.3   3301.0   2096.5  23.8    42.3      165         1.1  0.11000 
 871.300   562     729    167.4   3287.0   1886.5  23.4    42.4      165         0.7  0.21000 
 871.400   560     727    167.6   2985.0   1712.0  23.0    42.4      165         0.7  0.20000 
 871.500   558     726    168.6   2950.5   1700.0  23.2    42.4      165         0.9  0.20000 
 871.600   556     725    168.8   3040.5   1839.5  24.2    42.4      165         0.2  0.20000 
 871.700   554     723    169.1   2840.0   1963.0  26.1    42.4      165         0.2  0.20000 
 871.800   553     723    169.9   2631.0   2019.0  29.0    42.5      166         0.2  0.10000 
 871.900   552     722    170.4   2488.0   2168.5  31.7    42.6      167         0.2  0.21000 
 872.000   550     721    170.7   2250.7   2380.0  33.7    42.6      167         0.0  0.22000 
 872.100   549     719    170.3   2149.5   2553.0  35.8    42.6      167         0.0  0.22000 
 872.200   548     718    169.3   2114.0   2880.0  37.2    42.6      167         0.0  0.22000 
 872.300   548     716    167.7   2101.0   3047.5  37.9    42.6      166         0.0  0.22000 
 872.400   548     714    165.2   2110.0   2931.5  38.1    42.5      166         0.0  0.11000 
 872.500   549     711    162.1   2172.5   2900.5  37.5    42.3      164         0.0  0.20000 
 872.600   550     709    158.9   2082.0   2853.0  36.2    42.1      163         0.0  0.20000 
 872.700   551     707    155.8   2065.0   2680.0  34.9    41.9      161         0.0  0.20000 
 872.800   553     705    152.2   2178.5   2556.5  33.9    41.5      158         0.0  0.20000 
 872.900   555     704    149.1   2324.0   2460.0  32.8    41.1      156         0.0  0.20000 
 873.000   556     702    145.7   2608.0   2335.3  31.7    40.7      153         0.0  0.20000 
 873.100   557     700    142.9   2901.0   2338.5  30.6    40.2      149         0.0  0.20000 
 873.200   558     699    140.7   3038.5   2465.5  29.2    39.8      146         0.0  0.20000 
 873.300   559     698    139.1   3116.0   2501.5  28.0    39.3      144         0.2  0.20000 
 873.400   560     698    137.4   3131.5   2445.5  27.0    39.0      142         0.2  0.20000 
 873.500   561     698    136.7   3199.0   2423.0  26.7    38.7      140         0.2  0.10000 
 873.600   562     699    136.4   3372.0   2392.0  27.3    38.4      138         0.2  0.20000 
 873.700   563     699    136.4   3339.5   2441.5  27.6    38.2      137         0.2  0.20000 
 873.800   563     700    137.4   2925.5   2399.0  26.9    38.1      137         0.0  0.20000 
 873.900   564     702    138.2   2734.5   2457.5  25.4    38.1      137         0.0  0.20000 
 874.000   563     702    138.9   3046.5   2619.5  24.0    38.1      137         0.0  0.20000 
 874.100   561     701    140.4   3181.5   2385.5  23.0    38.4      138         0.0  0.20000 
 874.200   558     701    143.0   2919.5   1811.0  22.8    38.9      141         0.0  0.20000 
 874.300   557     703    146.3   2413.0   1315.0  23.1    39.3      144         0.4  0.20000 
 874.400   557     706    149.5   1917.5   1155.0  23.0    39.8      147         0.4  0.20000 
 874.500   557     708    151.0   1532.0   1233.0  23.5    40.0      148         0.4  0.20000 
 874.600   559     709    150.9   1312.0   1460.0  25.5    40.1      149         0.4  0.20000 
 874.700   560     711    151.4   1512.0   1789.5  28.3    40.3      150         0.7  0.20000 
 874.800   559     712    152.3   1682.5   2111.0  31.0    40.5      151         0.3  0.20000 
 874.900   559     712    153.3   1812.0   2370.0  32.9    40.6      152         0.9  0.20000 
 875.000   558     712    153.5   1812.5   2617.5  33.6    40.7      153         0.9  0.20000 
 875.100   558     711    153.0   1806.0   2937.0  33.4    40.8      153         0.9  0.20000 
 875.200   558     710    152.4   1943.5   3300.5  33.0    40.8      153         0.6  0.21000 
 875.300   558     710    152.1   2158.0   3575.0  33.0    40.8      153         1.4  0.22000 
 875.400   558     710    152.3   2370.0   3572.5  32.1    40.8      153         1.2  0.22000 
 875.500   558     710    152.1   2349.0   3515.5  29.8    40.7      153         1.2  0.11000 
 875.600   558     711    152.3   2223.0   3515.0  26.7    40.7      153         1.2  0.22000 
 875.700   558     710    152.9   2353.0   3553.5  24.5    40.7      153         1.2  0.11000 
 875.800   556     709    153.1   2335.0   3126.5  24.7    40.7      153         0.4  0.21000 
 875.900   555     708    153.4   2126.5   2395.5  26.6    40.7      153         0.4  0.20000 
 876.000   554     708    154.1   1662.0   2043.0  29.7    40.7      153         0.0  0.20000 
 876.100   554     709    154.9   1180.0   2055.0  32.9    40.8      153         0.0  0.20000 
 876.200   554     708    154.0   1082.0   3059.0  36.2    40.6      152         0.1  0.20000 
 876.300   553     707    154.2   1469.0   3711.0  39.6    40.6      152         0.3  0.20000 
 876.400   551     705    154.1   1744.5   4291.5  41.9    40.6      152         0.3  0.20000 
 876.500   551     704    153.3   2199.0   4955.0  42.0    40.5      151         1.0  0.20000 
 876.600   551     702    151.4   2657.0   5035.5  39.3    40.3      150         1.3  0.20000 
 876.700   553     702    148.6   3124.5   4745.5  35.6    40.1      148         1.2  0.20000 
 876.800   555     701    145.7   3085.5   4022.0  31.7    39.8      146         1.0  0.20000 
