~Version Information
 VERS.                2.0:  CWLS LOG ASCII STANDARD -VERSION 2.0
 WRAP.                 NO:  ONE LINE PER DEPTH STEP
~WELL INFORMATION BLOCK
#MNEM.UNIT       DATA		            DESCRIPTION OF MNEMONIC
#---------    -------------            ------------------------
 STRT.FT  5.300                          :START DEPTH
 STOP.FT  1874.500                       :STOP DEPTH
 STEP.FT  0.100                          :STEP    UP_HOLE  
 NULL.    0                              :NULL VALUE
 COMP.                            USGS   :COMPANY
 WELL.                      MCWD-DMW #1  :WELL
 FLD .                           Marina  :FIELD
 LOC .    None  None  None               :LOCATION
 CNTY.                         Monterey  :COUNTY
 STAT.             California            :STATE
 SRVC.    Western Reg                    :SERVICE COMPANY
 DATE.   05/27/00                        :LOG DATE
 UWI .                       	         :UNIQUE WELL ID
 LIC .                                   :LICENSE NUMBER
~Curve Information Block
#MNEM.UNIT      API CODE     Curve Description
#---------    -------------  ------------------------
 DEPT     .FT        00 001 00 00          :  1  DEPTH   
 CALIPER  .INCH      00 280 00 00          :  2              CALIPER
 TENSION  .POUNDS    00 000 00 00          :  3              TENSION
 TIME     .MINUTES   00 000 00 00          :  4                 TIME
~Parameter Information Block
#MNEM.UNIT   Information     Description
#---------- ---------------  ------------------------
~Other Information
#MNEM.UNIT  Information      Description
#---------- ---------------  ------------------------
 FILE.      ORIGINAL           File Type
 FIID.      9065A              File Type Identifier
 VERS.      1.0                System Version
 SER .      1                  System Serial Number
 TRUK.      0.5                Truck Calibration Number
 TOOL.         573             Tool Serial Number
 TIME.      03:05:             Time
 LAT .          None           Latitude
 LON .          None           Longitude
 LMF .           LSD           Log Measured From
 DMF .           LSD           Driller Measured From
 PD  .          None           Permanent Data
 PDEV.          None           Elevation Permanent Data
 EKB .M         None           Elevation Kelly Bushing
 ELEV.DF        None           Elevation DF
 EGL .M         None           Elevation Ground Level
 DRDP.         1990'           Driller's Depth
 CASD.         0               Casing Diameter
 CASB.          None           Casing Bottom
 CASX.          None           Casing Type
 CAST.         0               Casing Thickness
 TNOC.          None           Time Circulation Stopped
 LOGU.       WRRD              Logging Unit
 RECB.           Everett       Recorded By
 OSR1.       Pimente           Other Services
 OSR2.       mud vis           Other Services
 OSR3.           =62           Other Services
 BS  .MM           6           Bit Size
 MST .                         Mean Surface Temperature
 TGRD.        0                Temperature Gradiant
 MAGN.             0           Magnetic Declination
 MDEN.      2.71               Density Matrix
 MATR.       Dolomite          Neutron Matrix
 DTMT.            54           Delta T Matrix
 DTFL.                         Delta T Fluid
 MUDS.               0         Mud Sample Source
 MRS .           0             Mud Resistivity
 MTP .           0             Mud Temperature
 MFRS.                         Resistivity Mud Filtrate
 MFTP.                         Temperature Mud Filtrate
 MCRS.         0               Resistivity Mud Cake
 MCTP.                         Temperature Mud Cake
 FTYP.             0           Fluid Type
 FD  .K/M3                     Fluid Density
 DFV .S                        Fluid Viscosity
 FPH .                         Fuild PH
 ELCO.        2500             Electron Cutoff
# -------------------------- 
~A DEPTH  CALIPER TENSION  TIME    
# ...
 629.700   9.1        0.0  0.20000 
 629.800   9.1        0.0  0.20000 
 629.900   9.1        0.9  0.10000 
 630.000   9.1        0.9  0.20000 
 630.100   9.1        0.9  0.20000 
 630.200   9.1        1.1  0.20000 
 630.300   9.1        1.1  0.10000 
 630.400   9.1        1.8  0.20000 
 630.500   9.1        0.9  0.20000 
 630.600   9.1        0.9  0.10000 
 630.700   9.1        1.2  0.20000 
 630.800   9.1        1.0  0.20000 
 630.900   9.1        1.0  0.20000 
 631.000   9.1        0.3  0.10000 
 631.100   9.1        0.3  0.20000 
 631.200   9.1        0.0  0.20000 
 631.300   9.1        0.0  0.20000 
 631.400   9.1        0.0  0.10000 
 631.500   9.1        0.0  0.20000 
 631.600   9.1        0.4  0.20000 
 631.700   9.1        0.4  0.20000 
 631.800   9.1        0.4  0.10000 
 631.900   9.1        0.8  0.20000 
 632.000   9.1        1.7  0.20000 
 632.100   9.1        1.7  0.10000 
 632.200   9.1        1.3  0.21000 
 632.300   9.1        1.8  0.22000 
 632.400   9.1        1.8  0.22000 
 632.500   9.1        1.4  0.11000 
 632.600   9.1        0.5  0.22000 
 632.700   9.1        0.5  0.11000 
 632.800   9.1        0.5  0.21000 
 632.900   9.1        0.0  0.10000 
 633.000   9.2        0.0  0.20000 
 633.100   9.2        0.0  0.20000 
 633.200   9.2        0.0  0.20000 
 633.300   9.2        0.0  0.10000 
 633.400   9.2        0.0  0.20000 
 633.500   9.2        0.0  0.22000 
 633.600   9.2        0.0  0.22000 
 633.700   9.2        0.8  0.11000 
 633.800   9.2        0.8  0.22000 
 633.900   9.2        1.4  0.22000 
 634.000   9.2        1.4  0.00000 
 634.100   9.2        1.4  0.21000 
 634.200   9.2        1.4  0.20000 
 634.300   9.2        1.4  0.20000 
 634.400   9.2        0.6  0.10000 
 634.500   9.2        0.6  0.20000 
 634.600   9.2        0.0  0.20000 
 634.700   9.2        0.0  0.20000 
 634.800   9.2        0.0  0.10000 
 634.900   9.2        0.0  0.20000 
 635.000   9.2        0.0  0.20000 
 635.100   9.2        0.0  0.20000 
 635.200   9.2        0.0  0.10000 
 635.300   9.2        0.0  0.20000 
 635.400   9.2        0.0  0.20000 
 635.500   9.2        0.0  0.10000 
 635.600   9.1        0.0  0.20000 
 635.700   9.0        0.0  0.20000 
 635.800   9.0        0.0  0.20000 
 635.900   8.8        0.0  0.10000 
 636.000   8.7        0.0  0.20000 
 636.100   8.7        0.0  0.20000 
 636.200   8.8        0.0  0.20000 
 636.300   8.8        0.0  0.10000 
 636.400   8.8        0.0  0.20000 
 636.500   8.8        0.0  0.20000 
 636.600   8.8        0.0  0.20000 
 636.700   8.9        0.0  0.10000 
 636.800   9.0        0.0  0.20000 
 636.900   9.0        0.0  0.20000 
 637.000   9.1        0.0  0.20000 
 637.100   9.1        0.0  0.10000 
 637.200   9.2        0.0  0.20000 
 637.300   9.2        0.0  0.20000 
 637.400   9.3        0.0  0.20000 
 637.500   9.3        0.4  0.10000 
 637.600   9.3        0.4  0.20000 
 637.700   9.3        0.4  0.20000 
 637.800   9.3        0.4  0.10000 
 637.900   9.3        0.4  0.20000 
 638.000   9.2        0.4  0.20000 
 638.100   9.2        0.0  0.20000 
 638.200   9.3        0.0  0.10000 
 638.300   9.3        0.0  0.20000 
 638.400   9.3        0.0  0.20000 
 638.500   9.3        0.0  0.20000 
 638.600   9.4        0.0  0.10000 
 638.700   9.4        0.0  0.20000 
 638.800   9.4        0.0  0.20000 
 638.900   9.4        0.0  0.20000 
 639.000   9.4        0.0  0.10000 
 639.100   9.4        0.0  0.20000 
 639.200   9.4        0.0  0.20000 
 639.300   9.4        0.0  0.10000 
 639.400   9.4        0.0  0.20000 
 639.500   9.4        0.2  0.20000 
 639.600   9.4        0.2  0.20000 
 639.700   9.4        0.2  0.10000 
 639.800   9.4        0.2  0.20000 
 639.900   9.4        0.6  0.20000 
 640.000   9.4        0.6  0.20000 
 640.100   9.4        0.4  0.20000 
 640.200   9.4        0.9  0.10000 
 640.300   9.4        0.9  0.20000 
 640.400   9.4        1.1  0.21000 
 640.500   9.4        0.7  0.22000 
 640.600   9.4        0.7  0.11000 
 640.700   9.4        1.4  0.22000 
 640.800   9.4        1.0  0.22000 
 640.900   9.4        1.0  0.11000 
 641.000   9.4        0.8  0.21000 
 641.100   9.4        1.0  0.10000 
 641.200   9.4        1.0  0.20000 
 641.300   9.4        0.3  0.20000 
 641.400   9.4        0.2  0.20000 
 641.500   9.4        0.2  0.20000 
 641.600   9.4        0.2  0.10000 
 641.700   9.4        0.0  0.20000 
 641.800   9.3        0.6  0.20000 
 641.900   9.3        0.6  0.20000 
 642.000   9.3        1.6  0.10000 
 642.100   9.2        1.8  0.20000 
 642.200   9.2        1.8  0.20000 
 642.300   9.2        2.6  0.21000 
 642.400   9.2        2.0  0.22000 
 642.500   9.3        2.0  0.11000 
 642.600   9.3        1.0  0.22000 
 642.700   9.3        1.7  0.22000 
 642.800   9.3        1.7  0.11000 
 642.900   9.3        0.9  0.21000 
 643.000   9.3        1.6  0.10000 
 643.100   9.3        1.6  0.20000 
 643.200   9.3        2.6  0.20000 
 643.300   9.3        1.7  0.20000 
 643.400   9.4        1.7  0.20000 
 643.500   9.4        2.3  0.10000 
 643.600   9.4        2.2  0.22000 
 643.700   9.4        1.2  0.22000 
 643.800   9.4        1.2  0.22000 
 643.900   9.4        1.5  0.22000 
 644.000   9.4        0.9  0.11000 
 644.100   9.4        0.9  0.11000 
 644.200   9.4        0.3  0.20000 
 644.300   9.4        0.3  0.20000 
 644.400   9.4        0.3  0.10000 
 644.500   9.4        0.0  0.20000 
 644.600   9.4        0.0  0.20000 
 644.700   9.4        0.0  0.20000 
 644.800   9.4        0.0  0.22000 
 644.900   9.5        0.0  0.11000 
 645.000   9.5        0.0  0.22000 
 645.100   9.5        0.0  0.22000 
 645.200   9.5        0.0  0.22000 
 645.300   9.5        0.0  0.11000 
 645.400   9.5        0.0  0.10000 
 645.500   9.5        0.0  0.20000 
 645.600   9.5        0.0  0.20000 
 645.700   9.5        0.0  0.20000 
 645.800   9.5        0.0  0.20000 
 645.900   9.5        0.0  0.10000 
 646.000   9.5        0.0  0.21000 
 646.100   9.5        0.0  0.22000 
 646.200   9.5        0.0  0.22000 
 646.300   9.5        0.5  0.11000 
 646.400   9.4        0.5  0.22000 
 646.500   9.4        0.5  0.11000 
 646.600   9.4        0.5  0.21000 
 646.700   9.4        0.5  0.20000 
 646.800   9.4        0.5  0.10000 
 646.900   9.4        0.0  0.20000 
 647.000   9.4        0.0  0.20000 
 647.100   9.4        0.0  0.20000 
 647.200   9.4        0.0  0.20000 
 647.300   9.4        0.0  0.10000 
 647.400   9.4        0.0  0.20000 
 647.500   9.4        0.0  0.20000 
 647.600   9.4        0.0  0.20000 
 647.700   9.4        0.0  0.10000 
 647.800   9.4        0.0  0.20000 
 647.900   9.4        0.0  0.20000 
 648.000   9.4        0.0  0.20000 
 648.100   9.4        0.0  0.20000 
 648.200   9.4        0.0  0.10000 
 648.300   9.4        0.0  0.20000 
 648.400   9.4        0.0  0.20000 
 648.500   9.4        0.0  0.22000 
 648.600   9.4        0.4  0.22000 
 648.700   9.4        0.4  0.11000 
 648.800   9.4        0.4  0.22000 
 648.900   9.4        0.4  0.22000 
 649.000   9.4        0.4  0.11000 
 649.100   9.4        0.4  0.10000 
 649.200   9.4        0.0  0.20000 
 649.300   9.4        0.0  0.20000 
 649.400   9.4        0.0  0.20000 
 649.500   9.4        0.0  0.20000 
 649.600   9.4        0.0  0.10000 
 649.700   9.4        0.0  0.21000 
 649.800   9.4        0.0  0.22000 
 649.900   9.4        0.0  0.22000 
 650.000   9.4        0.0  0.22000 
 650.100   9.4        0.0  0.11000 
 650.200   9.4        0.0  0.11000 
 650.300   9.4        0.0  0.21000 
 650.400   9.4        0.0  0.20000 
 650.500   9.4        0.0  0.10000 
 650.600   9.4        0.0  0.20000 
 650.700   9.4        0.0  0.20000 
 650.800   9.4        0.0  0.20000 
 650.900   9.4        0.0  0.20000 
 651.000   9.4        0.0  0.10000 
 651.100   9.4        0.0  0.20000 
 651.200   9.4        0.0  0.20000 
 651.300   9.4        0.0  0.20000 
 651.400   9.4        0.0  0.20000 
 651.500   9.4        0.0  0.10000 
 651.600   9.4        0.1  0.20000 
 651.700   9.4        0.1  0.20000 
 651.800   9.4        0.1  0.20000 
 651.900   9.4        0.1  0.20000 
