~Version Information
 VERS.                2.0:  CWLS LOG ASCII STANDARD -VERSION 2.0
 WRAP.                 NO:  ONE LINE PER DEPTH STEP
~WELL INFORMATION BLOCK
#MNEM.UNIT       DATA		            DESCRIPTION OF MNEMONIC
#---------    -------------            ------------------------
 STRT.FT  41.500                         :START DEPTH
 STOP.FT  1871.500                       :STOP DEPTH
 STEP.FT  0.100                          :STEP    UP_HOLE  
 NULL.    0                              :NULL VALUE
 COMP.                            USGS   :COMPANY
 WELL.                      MCWD-DMW #1  :WELL
 FLD .                           Marina  :FIELD
 LOC .    None  None  None               :LOCATION
 CNTY.                         Monterey  :COUNTY
 STAT.             California            :STATE
 SRVC.    Western Reg                    :SERVICE COMPANY
 DATE.   05/27/00                        :LOG DATE
 UWI .                       	         :UNIQUE WELL ID
 LIC .                                   :LICENSE NUMBER
~Curve Information Block
#MNEM.UNIT      API CODE     Curve Description
#---------    -------------  ------------------------
 DEPT     .FT        00 001 00 00          :  1  DEPTH   
 GAM(NAT) .API-GR    00 310 00 00          :  2             GAM(NAT)
 COND     .MMHO/M    00 000 00 00          :  3                 COND
 RES      .OHM-M     00 000 00 00          :  4                  RES
 TEMP     .DEG F     00 660 00 00          :  5                 TEMP
 AP-COND  .MMHO/M    00 000 00 00          :  6              AP-COND
 TEMP     .CPS       00 660 00 00          :  7                 TEMP
 AP-COND  .CPS       00 000 00 00          :  8              AP-COND
 TENSION  .POUNDS    00 000 00 00          :  9              TENSION
 TIME     .MINUTES   00 000 00 00          : 10                 TIME
~Parameter Information Block
#MNEM.UNIT   Information     Description
#---------- ---------------  ------------------------
~Other Information
#MNEM.UNIT  Information      Description
#---------- ---------------  ------------------------
 FILE.      ORIGINAL           File Type
 FIID.      9511A              File Type Identifier
 VERS.      1.0                System Version
 SER .      1                  System Serial Number
 TRUK.      0.5                Truck Calibration Number
 TOOL.         770             Tool Serial Number
 TIME.      05:18:             Time
 LAT .          None           Latitude
 LON .          None           Longitude
 LMF .           LSD           Log Measured From
 DMF .           LSD           Driller Measured From
 PD  .          None           Permanent Data
 PDEV.          None           Elevation Permanent Data
 EKB .M         None           Elevation Kelly Bushing
 ELEV.DF        None           Elevation DF
 EGL .M         None           Elevation Ground Level
 DRDP.         1990'           Driller's Depth
 CASD.         0               Casing Diameter
 CASB.          None           Casing Bottom
 CASX.          None           Casing Type
 CAST.         0               Casing Thickness
 TNOC.          None           Time Circulation Stopped
 LOGU.       WRRD              Logging Unit
 RECB.           Everett       Recorded By
 OSR1.       Pimente           Other Services
 OSR2.       mud vis           Other Services
 OSR3.           =62           Other Services
 BS  .MM           6           Bit Size
 MST .                         Mean Surface Temperature
 TGRD.        0                Temperature Gradiant
 MAGN.             0           Magnetic Declination
 MDEN.      2.71               Density Matrix
 MATR.       Dolomite          Neutron Matrix
 DTMT.            54           Delta T Matrix
 DTFL.                         Delta T Fluid
 MUDS.               0         Mud Sample Source
 MRS .           0             Mud Resistivity
 MTP .           0             Mud Temperature
 MFRS.                         Resistivity Mud Filtrate
 MFTP.                         Temperature Mud Filtrate
 MCRS.         0               Resistivity Mud Cake
 MCTP.                         Temperature Mud Cake
 FTYP.             0           Fluid Type
 FD  .K/M3                     Fluid Density
 DFV .S                        Fluid Viscosity
 FPH .                         Fuild PH
 ELCO.        2500             Electron Cutoff
# -------------------------- 
~A DEPTH  GAM(NAT) COND     RES      TEMP  AP-COND  TEMP  AP-COND  TENSION  TIME    
# ...
 280.800     75.9    551.4      1.8  82.6    481.9  28665.0 112235.0     0.0  0.10000 
 280.900     45.6    554.8      1.8  82.5    484.9  28660.0 112585.0     0.0  0.20000 
 281.000     25.3    558.3      1.8  82.5    487.8  28660.0 112940.0     0.0  0.20000 
 281.100     30.4    561.4      1.8  82.6    490.5  28665.0 113250.0     0.0  0.20000 
 281.200     55.7    566.4      1.8  82.6    494.7  28665.0 113760.0     0.0  0.20000 
 281.300     45.6    569.6      1.8  82.5    497.5  28660.0 114090.0     0.0  0.20000 
 281.400     40.5    574.2      1.7  82.6    501.4  28665.0 114550.0     0.0  0.20000 
 281.500     60.8    577.2      1.7  82.5    503.9  28660.0 114855.0     0.0  0.10000 
 281.600     75.9    583.0      1.7  82.6    508.9  28665.0 115450.0     0.0  0.20000 
 281.700     50.6    588.4      1.7  82.5    513.5  28660.0 115990.0     0.0  0.20000 
 281.800     40.5    589.8      1.7  82.6    514.7  28665.0 116140.0     0.0  0.20000 
 281.900     81.0    594.1      1.7  82.6    518.4  28665.0 116575.0     0.0  0.20000 
 282.000     81.0    599.2      1.7  82.5    522.7  28660.0 117085.0     0.0  0.20000 
 282.100     20.3    602.7      1.7  82.6    525.7  28665.0 117440.0     0.0  0.20000 
 282.200     75.9    607.9      1.6  82.6    530.1  28665.0 117970.0     0.0  0.20000 
 282.300     20.3    610.8      1.6  82.5    532.6  28660.0 118265.0     0.0  0.20000 
 282.400     35.4    615.1      1.6  82.6    536.3  28665.0 118700.0     0.0  0.10000 
 282.500     25.3    618.1      1.6  82.6    538.9  28665.0 119010.0     0.0  0.20000 
 282.600     55.7    619.6      1.6  82.5    540.1  28660.0 119160.0     0.0  0.20000 
 282.700    101.3    623.6      1.6  82.5    543.5  28660.0 119560.0     0.0  0.20000 
 282.800     55.7    627.3      1.6  82.6    546.7  28665.0 119940.0     0.0  0.20000 
 282.900     60.8    628.4      1.6  82.6    547.6  28665.0 120045.0     0.0  0.20000 
 283.000     40.5    632.2      1.6  82.5    550.8  28660.0 120435.0     0.0  0.20000 
 283.100     35.4    635.6      1.6  82.6    553.7  28665.0 120780.0     0.0  0.20000 
 283.200     55.7    635.0      1.6  82.6    553.2  28665.0 120715.0     0.0  0.10000 
 283.300     55.7    637.5      1.6  82.6    555.3  28665.0 120970.0     0.0  0.20000 
 283.400     50.6    636.9      1.6  82.5    554.8  28660.0 120910.0     0.0  0.20000 
 283.500     75.9    638.0      1.6  82.6    555.8  28665.0 121025.0     0.0  0.20000 
 283.600     30.4    638.9      1.6  82.6    556.5  28665.0 121110.0     0.0  0.20000 
 283.700     70.9    636.1      1.6  82.6    554.1  28665.0 120825.0     0.0  0.20000 
 283.800     60.8    638.4      1.6  82.5    556.1  28660.0 121065.0     0.0  0.20000 
 283.900     55.7    638.2      1.6  82.5    555.9  28660.0 121040.0     0.0  0.10000 
 284.000     40.5    636.4      1.6  82.6    554.4  28665.0 120860.0     0.0  0.20000 
 284.100     20.3    636.3      1.6  82.5    554.3  28660.0 120850.0     0.0  0.20000 
 284.200     45.6    632.8      1.6  82.6    551.3  28665.0 120490.0     0.0  0.20000 
 284.300     70.9    632.9      1.6  82.6    551.4  28665.0 120505.0     0.0  0.20000 
 284.400     65.8    629.2      1.6  82.6    548.3  28665.0 120135.0     0.2  0.20000 
 284.500     50.6    625.7      1.6  82.6    545.3  28665.0 119780.0     0.2  0.20000 
 284.600     45.6    622.8      1.6  82.6    542.9  28665.0 119485.0     0.2  0.20000 
 284.700     35.4    622.5      1.6  82.6    542.6  28665.0 119450.0     0.2  0.10000 
 284.800     45.6    618.8      1.6  82.6    539.4  28665.0 119075.0     0.2  0.20000 
 284.900     25.3    617.4      1.6  82.7    538.2  28670.0 118930.0     0.0  0.20000 
 285.000     35.4    610.8      1.6  82.6    532.6  28665.0 118270.0     0.0  0.20000 
 285.100     65.8    608.2      1.6  82.6    530.4  28665.0 118000.0     0.0  0.20000 
 285.200     55.7    603.5      1.7  82.6    526.4  28665.0 117530.0     0.0  0.20000 
 285.300     40.5    599.2      1.7  82.5    522.7  28660.0 117085.0     0.0  0.20000 
 285.400     45.6    594.4      1.7  82.6    518.6  28665.0 116600.0     0.0  0.20000 
 285.500     60.8    590.0      1.7  82.6    514.9  28665.0 116160.0     0.0  0.20000 
 285.600     55.7    585.2      1.7  82.6    510.8  28665.0 115670.0     0.0  0.10000 
 285.700     65.8    580.0      1.7  82.6    506.3  28665.0 115140.0     0.0  0.20000 
 285.800     55.7    576.7      1.7  82.5    503.6  28660.0 114810.0     0.0  0.20000 
 285.900     20.3    573.5      1.7  82.6    500.8  28665.0 114480.0     0.0  0.20000 
 286.000     50.6    566.9      1.8  82.6    495.2  28665.0 113815.0     0.0  0.20000 
 286.100     20.3    562.1      1.8  82.7    491.1  28670.0 113325.0     0.0  0.20000 
 286.200     15.2    557.3      1.8  82.6    487.0  28665.0 112835.0     0.0  0.20000 
 286.300     65.8    551.7      1.8  82.6    482.2  28665.0 112265.0     0.1  0.10000 
 286.400     50.6    547.3      1.8  82.6    478.4  28665.0 111815.0     0.1  0.20000 
 286.500     65.8    544.6      1.8  82.7    476.1  28670.0 111540.0     0.1  0.20000 
 286.600     65.8    538.4      1.9  82.6    470.8  28665.0 110910.0     0.1  0.20000 
 286.700     40.5    537.7      1.9  82.6    470.3  28665.0 110845.0     0.3  0.20000 
 286.800     45.6    531.3      1.9  82.7    464.8  28670.0 110190.0     0.3  0.20000 
 286.900     65.8    529.2      1.9  82.6    462.9  28665.0 109975.0     0.2  0.20000 
 287.000     91.1    525.4      1.9  82.6    459.7  28665.0 109590.0     0.2  0.20000 
 287.100     55.7    522.9      1.9  82.6    457.6  28665.0 109340.0     0.2  0.10000 
 287.200     70.9    518.5      1.9  82.6    453.8  28665.0 108890.0     0.4  0.20000 
 287.300     70.9    512.9      1.9  82.5    449.0  28660.0 108320.0     0.4  0.20000 
 287.400     45.6    511.2      2.0  82.6    447.6  28665.0 108150.0     0.4  0.20000 
 287.500     50.6    508.4      2.0  82.6    445.2  28665.0 107860.0     1.1  0.20000 
 287.600     70.9    504.7      2.0  82.6    442.0  28665.0 107485.0     1.1  0.20000 
 287.700     60.8    500.7      2.0  82.7    438.6  28670.0 107075.0     0.7  0.20000 
 287.800     50.6    493.8      2.0  82.6    432.7  28665.0 106380.0     0.7  0.20000 
 287.900     65.8    488.0      2.0  82.6    427.7  28665.0 105785.0     0.7  0.10000 
 288.000     60.8    482.8      2.1  82.6    423.2  28665.0 105250.0     0.3  0.20000 
 288.100     67.5    475.5      2.1  82.7    417.0  28670.0 104510.0     0.3  0.20000 
 288.200     45.6    474.0      2.1  82.6    415.8  28665.0 104360.0     0.3  0.20000 
 288.300     60.8    463.8      2.2  82.6    407.0  28665.0 103315.0     0.4  0.20000 
 288.400     35.4    458.6      2.2  82.6    402.5  28665.0 102785.0     0.4  0.20000 
 288.500     60.8    453.4      2.2  82.6    398.1  28665.0 102255.0     0.4  0.20000 
 288.600     55.7    447.3      2.2  82.7    392.9  28670.0 101635.0     0.1  0.20000 
 288.700     50.6    439.8      2.3  82.6    386.4  28665.0 100865.0     0.1  0.10000 
 288.800     20.3    433.2      2.3  82.7    380.7  28670.0 100190.0     0.0  0.20000 
 288.900     70.9    430.4      2.3  82.7    378.4  28670.0 99910.0      0.0  0.20000 
 289.000     65.8    426.8      2.3  82.6    375.2  28665.0 99535.0      0.0  0.20000 
 289.100     55.7    420.2      2.4  82.7    369.6  28670.0 98860.0      0.0  0.20000 
 289.200     86.1    416.3      2.4  82.6    366.3  28665.0 98470.0      0.0  0.20000 
 289.300     30.4    411.5      2.4  82.7    362.1  28670.0 97970.0      0.0  0.20000 
 289.400     40.5    407.2      2.5  82.6    358.4  28665.0 97535.0      0.0  0.20000 
 289.500     55.7    403.8      2.5  82.7    355.5  28670.0 97190.0      0.0  0.10000 
 289.600     50.6    400.1      2.5  82.6    352.3  28665.0 96805.0      0.0  0.20000 
 289.700     50.6    399.6      2.5  82.5    351.9  28660.0 96760.0      0.0  0.20000 
 289.800     70.9    395.2      2.5  82.7    348.0  28670.0 96300.0      0.0  0.20000 
 289.900     60.8    396.6      2.5  82.7    349.3  28670.0 96450.0      0.0  0.20000 
