~Version Information
 VERS.                2.0:  CWLS LOG ASCII STANDARD -VERSION 2.0
 WRAP.                 NO:  ONE LINE PER DEPTH STEP
~WELL INFORMATION BLOCK
#MNEM.UNIT       DATA		            DESCRIPTION OF MNEMONIC
#---------    -------------            ------------------------
 STRT.FT  41.500                         :START DEPTH
 STOP.FT  1871.500                       :STOP DEPTH
 STEP.FT  0.100                          :STEP    UP_HOLE  
 NULL.    0                              :NULL VALUE
 COMP.                            USGS   :COMPANY
 WELL.                      MCWD-DMW #1  :WELL
 FLD .                           Marina  :FIELD
 LOC .    None  None  None               :LOCATION
 CNTY.                         Monterey  :COUNTY
 STAT.             California            :STATE
 SRVC.    Western Reg                    :SERVICE COMPANY
 DATE.   05/27/00                        :LOG DATE
 UWI .                       	         :UNIQUE WELL ID
 LIC .                                   :LICENSE NUMBER
~Curve Information Block
#MNEM.UNIT      API CODE     Curve Description
#---------    -------------  ------------------------
 DEPT     .FT        00 001 00 00          :  1  DEPTH   
 GAM(NAT) .API-GR    00 310 00 00          :  2             GAM(NAT)
 COND     .MMHO/M    00 000 00 00          :  3                 COND
 RES      .OHM-M     00 000 00 00          :  4                  RES
 TEMP     .DEG F     00 660 00 00          :  5                 TEMP
 AP-COND  .MMHO/M    00 000 00 00          :  6              AP-COND
 TEMP     .CPS       00 660 00 00          :  7                 TEMP
 AP-COND  .CPS       00 000 00 00          :  8              AP-COND
 TENSION  .POUNDS    00 000 00 00          :  9              TENSION
 TIME     .MINUTES   00 000 00 00          : 10                 TIME
~Parameter Information Block
#MNEM.UNIT   Information     Description
#---------- ---------------  ------------------------
~Other Information
#MNEM.UNIT  Information      Description
#---------- ---------------  ------------------------
 FILE.      ORIGINAL           File Type
 FIID.      9511A              File Type Identifier
 VERS.      1.0                System Version
 SER .      1                  System Serial Number
 TRUK.      0.5                Truck Calibration Number
 TOOL.         770             Tool Serial Number
 TIME.      05:18:             Time
 LAT .          None           Latitude
 LON .          None           Longitude
 LMF .           LSD           Log Measured From
 DMF .           LSD           Driller Measured From
 PD  .          None           Permanent Data
 PDEV.          None           Elevation Permanent Data
 EKB .M         None           Elevation Kelly Bushing
 ELEV.DF        None           Elevation DF
 EGL .M         None           Elevation Ground Level
 DRDP.         1990'           Driller's Depth
 CASD.         0               Casing Diameter
 CASB.          None           Casing Bottom
 CASX.          None           Casing Type
 CAST.         0               Casing Thickness
 TNOC.          None           Time Circulation Stopped
 LOGU.       WRRD              Logging Unit
 RECB.           Everett       Recorded By
 OSR1.       Pimente           Other Services
 OSR2.       mud vis           Other Services
 OSR3.           =62           Other Services
 BS  .MM           6           Bit Size
 MST .                         Mean Surface Temperature
 TGRD.        0                Temperature Gradiant
 MAGN.             0           Magnetic Declination
 MDEN.      2.71               Density Matrix
 MATR.       Dolomite          Neutron Matrix
 DTMT.            54           Delta T Matrix
 DTFL.                         Delta T Fluid
 MUDS.               0         Mud Sample Source
 MRS .           0             Mud Resistivity
 MTP .           0             Mud Temperature
 MFRS.                         Resistivity Mud Filtrate
 MFTP.                         Temperature Mud Filtrate
 MCRS.         0               Resistivity Mud Cake
 MCTP.                         Temperature Mud Cake
 FTYP.             0           Fluid Type
 FD  .K/M3                     Fluid Density
 DFV .S                        Fluid Viscosity
 FPH .                         Fuild PH
 ELCO.        2500             Electron Cutoff
# -------------------------- 
~A DEPTH  GAM(NAT) COND     RES      TEMP  AP-COND  TEMP  AP-COND  TENSION  TIME    
# ...
1136.400     45.6    100.1     10.0  90.5     91.0  29075.0 65635.0      0.0  0.11000 
1136.500     60.8     99.0     10.1  90.4     90.1  29070.0 65520.0      0.0  0.22000 
1136.600     30.4     97.9     10.2  90.6     89.1  29080.0 65400.0      0.0  0.22000 
1136.700     45.6     98.5     10.1  90.4     89.6  29070.0 65465.0      0.0  0.22000 
1136.800     40.5     97.4     10.3  90.5     88.6  29075.0 65350.0      0.0  0.11000 
1136.900     70.9     95.2     10.5  90.4     86.6  29070.0 65110.0      0.0  0.21000 
1137.000     81.0     97.7     10.2  90.4     88.9  29070.0 65380.0      0.0  0.20000 
1137.100     15.2     96.9     10.3  90.5     88.2  29073.3 65296.7      0.0  0.20000 
1137.200     65.8     95.7     10.4  90.5     87.1  29075.0 65165.0      0.2  0.20000 
1137.300     30.4     96.1     10.4  90.4     87.5  29070.0 65210.0      0.2  0.20000 
1137.400     55.7     94.9     10.5  90.5     86.4  29075.0 65085.0      0.2  0.10000 
1137.500     60.8     94.2     10.6  90.4     85.8  29070.0 65010.0      0.2  0.20000 
1137.600     40.5     94.6     10.6  90.4     86.1  29070.0 65050.0      0.2  0.20000 
1137.700     15.2     91.5     10.9  90.5     83.3  29075.0 64720.0      0.0  0.20000 
1137.800     50.6     91.6     10.9  90.5     83.5  29075.0 64735.0      0.0  0.20000 
1137.900     30.4     91.4     10.9  90.4     83.3  29070.0 64710.0      0.0  0.20000 
1138.000     35.4     90.2     11.1  90.5     82.2  29075.0 64580.0      0.0  0.20000 
1138.100     40.5     91.1     11.0  90.5     83.0  29075.0 64675.0      0.0  0.20000 
1138.200     30.4     89.3     11.2  90.5     81.4  29075.0 64490.0      0.0  0.20000 
1138.300     45.6     87.7     11.4  90.5     79.9  29075.0 64315.0      0.0  0.10000 
1138.400     50.6     87.2     11.5  90.5     79.5  29075.0 64260.0      0.0  0.20000 
1138.500     45.6     85.7     11.7  90.4     78.2  29070.0 64110.0      0.0  0.20000 
1138.600     60.8     87.1     11.5  90.5     79.4  29075.0 64250.0      0.0  0.20000 
1138.700     50.6     87.9     11.4  90.5     80.2  29075.0 64340.0      0.0  0.20000 
1138.800     30.4     86.9     11.5  90.5     79.2  29075.0 64230.0      0.0  0.20000 
1138.900     50.6     87.5     11.4  90.5     79.8  29075.0 64300.0      0.0  0.20000 
1139.000     70.9     87.2     11.5  90.5     79.5  29075.0 64265.0      0.0  0.20000 
1139.100     40.5     89.0     11.2  90.5     81.2  29075.0 64460.0      0.3  0.20000 
1139.200     25.3     90.9     11.0  90.5     82.8  29075.0 64655.0      0.4  0.10000 
1139.300     60.8     93.3     10.7  90.5     84.9  29075.0 64910.0      0.4  0.20000 
1139.400     35.4     93.3     10.7  90.4     84.9  29070.0 64910.0      0.4  0.20000 
1139.500     35.4     97.8     10.2  90.5     88.9  29075.0 65385.0      0.4  0.20000 
1139.600     35.4    100.3     10.0  90.5     91.2  29075.0 65650.0      0.4  0.20000 
1139.700     50.6    103.3      9.7  90.5     93.8  29075.0 65965.0      0.0  0.20000 
1139.800     30.4    106.0      9.4  90.5     96.2  29075.0 66255.0      0.0  0.20000 
1139.900     70.9    105.2      9.5  90.5     95.5  29075.0 66170.0      0.6  0.20000 
1140.000     30.4    107.5      9.3  90.5     97.5  29075.0 66410.0      0.6  0.20000 
1140.100     40.5    109.3      9.1  90.5     99.2  29075.0 66605.0      1.4  0.20000 
1140.200      5.1    112.3      8.9  90.5    101.8  29075.0 66920.0      1.4  0.10000 
1140.300     55.7    114.2      8.8  90.5    103.5  29075.0 67120.0      2.0  0.20000 
1140.400     50.6    111.4      9.0  90.4    101.0  29070.0 66820.0      1.4  0.20000 
1140.500     55.7    113.8      8.8  90.6    103.2  29080.0 67080.0      2.0  0.20000 
1140.600     35.4    115.5      8.7  90.5    104.6  29075.0 67255.0      1.2  0.20000 
1140.700     30.4    114.4      8.7  90.5    103.7  29075.0 67145.0      2.0  0.20000 
1140.800     40.5    115.7      8.6  90.5    104.8  29075.0 67275.0      1.4  0.20000 
1140.900     35.4    115.5      8.7  90.5    104.6  29075.0 67255.0      3.0  0.20000 
1141.000     50.6    116.1      8.6  90.5    105.2  29075.0 67320.0      2.4  0.20000 
1141.100     50.6    117.3      8.5  90.6    106.3  29080.0 67445.0      3.3  0.20000 
1141.200     40.5    116.2      8.6  90.5    105.3  29075.0 67330.0      2.5  0.10000 
1141.300     30.4    116.2      8.6  90.5    105.3  29075.0 67330.0      3.3  0.20000 
1141.400     30.4    117.0      8.6  90.4    105.9  29070.0 67410.0      1.7  0.20000 
1141.500     30.4    119.0      8.4  90.5    107.7  29075.0 67620.0      1.7  0.20000 
1141.600     65.8    115.6      8.7  90.5    104.7  29075.0 67265.0      2.6  0.20000 
1141.700     35.4    114.1      8.8  90.5    103.4  29075.0 67110.0      1.7  0.20000 
1141.800     81.0    115.8      8.6  90.5    104.9  29075.0 67285.0      2.2  0.20000 
1141.900     60.8    114.8      8.7  90.6    104.0  29080.0 67180.0      1.4  0.20000 
1142.000     30.4    114.6      8.7  90.5    103.9  29075.0 67165.0      1.4  0.20000 
1142.100     35.4    114.1      8.8  90.5    103.4  29075.0 67105.0      0.5  0.10000 
1142.200     35.4    114.3      8.8  90.5    103.6  29075.0 67125.0      0.5  0.20000 
1142.300     55.7    112.0      8.9  90.4    101.6  29070.0 66890.0      0.0  0.20000 
1142.400     35.4    113.9      8.8  90.6    103.2  29080.0 67085.0      0.2  0.20000 
1142.500     60.8    112.3      8.9  90.5    101.8  29075.0 66915.0      0.2  0.20000 
1142.600     50.6    112.7      8.9  90.4    102.2  29070.0 66965.0      0.2  0.20000 
1142.700     40.5    113.2      8.8  90.5    102.6  29075.0 67015.0      0.2  0.20000 
1142.800     35.4    111.8      8.9  90.5    101.4  29075.0 66865.0      0.3  0.20000 
1142.900     35.4    110.2      9.1  90.4    100.0  29070.0 66700.0      0.1  0.20000 
1143.000     50.6    111.4      9.0  90.5    101.0  29075.0 66825.0      0.1  0.10000 
1143.100     70.9    111.8      8.9  90.6    101.3  29080.0 66860.0      0.1  0.20000 
1143.200     65.8    110.8      9.0  90.4    100.5  29070.0 66760.0      0.8  0.20000 
1143.300     55.7    110.7      9.0  90.5    100.4  29075.0 66745.0      0.8  0.20000 
1143.400     15.2    108.8      9.2  90.5     98.7  29075.0 66545.0      0.7  0.20000 
1143.500     40.5    110.7      9.0  90.6    100.4  29080.0 66745.0      2.4  0.21000 
1143.600     45.6    108.3      9.2  90.5     98.3  29075.0 66495.0      2.4  0.22000 
1143.700     20.3    108.1      9.2  90.5     98.1  29075.0 66480.0      3.7  0.22000 
1143.800     35.4    110.9      9.0  90.5    100.6  29075.0 66775.0      4.2  0.22000 
1143.900     40.5    108.6      9.2  90.5     98.6  29075.0 66530.0      4.2  0.22000 
1144.000     55.7    109.1      9.2  90.6     99.0  29080.0 66585.0      3.1  0.11000 
1144.100     65.8    109.6      9.1  90.5     99.4  29075.0 66630.0      3.1  0.10000 
1144.200     55.7    109.0      9.2  90.6     98.9  29080.0 66570.0      2.2  0.20000 
1144.300     91.1    108.4      9.2  90.6     98.4  29080.0 66510.0      2.2  0.20000 
1144.400     45.6    107.0      9.3  90.5     97.1  29075.0 66355.0      1.0  0.20000 
1144.500     70.9    106.5      9.4  90.6     96.7  29080.0 66305.0      1.7  0.20000 
1144.600     50.6    106.0      9.4  90.5     96.2  29075.0 66250.0      1.1  0.20000 
1144.700     30.4    105.5      9.5  90.6     95.8  29080.0 66200.0      1.7  0.20000 
1144.800     25.3    105.7      9.5  90.5     95.9  29075.0 66220.0      1.3  0.20000 
1144.900     50.6    105.6      9.5  90.6     95.9  29080.0 66210.0      1.4  0.20000 
1145.000     81.0    105.5      9.5  90.5     95.8  29075.0 66200.0      0.7  0.10000 
1145.100     70.9    104.9      9.5  90.6     95.2  29080.0 66135.0      0.7  0.20000 
1145.200     55.7    105.1      9.5  90.6     95.5  29080.0 66160.0      0.1  0.20000 
1145.300     65.8    103.1      9.7  90.5     93.7  29075.0 65950.0      0.1  0.20000 
1145.400     35.4    103.9      9.6  90.6     94.4  29080.0 66035.0      0.1  0.20000 
1145.500     40.5    104.4      9.6  90.5     94.8  29075.0 66085.0      0.0  0.20000 
