~Version Information
 VERS.                2.0:  CWLS LOG ASCII STANDARD -VERSION 2.0
 WRAP.                 NO:  ONE LINE PER DEPTH STEP
~WELL INFORMATION BLOCK
#MNEM.UNIT       DATA		            DESCRIPTION OF MNEMONIC
#---------    -------------            ------------------------
 STRT.FT  1.400                          :START DEPTH
 STOP.FT  1872.000                       :STOP DEPTH
 STEP.FT  0.100                          :STEP    UP_HOLE  
 NULL.    0                              :NULL VALUE
 COMP.                            USGS   :COMPANY
 WELL.                      MCWD-DMW #1  :WELL
 FLD .                           Marina  :FIELD
 LOC .    None  None  None               :LOCATION
 CNTY.                         Monterey  :COUNTY
 STAT.             California            :STATE
 SRVC.    Western Reg                    :SERVICE COMPANY
 DATE.   05/27/00                        :LOG DATE
 UWI .                       	         :UNIQUE WELL ID
 LIC .                                   :LICENSE NUMBER
~Curve Information Block
#MNEM.UNIT      API CODE     Curve Description
#---------    -------------  ------------------------
 DEPT     .FT        00 001 00 00          :  1  DEPTH   
 TIME(N)  .USEC      00 000 00 00          :  2              TIME(N)
 TIME(F)  .USEC      00 000 00 00          :  3              TIME(F)
 DELTAT   .USEC/FT   00 522 00 00          :  4               DELTAT
 AMP(N)   .MV        00 000 00 00          :  5               AMP(N)
 AMP(F)   .MV        00 000 00 00          :  6               AMP(F)
 XTR PWR  .PERCENT   00 000 00 00          :  7              XTR PWR
 POR(SON) .PERCENT   00 890 00 00          :  8             POR(SON)
 BHC-DELT .USEC/FT   00 520 00 00          :  9             BHC-DELT
 TENSION  .POUNDS    00 000 00 00          : 10              TENSION
 TIME     .MINUTES   00 000 00 00          : 11                 TIME
~Parameter Information Block
#MNEM.UNIT   Information     Description
#---------- ---------------  ------------------------
~Other Information
#MNEM.UNIT  Information      Description
#---------- ---------------  ------------------------
 FILE.      ORIGINAL           File Type
 FIID.      9300A              File Type Identifier
 VERS.      1.0                System Version
 SER .      1                  System Serial Number
 TRUK.      0.5                Truck Calibration Number
 TOOL.         691             Tool Serial Number
 TIME.      07:18:             Time
 LAT .          None           Latitude
 LON .          None           Longitude
 LMF .           LSD           Log Measured From
 DMF .           LSD           Driller Measured From
 PD  .          None           Permanent Data
 PDEV.          None           Elevation Permanent Data
 EKB .M         None           Elevation Kelly Bushing
 ELEV.DF        None           Elevation DF
 EGL .M         None           Elevation Ground Level
 DRDP.         1990'           Driller's Depth
 CASD.         0               Casing Diameter
 CASB.          None           Casing Bottom
 CASX.          None           Casing Type
 CAST.         0               Casing Thickness
 TNOC.          None           Time Circulation Stopped
 LOGU.       WRRD              Logging Unit
 RECB.           Everett       Recorded By
 OSR1.       Pimente           Other Services
 OSR2.       mud vis           Other Services
 OSR3.           =62           Other Services
 BS  .MM           6           Bit Size
 MST .                         Mean Surface Temperature
 TGRD.        0                Temperature Gradiant
 MAGN.             0           Magnetic Declination
 MDEN.      2.71               Density Matrix
 MATR.       Dolomite          Neutron Matrix
 DTMT.            54           Delta T Matrix
 DTFL.                         Delta T Fluid
 MUDS.               0         Mud Sample Source
 MRS .           0             Mud Resistivity
 MTP .           0             Mud Temperature
 MFRS.                         Resistivity Mud Filtrate
 MFTP.                         Temperature Mud Filtrate
 MCRS.         0               Resistivity Mud Cake
 MCTP.                         Temperature Mud Cake
 FTYP.             0           Fluid Type
 FD  .K/M3                     Fluid Density
 DFV .S                        Fluid Viscosity
 FPH .                         Fuild PH
 ELCO.        2500             Electron Cutoff
# -------------------------- 
~A DEPTH  TIME(N) TIME(F) DELTAT AMP(N)   AMP(F)   XTR PWR POR(SON) BHC-DELT TENSION  TIME    
# ...
 247.900   412     682    270.4   2357.0   1990.5  100.0   51.0      284         1.8  0.10000 
 248.000   413     592    179.6   2771.0    764.0  100.0   47.3      217         1.8  0.20000 
 248.100   413     706    292.5   3172.0   1767.0  100.0   50.0      261         1.8  0.20000 
 248.200   414     656    242.4   3659.0   1357.5  100.0   48.5      235         2.0  0.20000 
 248.300   414     539    124.8   3882.0    864.0  100.0   42.1      163         2.0  0.10000 
 248.400   414     531    116.5   4152.0   1089.0  100.0   41.6      159         2.0  0.20000 
 248.500   414     555    140.9   4082.5   1101.0  100.0   43.0      170         2.8  0.20000 
 248.600   414     575    160.8   3946.5   1085.0  100.0   44.9      188         2.8  0.20000 
 248.700   414     628    213.9   3710.5   1004.0  100.0   48.9      240         3.6  0.10000 
 248.800   414     650    235.3   3548.0    988.0  100.0   49.6      254         2.6  0.20000 
 248.900   415     570    155.0   3331.5    943.0  100.0   46.4      205         2.8  0.20000 
 249.000   414     561    146.8   3186.0   1099.0  100.0   45.5      194         2.8  0.10000 
 249.100   413     521    107.4   3006.0    863.0  100.0   41.8      161         1.4  0.22000 
 249.200   413     520    106.5   2951.0    989.5  100.0   41.3      157         0.6  0.22000 
 249.300   413     520    106.9   2789.5   1238.0  100.0   38.0      136         0.6  0.22000 
 249.400   413     521    107.8   2636.0   1265.0  100.0   41.5      158         0.2  0.11000 
 249.500   413     521    108.1   2620.0   1231.0  100.0   42.1      163         0.3  0.22000 
 249.600   412     521    109.2   2671.0   1241.0  100.0   41.8      160         0.3  0.11000 
 249.700   411     520    109.1   2889.5   1195.0  100.0   43.0      170         0.3  0.10000 
 249.800   411     520    109.4   2903.0   1273.0  100.0   45.3      192         1.1  0.20000 
 249.900   411     520    109.7   2763.0   1247.0  100.0   42.2      163         1.1  0.20000 
 250.000   410     520    109.3   2929.0   1196.0  100.0   41.6      159         1.1  0.20000 
 250.100   410     519    109.3   3221.5   1263.5  100.0   38.7      140         1.0  0.10000 
 250.200   409     518    109.1   3431.5   1294.0  100.0   37.4      133         1.0  0.20000 
 250.300   409     518    109.3   3548.0   1211.0  100.0   37.4      133         1.0  0.20000 
 250.400   408     518    109.6   3496.0   1158.5  100.0   44.2      181         1.0  0.20000 
 250.500   408     515    107.9   3456.0   1247.0  100.0   42.3      164         1.0  0.10000 
 250.600   407     516    109.3   3340.0    980.0  100.0   45.2      191         1.4  0.20000 
 250.700   406     515    108.9   3407.0   1122.0  100.0   44.8      187         2.8  0.20000 
 250.800   406     515    108.8   3413.0   1139.5  100.0   44.1      180         2.8  0.10000 
 250.900   405     515    110.1   3466.0   1039.0  100.0   45.5      194         3.3  0.20000 
 251.000   405     514    108.8   3369.0   1190.0  100.0   40.1      149         3.3  0.20000 
 251.100   405     514    108.8   3347.0   1039.5  100.0   46.4      205         3.3  0.20000 
 251.200   405     514    108.7   3417.5   1079.5  100.0   44.1      180         3.9  0.10000 
 251.300   405     513    108.0   3251.0   1137.0  100.0   34.8      121         2.6  0.20000 
 251.400   406     515    109.6   3330.0   1088.5  100.0   34.0      117         2.4  0.20000 
 251.500   406     513    107.8   3451.5   1269.0  100.0   36.5      128         2.4  0.10000 
 251.600   405     513    107.6   3765.5   1306.5  100.0   38.3      138         1.6  0.21000 
 251.700   405     512    107.1   3768.0   1326.0  100.0   42.1      163         1.7  0.22000 
 251.800   405     513    107.6   3682.0   1406.0  100.0   43.4      174         1.7  0.22000 
 251.900   405     512    106.8   3463.0   1346.0  100.0   37.3      132         1.4  0.11000 
 252.000   405     512    106.8   3280.0   1422.0  100.0   36.3      127         1.1  0.22000 
 252.100   405     511    106.7   3228.0   1440.5  100.0   31.2      107         1.1  0.11000 
 252.200   405     510    105.4   2881.5   1274.5  100.0   30.8      106         1.1  0.11000 
 252.300   405     512    106.8   2428.0   1201.5  100.0   31.0      106         0.0  0.20000 
 252.400   405     511    106.4   2282.0   1125.0  100.0   31.0      106         0.0  0.20000 
 252.500   404     511    106.4   2212.0   1049.5  100.0   31.0      106         0.0  0.20000 
 252.600   405     520    115.0   2133.5   1122.0  100.0   32.3      111         0.0  0.10000 
 252.700   405     512    107.0   2086.5    804.0  100.0   31.1      107         0.0  0.20000 
 252.800   406     521    115.4   2046.0    909.0  100.0   32.2      111         0.0  0.20000 
 252.900   406     530    124.9   1991.0    917.0  100.0   33.5      115         0.0  0.20000 
 253.000   406     540    134.6   2013.0    974.5  100.0   34.7      120         0.0  0.10000 
 253.100   406     512    105.9   1883.5    798.0  100.0   30.8      106         0.0  0.20000 
 253.200   406     565    159.6   1907.5    758.5  100.0   37.3      132         0.0  0.20000 
 253.300   405     558    152.6   1952.0    792.0  100.0   36.6      129         0.0  0.20000 
 253.400   405     574    169.4   1877.0    839.5  100.0   38.2      137         0.0  0.10000 
 253.500   405     635    230.5   1720.5    894.0  100.0   42.6      167         0.0  0.20000 
 253.600   405     597    191.6   1556.0    738.5  100.0   40.0      148         0.0  0.20000 
 253.700   406     623    217.0   1375.0    990.0  100.0   41.8      160         0.0  0.10000 
 253.800   407     639    232.0   1283.5   1516.0  100.0   42.7      168         0.0  0.20000 
 253.900   407     640    232.6   1360.0   1238.0  100.0   42.8      169         0.0  0.20000 
 254.000   408     608    200.1   1500.0   1167.0  100.0   40.6      152         0.0  0.20000 
 254.100   408     638    230.3   1652.5   1638.5  100.0   42.7      167         0.0  0.10000 
 254.200   407     637    229.9   1750.0   1670.0  100.0   42.7      167         0.0  0.22000 
 254.300   408     636    228.1   1693.5   1293.0  100.0   42.6      166         0.0  0.22000 
 254.400   408     636    227.7   1676.0   1038.5  100.0   42.7      167         0.0  0.22000 
 254.500   409     650    241.9   1606.5    852.5  100.0   43.4      174         0.0  0.11000 
 254.600   409     670    260.9   1348.5    849.0  100.0   44.5      184         0.0  0.22000 
 254.700   408     658    249.9   1237.0    928.5  100.0   43.9      178         0.0  0.11000 
 254.800   407     644    237.8   1245.5    962.5  100.0   43.3      172         0.0  0.10000 
 254.900   406     648    241.1   1192.0    979.0  100.0   43.4      174         0.0  0.20000 
 255.000   406     669    262.8   1072.5    871.0  100.0   44.6      185         0.5  0.20000 
 255.100   408     718    310.3    994.0    944.0  100.0   46.7      208         0.5  0.20000 
 255.200   407     758    351.5   1162.0   1653.0  100.0   48.1      228         0.5  0.10000 
 255.300   436     751    314.3   1083.0   1368.5  100.0   46.8      210         0.5  0.20000 
 255.400   473     718    245.9   1432.5    991.0  100.0   43.6      176         0.5  0.20000 
 255.500   473     756    282.4   1157.5   1236.5  100.0   45.4      194         0.5  0.10000 
 255.600   553     748    195.3   1339.0   1029.5  100.0   41.0      155         0.0  0.20000 
 255.700   519     755    236.5    872.0    953.0  100.0   43.2      172         0.0  0.20000 
 255.800   430     766    335.8    730.5   1728.5  100.0   47.9      226         0.0  0.20000 
 255.900   440     764    323.6    752.0    896.5  100.0   47.8      224         0.1  0.10000 
 256.000   407     754    347.6    753.5   1502.0  100.0   48.9      241         0.1  0.20000 
 256.100   408     752    344.5    740.0   2446.0  100.0   47.9      226         0.1  0.20000 
 256.200   407     756    348.4    850.5   1725.0  100.0   49.6      254         0.1  0.20000 
 256.300   432     808    376.3    947.0   2873.5  100.0   50.1      265         0.1  0.10000 
