~Version Information
 VERS.                2.0:  CWLS LOG ASCII STANDARD -VERSION 2.0
 WRAP.                 NO:  ONE LINE PER DEPTH STEP
~WELL INFORMATION BLOCK
#MNEM.UNIT       DATA		            DESCRIPTION OF MNEMONIC
#---------    -------------            ------------------------
 STRT.FT  5.300                          :START DEPTH
 STOP.FT  1874.500                       :STOP DEPTH
 STEP.FT  0.100                          :STEP    UP_HOLE  
 NULL.    0                              :NULL VALUE
 COMP.                            USGS   :COMPANY
 WELL.                      MCWD-DMW #1  :WELL
 FLD .                           Marina  :FIELD
 LOC .    None  None  None               :LOCATION
 CNTY.                         Monterey  :COUNTY
 STAT.             California            :STATE
 SRVC.    Western Reg                    :SERVICE COMPANY
 DATE.   05/27/00                        :LOG DATE
 UWI .                       	         :UNIQUE WELL ID
 LIC .                                   :LICENSE NUMBER
~Curve Information Block
#MNEM.UNIT      API CODE     Curve Description
#---------    -------------  ------------------------
 DEPT     .FT        00 001 00 00          :  1  DEPTH   
 CALIPER  .INCH      00 280 00 00          :  2              CALIPER
 TENSION  .POUNDS    00 000 00 00          :  3              TENSION
 TIME     .MINUTES   00 000 00 00          :  4                 TIME
~Parameter Information Block
#MNEM.UNIT   Information     Description
#---------- ---------------  ------------------------
~Other Information
#MNEM.UNIT  Information      Description
#---------- ---------------  ------------------------
 FILE.      ORIGINAL           File Type
 FIID.      9065A              File Type Identifier
 VERS.      1.0                System Version
 SER .      1                  System Serial Number
 TRUK.      0.5                Truck Calibration Number
 TOOL.         573             Tool Serial Number
 TIME.      03:05:             Time
 LAT .          None           Latitude
 LON .          None           Longitude
 LMF .           LSD           Log Measured From
 DMF .           LSD           Driller Measured From
 PD  .          None           Permanent Data
 PDEV.          None           Elevation Permanent Data
 EKB .M         None           Elevation Kelly Bushing
 ELEV.DF        None           Elevation DF
 EGL .M         None           Elevation Ground Level
 DRDP.         1990'           Driller's Depth
 CASD.         0               Casing Diameter
 CASB.          None           Casing Bottom
 CASX.          None           Casing Type
 CAST.         0               Casing Thickness
 TNOC.          None           Time Circulation Stopped
 LOGU.       WRRD              Logging Unit
 RECB.           Everett       Recorded By
 OSR1.       Pimente           Other Services
 OSR2.       mud vis           Other Services
 OSR3.           =62           Other Services
 BS  .MM           6           Bit Size
 MST .                         Mean Surface Temperature
 TGRD.        0                Temperature Gradiant
 MAGN.             0           Magnetic Declination
 MDEN.      2.71               Density Matrix
 MATR.       Dolomite          Neutron Matrix
 DTMT.            54           Delta T Matrix
 DTFL.                         Delta T Fluid
 MUDS.               0         Mud Sample Source
 MRS .           0             Mud Resistivity
 MTP .           0             Mud Temperature
 MFRS.                         Resistivity Mud Filtrate
 MFTP.                         Temperature Mud Filtrate
 MCRS.         0               Resistivity Mud Cake
 MCTP.                         Temperature Mud Cake
 FTYP.             0           Fluid Type
 FD  .K/M3                     Fluid Density
 DFV .S                        Fluid Viscosity
 FPH .                         Fuild PH
 ELCO.        2500             Electron Cutoff
# -------------------------- 
~A DEPTH  CALIPER TENSION  TIME    
# ...
1477.100   8.0        0.3  0.20000 
1477.200   8.0        0.3  0.20000 
1477.300   8.0        0.3  0.20000 
1477.400   8.0        0.1  0.10000 
1477.500   8.0        0.0  0.20000 
1477.600   8.0        0.0  0.20000 
1477.700   8.0        0.0  0.20000 
1477.800   8.0        0.0  0.20000 
1477.900   8.0        0.0  0.20000 
1478.000   8.0        0.0  0.10000 
1478.100   8.0        0.0  0.20000 
1478.200   8.0        0.2  0.20000 
1478.300   8.0        0.2  0.20000 
1478.400   8.0        0.2  0.20000 
1478.500   8.0        0.2  0.10000 
1478.600   8.0        0.3  0.20000 
1478.700   7.9        0.2  0.20000 
1478.800   7.9        0.2  0.20000 
1478.900   7.9        0.4  0.20000 
1479.000   7.9        0.4  0.10000 
1479.100   7.9        0.4  0.20000 
1479.200   7.9        0.3  0.20000 
1479.300   7.9        0.2  0.20000 
1479.400   7.9        0.3  0.20000 
1479.500   8.0        0.1  0.20000 
1479.600   8.0        0.1  0.10000 
1479.700   8.0        1.0  0.20000 
1479.800   8.0        1.0  0.20000 
1479.900   8.0        0.9  0.20000 
1480.000   8.0        1.0  0.20000 
1480.100   8.0        1.6  0.10000 
1480.200   8.0        0.7  0.20000 
1480.300   8.0        0.7  0.20000 
1480.400   8.0        0.9  0.20000 
1480.500   8.0        0.8  0.20000 
1480.600   8.0        0.8  0.10000 
1480.700   8.0        0.2  0.20000 
1480.800   8.0        0.2  0.20000 
1480.900   8.0        0.2  0.20000 
1481.000   8.0        0.2  0.20000 
1481.100   8.0        0.2  0.20000 
1481.200   8.0        0.2  0.10000 
1481.300   8.0        0.7  0.20000 
1481.400   8.0        1.2  0.20000 
1481.500   8.0        1.2  0.20000 
1481.600   8.0        1.5  0.20000 
1481.700   8.0        1.5  0.10000 
1481.800   8.0        1.0  0.20000 
1481.900   8.0        1.0  0.20000 
1482.000   8.0        0.5  0.20000 
1482.100   8.0        0.5  0.20000 
1482.200   8.0        0.0  0.20000 
1482.300   8.0        0.0  0.10000 
1482.400   8.0        0.0  0.20000 
1482.500   8.0        0.0  0.20000 
1482.600   8.0        0.0  0.20000 
1482.700   8.1        0.0  0.20000 
1482.800   8.1        0.0  0.10000 
1482.900   8.1        0.0  0.20000 
1483.000   8.1        0.0  0.20000 
1483.100   8.1        0.0  0.20000 
1483.200   8.1        0.0  0.20000 
1483.300   8.1        0.0  0.20000 
1483.400   8.1        0.0  0.10000 
1483.500   8.1        0.0  0.20000 
1483.600   8.1        0.0  0.20000 
1483.700   8.1        0.0  0.20000 
1483.800   8.1        0.0  0.20000 
1483.900   8.1        0.0  0.10000 
1484.000   8.1        0.0  0.20000 
1484.100   8.1        0.0  0.20000 
1484.200   8.1        0.0  0.20000 
1484.300   8.1        0.0  0.20000 
1484.400   8.1        0.3  0.20000 
1484.500   8.1        0.3  0.10000 
1484.600   8.1        0.3  0.20000 
1484.700   8.1        0.3  0.20000 
1484.800   8.1        0.3  0.20000 
1484.900   8.1        0.3  0.20000 
1485.000   8.1        0.0  0.20000 
1485.100   8.1        0.0  0.10000 
1485.200   8.1        0.0  0.20000 
1485.300   8.1        0.0  0.20000 
1485.400   8.1        0.0  0.20000 
1485.500   8.1        0.4  0.20000 
1485.600   8.1        0.4  0.10000 
1485.700   8.1        0.9  0.20000 
1485.800   8.1        0.9  0.22000 
1485.900   8.1        1.5  0.22000 
1486.000   8.1        1.1  0.22000 
1486.100   8.1        1.1  0.22000 
1486.200   8.1        1.1  0.11000 
1486.300   8.2        1.3  0.11000 
1486.400   8.2        2.5  0.20000 
1486.500   8.2        2.5  0.20000 
1486.600   8.2        2.5  0.20000 
1486.700   8.2        2.5  0.20000 
1486.800   8.2        3.1  0.10000 
1486.900   8.2        3.5  0.20000 
1487.000   8.3        1.7  0.20000 
1487.100   8.3        2.3  0.20000 
1487.200   8.3        2.9  0.20000 
1487.300   8.3        2.3  0.10000 
1487.400   8.3        3.4  0.20000 
1487.500   8.3        3.4  0.20000 
1487.600   8.3        3.4  0.20000 
1487.700   8.3        2.8  0.20000 
1487.800   8.3        3.0  0.20000 
1487.900   8.3        1.9  0.10000 
1488.000   8.3        2.4  0.20000 
1488.100   8.3        1.4  0.22000 
1488.200   8.3        1.4  0.22000 
1488.300   8.3        1.6  0.22000 
1488.400   8.3        1.6  0.11000 
1488.500   8.3        1.8  0.22000 
1488.600   8.3        1.8  0.11000 
1488.700   8.3        1.7  0.20000 
1488.800   8.3        1.5  0.20000 
1488.900   8.3        1.5  0.20000 
1489.000   8.3        0.7  0.10000 
1489.100   8.3        0.0  0.20000 
1489.200   8.3        0.0  0.20000 
1489.300   8.3        0.0  0.20000 
1489.400   8.3        0.0  0.20000 
1489.500   8.3        0.0  0.20000 
1489.600   8.3        0.0  0.10000 
1489.700   8.3        0.0  0.20000 
1489.800   8.3        0.0  0.20000 
1489.900   8.3        0.0  0.20000 
1490.000   8.3        0.0  0.20000 
1490.100   8.3        0.1  0.10000 
1490.200   8.3        0.1  0.20000 
1490.300   8.3        0.1  0.20000 
1490.400   8.3        0.1  0.20000 
1490.500   8.3        0.1  0.22000 
1490.600   8.3        0.0  0.22000 
1490.700   8.3        0.0  0.11000 
1490.800   8.3        0.0  0.22000 
1490.900   8.3        0.0  0.22000 
1491.000   8.3        0.0  0.11000 
1491.100   8.3        0.0  0.20000 
1491.200   8.2        0.0  0.10000 
1491.300   8.2        0.0  0.20000 
1491.400   8.2        0.0  0.20000 
1491.500   8.2        0.0  0.20000 
1491.600   8.1        0.0  0.20000 
1491.700   8.1        0.0  0.20000 
1491.800   8.1        0.0  0.10000 
1491.900   8.1        0.0  0.20000 
1492.000   8.1        0.0  0.20000 
1492.100   8.1        0.0  0.20000 
1492.200   8.1        0.0  0.20000 
1492.300   8.1        0.0  0.20000 
1492.400   8.1        0.0  0.10000 
1492.500   8.1        0.0  0.20000 
1492.600   8.1        0.0  0.20000 
1492.700   8.1        0.0  0.20000 
1492.800   8.1        0.0  0.20000 
1492.900   8.1        0.0  0.11000 
1493.000   8.1        0.0  0.22000 
1493.100   8.1        0.0  0.22000 
1493.200   8.1        0.0  0.22000 
1493.300   8.1        0.3  0.22000 
1493.400   8.1        0.3  0.11000 
1493.500   8.1        0.3  0.10000 
1493.600   8.1        0.3  0.20000 
1493.700   8.1        0.3  0.20000 
1493.800   8.1        0.4  0.20000 
1493.900   8.1        0.1  0.20000 
1494.000   8.1        0.1  0.20000 
1494.100   8.1        0.1  0.10000 
1494.200   8.1        0.1  0.20000 
1494.300   8.1        0.0  0.20000 
1494.400   8.1        0.4  0.20000 
1494.500   8.1        0.4  0.20000 
1494.600   8.1        0.4  0.10000 
1494.700   8.1        0.4  0.20000 
1494.800   8.1        0.4  0.20000 
1494.900   8.1        0.4  0.20000 
1495.000   8.1        0.0  0.20000 
1495.100   8.1        0.0  0.10000 
1495.200   8.1        0.0  0.20000 
1495.300   8.1        0.0  0.21000 
1495.400   8.1        0.0  0.22000 
1495.500   8.1        0.0  0.22000 
1495.600   8.1        0.0  0.22000 
1495.700   8.1        0.0  0.11000 
1495.800   8.1        0.0  0.11000 
1495.900   8.1        0.0  0.21000 
1496.000   8.1        0.0  0.20000 
1496.100   8.1        0.0  0.20000 
1496.200   8.0        0.0  0.20000 
1496.300   8.0        0.0  0.10000 
1496.400   8.0        0.0  0.20000 
1496.500   8.0        0.0  0.20000 
1496.600   8.0        0.0  0.20000 
1496.700   8.0        0.0  0.20000 
1496.800   8.0        0.0  0.10000 
1496.900   8.0        0.1  0.20000 
1497.000   8.0        0.1  0.20000 
1497.100   8.0        0.4  0.20000 
1497.200   8.0        0.4  0.20000 
1497.300   8.0        0.5  0.20000 
1497.400   8.0        0.5  0.10000 
1497.500   8.0        0.6  0.20000 
1497.600   8.0        0.3  0.20000 
1497.700   8.0        0.4  0.21000 
1497.800   8.0        0.3  0.22000 
1497.900   8.0        0.3  0.22000 
1498.000   8.0        0.3  0.11000 
1498.100   8.0        0.2  0.22000 
1498.200   8.0        0.7  0.11000 
1498.300   8.0        0.7  0.21000 
1498.400   8.0        2.1  0.20000 
1498.500   8.0        2.1  0.20000 
1498.600   8.0        2.1  0.10000 
1498.700   8.0        2.7  0.20000 
1498.800   8.0        2.1  0.20000 
1498.900   8.0        2.9  0.20000 
1499.000   8.0        1.5  0.20000 
1499.100   8.0        2.9  0.10000 
1499.200   8.0        3.0  0.20000 
1499.300   8.0        2.3  0.20000 
