~Version Information
 VERS.                2.0:  CWLS LOG ASCII STANDARD -VERSION 2.0
 WRAP.                 NO:  ONE LINE PER DEPTH STEP
~WELL INFORMATION BLOCK
#MNEM.UNIT       DATA		            DESCRIPTION OF MNEMONIC
#---------    -------------            ------------------------
 STRT.FT  41.500                         :START DEPTH
 STOP.FT  1871.500                       :STOP DEPTH
 STEP.FT  0.100                          :STEP    UP_HOLE  
 NULL.    0                              :NULL VALUE
 COMP.                            USGS   :COMPANY
 WELL.                      MCWD-DMW #1  :WELL
 FLD .                           Marina  :FIELD
 LOC .    None  None  None               :LOCATION
 CNTY.                         Monterey  :COUNTY
 STAT.             California            :STATE
 SRVC.    Western Reg                    :SERVICE COMPANY
 DATE.   05/27/00                        :LOG DATE
 UWI .                       	         :UNIQUE WELL ID
 LIC .                                   :LICENSE NUMBER
~Curve Information Block
#MNEM.UNIT      API CODE     Curve Description
#---------    -------------  ------------------------
 DEPT     .FT        00 001 00 00          :  1  DEPTH   
 GAM(NAT) .API-GR    00 310 00 00          :  2             GAM(NAT)
 COND     .MMHO/M    00 000 00 00          :  3                 COND
 RES      .OHM-M     00 000 00 00          :  4                  RES
 TEMP     .DEG F     00 660 00 00          :  5                 TEMP
 AP-COND  .MMHO/M    00 000 00 00          :  6              AP-COND
 TEMP     .CPS       00 660 00 00          :  7                 TEMP
 AP-COND  .CPS       00 000 00 00          :  8              AP-COND
 TENSION  .POUNDS    00 000 00 00          :  9              TENSION
 TIME     .MINUTES   00 000 00 00          : 10                 TIME
~Parameter Information Block
#MNEM.UNIT   Information     Description
#---------- ---------------  ------------------------
~Other Information
#MNEM.UNIT  Information      Description
#---------- ---------------  ------------------------
 FILE.      ORIGINAL           File Type
 FIID.      9511A              File Type Identifier
 VERS.      1.0                System Version
 SER .      1                  System Serial Number
 TRUK.      0.5                Truck Calibration Number
 TOOL.         770             Tool Serial Number
 TIME.      05:18:             Time
 LAT .          None           Latitude
 LON .          None           Longitude
 LMF .           LSD           Log Measured From
 DMF .           LSD           Driller Measured From
 PD  .          None           Permanent Data
 PDEV.          None           Elevation Permanent Data
 EKB .M         None           Elevation Kelly Bushing
 ELEV.DF        None           Elevation DF
 EGL .M         None           Elevation Ground Level
 DRDP.         1990'           Driller's Depth
 CASD.         0               Casing Diameter
 CASB.          None           Casing Bottom
 CASX.          None           Casing Type
 CAST.         0               Casing Thickness
 TNOC.          None           Time Circulation Stopped
 LOGU.       WRRD              Logging Unit
 RECB.           Everett       Recorded By
 OSR1.       Pimente           Other Services
 OSR2.       mud vis           Other Services
 OSR3.           =62           Other Services
 BS  .MM           6           Bit Size
 MST .                         Mean Surface Temperature
 TGRD.        0                Temperature Gradiant
 MAGN.             0           Magnetic Declination
 MDEN.      2.71               Density Matrix
 MATR.       Dolomite          Neutron Matrix
 DTMT.            54           Delta T Matrix
 DTFL.                         Delta T Fluid
 MUDS.               0         Mud Sample Source
 MRS .           0             Mud Resistivity
 MTP .           0             Mud Temperature
 MFRS.                         Resistivity Mud Filtrate
 MFTP.                         Temperature Mud Filtrate
 MCRS.         0               Resistivity Mud Cake
 MCTP.                         Temperature Mud Cake
 FTYP.             0           Fluid Type
 FD  .K/M3                     Fluid Density
 DFV .S                        Fluid Viscosity
 FPH .                         Fuild PH
 ELCO.        2500             Electron Cutoff
# -------------------------- 
~A DEPTH  GAM(NAT) COND     RES      TEMP  AP-COND  TEMP  AP-COND  TENSION  TIME    
# ...
 409.600     55.7    516.1      1.9  84.2    451.8  28750.0 108630.0     0.6  0.22000 
 409.700     81.0    520.5      1.9  84.1    455.6  28745.0 109080.0     0.0  0.22000 
 409.800     60.8    522.2      1.9  84.1    457.0  28745.0 109250.0     0.0  0.11000 
 409.900     96.2    526.8      1.9  84.2    460.9  28750.0 109720.0     0.0  0.20000 
 410.000     35.4    529.0      1.9  84.1    462.8  28745.0 109940.0     0.0  0.20000 
 410.100     55.7    532.7      1.9  84.1    465.9  28745.0 110315.0     0.0  0.30000 
 410.200     45.6    535.6      1.9  84.2    468.4  28750.0 110610.0     0.0  0.20000 
 410.300     55.7    536.5      1.9  84.1    469.2  28746.7 110703.3     0.0  0.20000 
 410.400     55.7    537.1      1.9  84.2    469.7  28750.0 110765.0     0.0  0.20000 
 410.500     55.7    539.0      1.9  84.2    471.4  28750.0 110960.0     0.0  0.10000 
 410.600     60.8    538.8      1.9  84.2    471.2  28750.0 110940.0     0.0  0.20000 
 410.700     45.6    538.4      1.9  84.0    470.8  28740.0 110900.0     0.0  0.20000 
 410.800     75.9    541.0      1.8  84.2    473.1  28750.0 111165.0     0.0  0.20000 
 410.900     40.5    540.8      1.8  84.2    472.9  28750.0 111140.0     0.0  0.20000 
 411.000     60.8    540.2      1.9  84.2    472.4  28750.0 111080.0     0.0  0.20000 
 411.100     70.9    537.9      1.9  84.1    470.4  28745.0 110850.0     0.0  0.20000 
 411.200     65.8    536.2      1.9  84.1    469.0  28745.0 110680.0     0.0  0.20000 
 411.300     30.4    534.0      1.9  84.2    467.1  28750.0 110450.0     0.0  0.20000 
 411.400     65.8    529.5      1.9  84.2    463.2  28750.0 109995.0     0.2  0.20000 
 411.500     50.6    529.2      1.9  84.2    463.0  28750.0 109965.0     0.2  0.20000 
 411.600     70.9    526.0      1.9  84.2    460.2  28750.0 109635.0     0.2  0.20000 
 411.700     65.8    520.7      1.9  84.1    455.7  28745.0 109095.0     0.2  0.20000 
 411.800     50.6    517.5      1.9  84.2    453.0  28750.0 108770.0     0.2  0.20000 
 411.900     50.6    516.3      1.9  84.2    451.9  28750.0 108645.0     0.0  0.20000 
 412.000     35.4    512.3      2.0  84.2    448.5  28750.0 108240.0     0.0  0.20000 
 412.100     55.7    508.5      2.0  84.2    445.3  28750.0 107855.0     0.0  0.20000 
 412.200     60.8    506.1      2.0  84.2    443.3  28750.0 107615.0     0.0  0.20000 
 412.300     55.7    503.0      2.0  84.2    440.6  28750.0 107295.0     0.0  0.20000 
 412.400     70.9    500.3      2.0  84.2    438.3  28750.0 107020.0     0.0  0.20000 
 412.500     81.0    497.6      2.0  84.2    435.9  28750.0 106745.0     0.0  0.20000 
 412.600     87.8    494.6      2.0  84.2    433.4  28750.0 106445.0     0.0  0.20000 
 412.700     91.1    491.4      2.0  84.2    430.6  28750.0 106115.0     0.5  0.20000 
 412.800     75.9    489.1      2.0  84.2    428.7  28750.0 105880.0     0.5  0.20000 
 412.900     50.6    486.1      2.1  84.2    426.1  28750.0 105575.0     0.5  0.20000 
 413.000     40.5    481.9      2.1  84.2    422.5  28750.0 105150.0     0.5  0.20000 
 413.100     86.1    478.7      2.1  84.2    419.8  28750.0 104825.0     0.5  0.20000 
 413.200     70.9    475.0      2.1  84.2    416.6  28750.0 104440.0     0.0  0.20000 
 413.300     55.7    472.3      2.1  84.2    414.3  28750.0 104170.0     0.0  0.20000 
 413.400     55.7    467.7      2.1  84.2    410.3  28750.0 103695.0     0.0  0.20000 
 413.500     86.1    463.7      2.2  84.2    406.9  28750.0 103290.0     0.0  0.20000 
 413.600     96.2    458.8      2.2  84.2    402.7  28750.0 102795.0     0.0  0.20000 
 413.700     70.9    453.0      2.2  84.2    397.7  28750.0 102195.0     0.8  0.20000 
 413.800     65.8    448.0      2.2  84.2    393.4  28750.0 101685.0     0.8  0.20000 
 413.900    131.6    444.2      2.3  84.2    390.2  28750.0 101300.0     0.8  0.20000 
 414.000     91.1    439.0      2.3  84.2    385.7  28750.0 100770.0     0.8  0.20000 
 414.100     55.7    430.2      2.3  84.2    378.2  28750.0 99870.0      0.8  0.20000 
 414.200     91.1    424.3      2.4  84.2    373.1  28750.0 99265.0      0.0  0.20000 
 414.300     81.0    417.4      2.4  84.3    367.1  28755.0 98555.0      0.6  0.20000 
 414.400    101.3    411.0      2.4  84.2    361.7  28750.0 97910.0      0.6  0.20000 
 414.500     75.9    405.5      2.5  84.2    356.9  28750.0 97340.0      0.6  0.20000 
 414.600     75.9    401.5      2.5  84.2    353.5  28750.0 96935.0      0.7  0.20000 
 414.700     35.4    406.0      2.5  84.2    357.4  28750.0 97395.0      0.7  0.20000 
 414.800     60.8    415.1      2.4  84.3    365.2  28755.0 98325.0      0.7  0.20000 
 414.900     91.1    424.3      2.4  84.2    373.1  28750.0 99265.0      0.7  0.20000 
 415.000     60.8    425.1      2.4  84.2    373.8  28750.0 99345.0      0.7  0.20000 
 415.100     60.8    396.0      2.5  84.3    348.7  28755.0 96365.0      0.6  0.20000 
 415.200     35.4    356.8      2.8  84.2    315.0  28750.0 92350.0      0.6  0.20000 
 415.300     70.9    337.7      3.0  84.2    298.5  28750.0 90390.0      0.0  0.20000 
 415.400     65.8    330.8      3.0  84.2    292.6  28750.0 89685.0      0.0  0.20000 
 415.500     75.9    331.0      3.0  84.3    292.8  28755.0 89705.0      0.0  0.20000 
 415.600     25.3    330.1      3.0  84.2    291.9  28750.0 89605.0      0.0  0.20000 
 415.700    101.3    326.7      3.1  84.2    289.0  28750.0 89255.0      0.1  0.20000 
 415.800     81.0    324.4      3.1  84.3    287.0  28755.0 89020.0      0.1  0.20000 
 415.900     75.9    320.1      3.1  84.2    283.3  28750.0 88585.0      0.1  0.20000 
 416.000     40.5    318.1      3.1  84.3    281.5  28755.0 88370.0      0.1  0.20000 
 416.100     50.6    317.4      3.2  84.2    280.9  28750.0 88300.0      0.1  0.20000 
 416.200     60.8    315.2      3.2  84.2    279.1  28750.0 88080.0      0.0  0.20000 
 416.300     50.6    314.0      3.2  84.3    278.1  28755.0 87955.0      0.6  0.20000 
 416.400     55.7    315.5      3.2  84.2    279.3  28750.0 88105.0      0.6  0.20000 
 416.500     10.1    314.0      3.2  84.3    278.1  28755.0 87955.0      0.7  0.20000 
 416.600     30.4    315.6      3.2  84.2    279.4  28750.0 88115.0      0.7  0.20000 
 416.700     65.8    316.6      3.2  84.3    280.2  28755.0 88215.0      0.7  0.10000 
 416.800     60.8    317.9      3.1  84.2    281.4  28750.0 88355.0      0.8  0.30000 
 416.900     30.4    323.7      3.1  84.2    286.4  28750.0 88950.0      0.9  0.10000 
 417.000     55.7    324.7      3.1  84.3    287.3  28753.3 89056.7      0.9  0.20000 
 417.100     60.8    325.8      3.1  84.2    288.3  28750.0 89170.0      0.8  0.20000 
 417.200     55.7    328.0      3.0  84.3    290.2  28755.0 89395.0      0.8  0.20000 
 417.300     55.7    332.5      3.0  84.3    294.0  28755.0 89850.0      0.8  0.20000 
 417.400     20.3    337.6      3.0  84.2    298.4  28750.0 90375.0      0.3  0.20000 
 417.500     96.2    343.9      2.9  84.3    303.9  28755.0 91030.0      0.3  0.20000 
 417.600     45.6    351.0      2.8  84.2    310.0  28750.0 91755.0      0.3  0.20000 
 417.700     45.6    359.3      2.8  84.3    317.2  28755.0 92610.0      0.8  0.20000 
 417.800     40.5    367.8      2.7  84.3    324.4  28755.0 93475.0      0.8  0.20000 
 417.900     60.8    377.9      2.6  84.2    333.2  28750.0 94520.0      0.5  0.20000 
 418.000     50.6    385.8      2.6  84.3    340.0  28755.0 95325.0      0.5  0.20000 
 418.100     45.6    394.3      2.5  84.3    347.3  28755.0 96200.0      0.5  0.20000 
 418.200     40.5    401.8      2.5  84.2    353.8  28750.0 96965.0      0.0  0.20000 
 418.300     35.4    410.1      2.4  84.3    360.9  28755.0 97810.0      0.2  0.20000 
 418.400     55.7    419.3      2.4  84.3    368.8  28755.0 98755.0      0.2  0.20000 
 418.500     40.5    427.6      2.3  84.2    375.9  28750.0 99600.0      0.2  0.20000 
 418.600     40.5    434.9      2.3  84.3    382.2  28755.0 100350.0     0.5  0.20000 
 418.700     35.4    444.1      2.3  84.2    390.1  28750.0 101285.0     0.5  0.20000 
