~Version Information
 VERS.                2.0:  CWLS LOG ASCII STANDARD -VERSION 2.0
 WRAP.                 NO:  ONE LINE PER DEPTH STEP
~WELL INFORMATION BLOCK
#MNEM.UNIT       DATA		            DESCRIPTION OF MNEMONIC
#---------    -------------            ------------------------
 STRT.FT  5.300                          :START DEPTH
 STOP.FT  1874.500                       :STOP DEPTH
 STEP.FT  0.100                          :STEP    UP_HOLE  
 NULL.    0                              :NULL VALUE
 COMP.                            USGS   :COMPANY
 WELL.                      MCWD-DMW #1  :WELL
 FLD .                           Marina  :FIELD
 LOC .    None  None  None               :LOCATION
 CNTY.                         Monterey  :COUNTY
 STAT.             California            :STATE
 SRVC.    Western Reg                    :SERVICE COMPANY
 DATE.   05/27/00                        :LOG DATE
 UWI .                       	         :UNIQUE WELL ID
 LIC .                                   :LICENSE NUMBER
~Curve Information Block
#MNEM.UNIT      API CODE     Curve Description
#---------    -------------  ------------------------
 DEPT     .FT        00 001 00 00          :  1  DEPTH   
 CALIPER  .INCH      00 280 00 00          :  2              CALIPER
 TENSION  .POUNDS    00 000 00 00          :  3              TENSION
 TIME     .MINUTES   00 000 00 00          :  4                 TIME
~Parameter Information Block
#MNEM.UNIT   Information     Description
#---------- ---------------  ------------------------
~Other Information
#MNEM.UNIT  Information      Description
#---------- ---------------  ------------------------
 FILE.      ORIGINAL           File Type
 FIID.      9065A              File Type Identifier
 VERS.      1.0                System Version
 SER .      1                  System Serial Number
 TRUK.      0.5                Truck Calibration Number
 TOOL.         573             Tool Serial Number
 TIME.      03:05:             Time
 LAT .          None           Latitude
 LON .          None           Longitude
 LMF .           LSD           Log Measured From
 DMF .           LSD           Driller Measured From
 PD  .          None           Permanent Data
 PDEV.          None           Elevation Permanent Data
 EKB .M         None           Elevation Kelly Bushing
 ELEV.DF        None           Elevation DF
 EGL .M         None           Elevation Ground Level
 DRDP.         1990'           Driller's Depth
 CASD.         0               Casing Diameter
 CASB.          None           Casing Bottom
 CASX.          None           Casing Type
 CAST.         0               Casing Thickness
 TNOC.          None           Time Circulation Stopped
 LOGU.       WRRD              Logging Unit
 RECB.           Everett       Recorded By
 OSR1.       Pimente           Other Services
 OSR2.       mud vis           Other Services
 OSR3.           =62           Other Services
 BS  .MM           6           Bit Size
 MST .                         Mean Surface Temperature
 TGRD.        0                Temperature Gradiant
 MAGN.             0           Magnetic Declination
 MDEN.      2.71               Density Matrix
 MATR.       Dolomite          Neutron Matrix
 DTMT.            54           Delta T Matrix
 DTFL.                         Delta T Fluid
 MUDS.               0         Mud Sample Source
 MRS .           0             Mud Resistivity
 MTP .           0             Mud Temperature
 MFRS.                         Resistivity Mud Filtrate
 MFTP.                         Temperature Mud Filtrate
 MCRS.         0               Resistivity Mud Cake
 MCTP.                         Temperature Mud Cake
 FTYP.             0           Fluid Type
 FD  .K/M3                     Fluid Density
 DFV .S                        Fluid Viscosity
 FPH .                         Fuild PH
 ELCO.        2500             Electron Cutoff
# -------------------------- 
~A DEPTH  CALIPER TENSION  TIME    
# ...
 139.100   9.6        1.5  0.10000 
 139.200   9.6        1.5  0.20000 
 139.300   9.6        0.1  0.20000 
 139.400   9.6        0.1  0.20000 
 139.500   9.6        0.1  0.20000 
 139.600   9.6        0.0  0.20000 
 139.700   9.6        0.0  0.20000 
 139.800   9.6        0.0  0.20000 
 139.900   9.6        0.7  0.20000 
 140.000   9.6        0.7  0.20000 
 140.100   9.6        0.7  0.20000 
 140.200   9.6        0.8  0.20000 
 140.300   9.6        0.8  0.21000 
 140.400   9.6        0.1  0.22000 
 140.500   9.6        0.7  0.22000 
 140.600   9.6        0.7  0.11000 
 140.700   9.6        0.6  0.22000 
 140.800   9.6        1.4  0.11000 
 140.900   9.6        1.4  0.21000 
 141.000   9.6        1.8  0.20000 
 141.100   9.5        1.8  0.20000 
 141.200   9.5        1.8  0.20000 
 141.300   9.6        2.6  0.20000 
 141.400   9.6        1.8  0.20000 
 141.500   9.7        1.8  0.20000 
 141.600   9.7        0.8  0.20000 
 141.700   9.7        0.8  0.20000 
 141.800   9.7        0.0  0.20000 
 141.900   9.7        0.0  0.20000 
 142.000   9.7        0.0  0.20000 
 142.100   9.7        0.0  0.10000 
 142.200   9.7        0.0  0.20000 
 142.300   9.7        0.0  0.20000 
 142.400   9.7        0.0  0.20000 
 142.500   9.7        0.0  0.20000 
 142.600   9.7        0.0  0.20000 
 142.700   9.7        0.0  0.20000 
 142.800   9.7        0.0  0.20000 
 142.900   9.7        0.0  0.20000 
 143.000   9.7        0.0  0.20000 
 143.100   9.7        0.0  0.20000 
 143.200   9.7        0.0  0.20000 
 143.300   9.7        0.0  0.20000 
 143.400   9.7        0.0  0.20000 
 143.500   9.7        0.0  0.20000 
 143.600   9.7        0.0  0.20000 
 143.700   9.7        0.0  0.20000 
 143.800   9.7        0.0  0.10000 
 143.900   9.7        0.0  0.20000 
 144.000   9.7        0.0  0.20000 
 144.100   9.7        0.0  0.20000 
 144.200   9.7        1.6  0.20000 
 144.300   9.7        1.6  0.20000 
 144.400   9.7        2.2  0.20000 
 144.500   9.7        2.2  0.20000 
 144.600   9.7        4.2  0.20000 
 144.700   9.7        2.7  0.20000 
 144.800   9.7        2.7  0.20000 
 144.900   9.7        2.1  0.20000 
 145.000   9.7        2.4  0.20000 
 145.100   9.7        1.4  0.20000 
 145.200   9.7        1.3  0.20000 
 145.300   9.7        2.3  0.20000 
 145.400   9.7        2.4  0.10000 
 145.500   9.7        3.3  0.20000 
 145.600   9.7        2.3  0.20000 
 145.700   9.7        3.8  0.20000 
 145.800   9.7        2.8  0.20000 
 145.900   9.7        2.7  0.20000 
 146.000   9.7        2.7  0.20000 
 146.100   9.7        1.5  0.20000 
 146.200   9.7        0.0  0.20000 
 146.300   9.7        0.1  0.20000 
 146.400   9.7        0.1  0.20000 
 146.500   9.7        0.1  0.20000 
 146.600   9.7        0.1  0.20000 
 146.700   9.7        0.1  0.20000 
 146.800   9.7        0.0  0.20000 
 146.900   9.7        0.0  0.10000 
 147.000   9.7        0.0  0.20000 
 147.100   9.7        0.3  0.20000 
 147.200   9.7        0.3  0.20000 
 147.300   9.7        0.3  0.20000 
 147.400   9.7        0.3  0.20000 
 147.500   9.7        0.4  0.20000 
 147.600   9.7        0.1  0.20000 
 147.700   9.7        0.1  0.20000 
 147.800   9.7        0.1  0.20000 
 147.900   9.7        0.1  0.20000 
 148.000   9.7        0.0  0.20000 
 148.100   9.7        0.0  0.20000 
 148.200   9.7        0.1  0.20000 
 148.300   9.7        0.1  0.20000 
 148.400   9.7        0.7  0.20000 
 148.500   9.7        0.7  0.20000 
 148.600   9.7        1.2  0.10000 
 148.700   9.7        1.1  0.20000 
 148.800   9.7        1.1  0.20000 
 148.900   9.7        0.5  0.20000 
 149.000   9.7        1.4  0.20000 
 149.100   9.7        0.9  0.20000 
 149.200   9.7        1.3  0.20000 
 149.300   9.7        1.3  0.20000 
 149.400   9.7        1.6  0.20000 
 149.500   9.7        0.9  0.20000 
 149.600   9.7        1.4  0.20000 
 149.700   9.7        1.0  0.20000 
 149.800   9.7        2.0  0.20000 
 149.900   9.7        4.2  0.10000 
 150.000   9.7        4.1  0.20000 
 150.100   9.7        3.6  0.20000 
 150.200   9.7        4.4  0.20000 
 150.300   9.7        3.4  0.20000 
 150.400   9.7        3.4  0.20000 
 150.500   9.7        2.7  0.20000 
 150.600   9.7        2.6  0.20000 
 150.700   9.7        1.8  0.20000 
 150.800   9.7        2.1  0.20000 
 150.900   9.7        2.4  0.20000 
 151.000   9.7        0.6  0.20000 
 151.100   9.7        0.6  0.20000 
 151.200   9.7        0.9  0.20000 
 151.300   9.7        2.1  0.20000 
 151.400   9.7        1.8  0.20000 
 151.500   9.7        1.9  0.20000 
 151.600   9.7        1.9  0.20000 
 151.700   9.7        1.6  0.10000 
 151.800   9.7        0.1  0.20000 
 151.900   9.7        0.3  0.20000 
 152.000   9.7        0.2  0.20000 
 152.100   9.7        2.6  0.20000 
 152.200   9.7        2.6  0.20000 
 152.300   9.7        2.9  0.20000 
 152.400   9.7        2.7  0.20000 
 152.500   9.7        3.2  0.20000 
 152.600   9.7        0.9  0.20000 
 152.700   9.7        0.9  0.20000 
 152.800   9.7        0.6  0.21000 
 152.900   9.7        1.3  0.22000 
 153.000   9.7        1.1  0.22000 
 153.100   9.7        2.1  0.11000 
 153.200   9.7        2.3  0.22000 
 153.300   9.7        2.3  0.11000 
 153.400   9.7        3.2  0.21000 
 153.500   9.7        3.2  0.20000 
 153.600   9.7        2.9  0.20000 
 153.700   9.7        1.8  0.20000 
 153.800   9.7        1.6  0.20000 
 153.900   9.7        1.6  0.20000 
 154.000   9.7        0.0  0.20000 
 154.100   9.7        0.0  0.20000 
 154.200   9.7        0.0  0.20000 
 154.300   9.7        0.0  0.20000 
 154.400   9.7        0.0  0.20000 
 154.500   9.7        0.0  0.20000 
 154.600   9.7        1.1  0.20000 
 154.700   9.7        1.2  0.20000 
 154.800   9.7        1.2  0.10000 
 154.900   9.7        1.3  0.20000 
 155.000   9.7        1.3  0.20000 
 155.100   9.7        0.2  0.21000 
 155.200   9.7        0.2  0.22000 
 155.300   9.7        0.1  0.22000 
 155.400   9.7        0.1  0.22000 
 155.500   9.7        0.0  0.22000 
 155.600   9.7        0.0  0.11000 
 155.700   9.7        0.0  0.20000 
 155.800   9.7        0.0  0.20000 
 155.900   9.7        0.0  0.20000 
 156.000   9.7        0.0  0.20000 
 156.100   9.7        0.0  0.20000 
 156.200   9.6        0.0  0.20000 
 156.300   9.6        0.0  0.10000 
 156.400   9.6        0.0  0.20000 
 156.500   9.6        0.0  0.20000 
 156.600   9.6        0.0  0.20000 
 156.700   9.6        0.0  0.20000 
 156.800   9.6        0.0  0.20000 
 156.900   9.6        0.8  0.20000 
 157.000   9.6        0.8  0.20000 
 157.100   9.6        0.8  0.20000 
 157.200   9.6        0.8  0.20000 
 157.300   9.6        0.8  0.20000 
 157.400   9.6        0.0  0.22000 
 157.500   9.6        0.0  0.22000 
 157.600   9.6        0.0  0.22000 
 157.700   9.6        0.0  0.22000 
 157.800   9.6        0.0  0.11000 
 157.900   9.6        0.0  0.21000 
 158.000   9.6        0.0  0.10000 
 158.100   9.6        0.0  0.20000 
 158.200   9.6        0.0  0.20000 
 158.300   9.6        0.0  0.20000 
 158.400   9.6        0.0  0.20000 
 158.500   9.6        0.0  0.20000 
 158.600   9.6        0.0  0.20000 
 158.700   9.6        0.0  0.20000 
 158.800   9.6        0.0  0.20000 
 158.900   9.6        0.0  0.20000 
 159.000   9.6        0.0  0.20000 
 159.100   9.6        0.0  0.20000 
 159.200   9.6        0.0  0.20000 
 159.300   9.6        0.0  0.20000 
 159.400   9.6        0.0  0.10000 
 159.500   9.6        0.0  0.20000 
 159.600   9.6        0.4  0.20000 
 159.700   9.6        0.4  0.22000 
 159.800   9.6        0.4  0.22000 
 159.900   9.6        0.4  0.22000 
 160.000   9.6        0.4  0.22000 
 160.100   9.6        0.4  0.11000 
 160.200   9.6        0.6  0.21000 
 160.300   9.6        0.6  0.20000 
 160.400   9.6        0.6  0.20000 
 160.500   9.6        0.6  0.20000 
 160.600   9.6        0.6  0.20000 
 160.700   9.6        0.0  0.20000 
 160.800   9.6        0.0  0.22000 
 160.900   9.6        0.0  0.11000 
 161.000   9.6        0.0  0.22000 
 161.100   9.6        0.0  0.22000 
 161.200   9.6        0.0  0.22000 
 161.300   9.6        0.0  0.11000 
