~Version Information
 VERS.                2.0:  CWLS LOG ASCII STANDARD -VERSION 2.0
 WRAP.                 NO:  ONE LINE PER DEPTH STEP
~WELL INFORMATION BLOCK
#MNEM.UNIT       DATA		            DESCRIPTION OF MNEMONIC
#---------    -------------            ------------------------
 STRT.FT  5.300                          :START DEPTH
 STOP.FT  1874.500                       :STOP DEPTH
 STEP.FT  0.100                          :STEP    UP_HOLE  
 NULL.    0                              :NULL VALUE
 COMP.                            USGS   :COMPANY
 WELL.                      MCWD-DMW #1  :WELL
 FLD .                           Marina  :FIELD
 LOC .    None  None  None               :LOCATION
 CNTY.                         Monterey  :COUNTY
 STAT.             California            :STATE
 SRVC.    Western Reg                    :SERVICE COMPANY
 DATE.   05/27/00                        :LOG DATE
 UWI .                       	         :UNIQUE WELL ID
 LIC .                                   :LICENSE NUMBER
~Curve Information Block
#MNEM.UNIT      API CODE     Curve Description
#---------    -------------  ------------------------
 DEPT     .FT        00 001 00 00          :  1  DEPTH   
 CALIPER  .INCH      00 280 00 00          :  2              CALIPER
 TENSION  .POUNDS    00 000 00 00          :  3              TENSION
 TIME     .MINUTES   00 000 00 00          :  4                 TIME
~Parameter Information Block
#MNEM.UNIT   Information     Description
#---------- ---------------  ------------------------
~Other Information
#MNEM.UNIT  Information      Description
#---------- ---------------  ------------------------
 FILE.      ORIGINAL           File Type
 FIID.      9065A              File Type Identifier
 VERS.      1.0                System Version
 SER .      1                  System Serial Number
 TRUK.      0.5                Truck Calibration Number
 TOOL.         573             Tool Serial Number
 TIME.      03:05:             Time
 LAT .          None           Latitude
 LON .          None           Longitude
 LMF .           LSD           Log Measured From
 DMF .           LSD           Driller Measured From
 PD  .          None           Permanent Data
 PDEV.          None           Elevation Permanent Data
 EKB .M         None           Elevation Kelly Bushing
 ELEV.DF        None           Elevation DF
 EGL .M         None           Elevation Ground Level
 DRDP.         1990'           Driller's Depth
 CASD.         0               Casing Diameter
 CASB.          None           Casing Bottom
 CASX.          None           Casing Type
 CAST.         0               Casing Thickness
 TNOC.          None           Time Circulation Stopped
 LOGU.       WRRD              Logging Unit
 RECB.           Everett       Recorded By
 OSR1.       Pimente           Other Services
 OSR2.       mud vis           Other Services
 OSR3.           =62           Other Services
 BS  .MM           6           Bit Size
 MST .                         Mean Surface Temperature
 TGRD.        0                Temperature Gradiant
 MAGN.             0           Magnetic Declination
 MDEN.      2.71               Density Matrix
 MATR.       Dolomite          Neutron Matrix
 DTMT.            54           Delta T Matrix
 DTFL.                         Delta T Fluid
 MUDS.               0         Mud Sample Source
 MRS .           0             Mud Resistivity
 MTP .           0             Mud Temperature
 MFRS.                         Resistivity Mud Filtrate
 MFTP.                         Temperature Mud Filtrate
 MCRS.         0               Resistivity Mud Cake
 MCTP.                         Temperature Mud Cake
 FTYP.             0           Fluid Type
 FD  .K/M3                     Fluid Density
 DFV .S                        Fluid Viscosity
 FPH .                         Fuild PH
 ELCO.        2500             Electron Cutoff
# -------------------------- 
~A DEPTH  CALIPER TENSION  TIME    
# ...
1365.600  10.1        4.8  0.20000 
1365.700  10.4        4.0  0.10000 
1365.800  10.8        3.7  0.20000 
1365.900  11.0        3.7  0.20000 
1366.000  11.0        1.9  0.10000 
1366.100  11.0        0.1  0.20000 
1366.200  11.0        0.0  0.20000 
1366.300  11.0        0.0  0.20000 
1366.400  10.9        0.0  0.10000 
1366.500  10.8        0.0  0.20000 
1366.600  10.8        0.4  0.20000 
1366.700  10.8        0.4  0.20000 
1366.800  10.7        0.4  0.10000 
1366.900  10.7        0.4  0.20000 
1367.000  10.6        1.7  0.20000 
1367.100  10.6        1.7  0.20000 
1367.200  10.7        1.5  0.10000 
1367.300  10.7        1.5  0.20000 
1367.400  10.8        2.3  0.20000 
1367.500  11.0        2.3  0.20000 
1367.600  11.3        1.2  0.10000 
1367.700  11.3        1.0  0.20000 
1367.800  11.3        1.8  0.20000 
1367.900  11.3        1.8  0.20000 
1368.000  11.3        1.4  0.10000 
1368.100  11.3        2.9  0.20000 
1368.200  11.3        4.3  0.20000 
1368.300  11.3        4.3  0.10000 
1368.400  11.3        3.5  0.20000 
1368.500  11.3        4.4  0.20000 
1368.600  11.3        4.4  0.20000 
1368.700  11.3        3.5  0.10000 
1368.800  11.3        2.1  0.20000 
1368.900  11.3        2.1  0.20000 
1369.000  11.3        2.1  0.20000 
1369.100  11.2        0.8  0.10000 
1369.200  11.2        0.0  0.20000 
1369.300  11.2        0.0  0.20000 
1369.400  11.2        0.0  0.22000 
1369.500  11.2        0.0  0.11000 
1369.600  11.2        0.3  0.22000 
1369.700  11.2        1.2  0.22000 
1369.800  11.2        1.2  0.22000 
1369.900  11.2        1.2  0.00000 
1370.000  11.2        1.6  0.21000 
1370.100  11.2        2.2  0.20000 
1370.200  11.2        2.2  0.10000 
1370.300  11.2        1.0  0.20000 
1370.400  11.3        1.0  0.20000 
1370.500  11.4        1.0  0.20000 
1370.600  11.4        0.6  0.10000 
1370.700  11.4        0.0  0.20000 
1370.800  11.4        1.1  0.20000 
1370.900  11.4        1.1  0.20000 
1371.000  11.4        1.2  0.10000 
1371.100  11.4        1.3  0.20000 
1371.200  11.4        1.3  0.20000 
1371.300  11.4        1.3  0.20000 
1371.400  11.4        0.2  0.10000 
1371.500  11.4        0.1  0.20000 
1371.600  11.4        0.1  0.20000 
1371.700  11.4        0.0  0.20000 
1371.800  11.4        0.0  0.10000 
1371.900  11.4        0.0  0.21000 
1372.000  11.4        0.0  0.22000 
1372.100  11.4        0.0  0.11000 
1372.200  11.4        0.0  0.22000 
1372.300  11.4        0.0  0.22000 
1372.400  11.4        0.0  0.11000 
1372.500  11.4        0.0  0.11000 
1372.600  11.4        0.0  0.20000 
1372.700  11.4        0.0  0.20000 
1372.800  11.4        0.0  0.20000 
1372.900  11.4        0.0  0.10000 
1373.000  11.4        0.0  0.20000 
1373.100  11.4        0.2  0.20000 
1373.200  11.4        0.2  0.20000 
1373.300  11.4        0.2  0.10000 
1373.400  11.4        1.8  0.20000 
1373.500  11.4        2.2  0.20000 
1373.600  11.4        2.2  0.20000 
1373.700  11.4        2.0  0.10000 
1373.800  11.4        2.0  0.20000 
1373.900  11.4        2.0  0.20000 
1374.000  11.4        0.4  0.20000 
1374.100  11.4        0.0  0.10000 
1374.200  11.4        0.0  0.20000 
1374.300  11.4        0.2  0.20000 
1374.400  11.4        0.2  0.10000 
1374.500  11.4        0.7  0.20000 
1374.600  11.4        1.0  0.22000 
1374.700  11.4        1.0  0.22000 
1374.800  11.4        1.0  0.11000 
1374.900  11.4        0.8  0.22000 
1375.000  11.4        0.8  0.22000 
1375.100  11.4        0.3  0.11000 
1375.200  11.4        0.0  0.10000 
1375.300  11.4        0.0  0.20000 
1375.400  11.4        0.0  0.20000 
1375.500  11.3        0.0  0.10000 
1375.600  11.3        0.0  0.20000 
1375.700  11.3        0.0  0.20000 
1375.800  11.2        0.0  0.20000 
1375.900  11.2        0.0  0.10000 
1376.000  11.1        0.0  0.20000 
1376.100  10.8        0.0  0.20000 
1376.200  10.5        0.0  0.20000 
1376.300  10.4        0.0  0.10000 
1376.400  10.4        0.3  0.20000 
1376.500  10.4        0.4  0.20000 
1376.600  10.3        0.4  0.20000 
1376.700  10.3        0.4  0.10000 
1376.800  10.2        1.1  0.20000 
1376.900  10.1        1.1  0.20000 
1377.000  10.1        0.8  0.20000 
1377.100  10.1        0.7  0.10000 
1377.200  10.1        0.8  0.20000 
1377.300  10.1        0.8  0.20000 
1377.400  10.1        0.1  0.20000 
1377.500  10.1        0.1  0.10000 
1377.600  10.1        0.1  0.20000 
1377.700  10.1        0.0  0.20000 
1377.800  10.1        0.0  0.20000 
1377.900  10.1        0.0  0.10000 
1378.000  10.1        0.0  0.20000 
1378.100  10.1        0.0  0.20000 
1378.200  10.1        0.0  0.10000 
1378.300  10.2        0.0  0.20000 
1378.400  10.3        0.0  0.20000 
1378.500  10.5        0.0  0.20000 
1378.600  10.6        0.9  0.10000 
1378.700  10.7        1.0  0.20000 
1378.800  10.7        1.0  0.20000 
1378.900  10.7        1.0  0.20000 
1379.000  10.8        1.0  0.10000 
1379.100  10.8        1.0  0.20000 
1379.200  10.8        0.1  0.20000 
1379.300  10.8        0.0  0.20000 
1379.400  10.9        0.0  0.10000 
1379.500  10.9        0.0  0.20000 
1379.600  10.9        0.0  0.20000 
1379.700  10.9        0.0  0.21000 
1379.800  10.9        0.0  0.11000 
1379.900  10.9        0.0  0.22000 
1380.000  10.9        0.3  0.22000 
1380.100  10.9        0.3  0.22000 
1380.200  11.0        0.3  0.11000 
1380.300  11.0        1.0  0.11000 
1380.400  11.0        1.0  0.20000 
1380.500  11.0        1.0  0.20000 
1380.600  11.0        1.0  0.10000 
1380.700  10.9        0.7  0.20000 
1380.800  10.9        0.7  0.20000 
1380.900  10.9        0.7  0.10000 
1381.000  10.8        0.0  0.20000 
1381.100  10.8        0.0  0.20000 
1381.200  10.8        0.9  0.20000 
1381.300  10.8        0.9  0.10000 
1381.400  10.8        0.9  0.20000 
1381.500  10.8        0.9  0.20000 
1381.600  10.8        0.9  0.20000 
1381.700  10.8        0.9  0.10000 
1381.800  10.8        0.0  0.20000 
1381.900  10.7        0.0  0.20000 
1382.000  10.7        0.0  0.20000 
1382.100  10.9        0.0  0.10000 
1382.200  11.1        0.0  0.20000 
1382.300  11.1        0.0  0.20000 
1382.400  11.1        0.0  0.20000 
1382.500  11.2        0.0  0.10000 
1382.600  11.3        0.0  0.20000 
1382.700  11.2        0.2  0.20000 
1382.800  11.1        0.2  0.20000 
1382.900  11.1        0.2  0.10000 
1383.000  11.1        0.2  0.20000 
1383.100  11.1        0.2  0.20000 
1383.200  11.1        0.2  0.20000 
1383.300  11.1        0.0  0.10000 
1383.400  11.1        0.4  0.20000 
1383.500  11.1        0.4  0.20000 
1383.600  11.1        0.4  0.10000 
1383.700  11.1        0.4  0.20000 
1383.800  11.0        0.4  0.20000 
1383.900  10.9        0.4  0.20000 
1384.000  10.8        0.0  0.10000 
1384.100  10.8        0.5  0.20000 
1384.200  10.8        0.5  0.20000 
1384.300  10.8        0.5  0.20000 
1384.400  10.8        0.7  0.10000 
1384.500  10.8        0.7  0.20000 
1384.600  10.8        0.2  0.20000 
1384.700  10.8        0.2  0.20000 
1384.800  10.7        1.2  0.10000 
1384.900  10.8        1.2  0.20000 
1385.000  10.8        1.8  0.20000 
1385.100  10.8        1.8  0.20000 
1385.200  10.8        2.3  0.10000 
1385.300  10.8        1.3  0.20000 
1385.400  10.8        2.7  0.20000 
1385.500  10.8        2.7  0.20000 
1385.600  10.8        3.3  0.10000 
1385.700  10.7        2.8  0.20000 
1385.800  10.7        2.8  0.20000 
1385.900  10.7        2.8  0.10000 
1386.000  10.8        1.2  0.20000 
1386.100  10.8        0.3  0.20000 
1386.200  10.8        0.3  0.20000 
1386.300  10.8        0.4  0.10000 
1386.400  10.8        0.4  0.20000 
1386.500  10.8        0.4  0.20000 
1386.600  10.8        0.4  0.20000 
1386.700  10.8        0.1  0.10000 
1386.800  10.6        0.0  0.20000 
1386.900  10.6        0.0  0.20000 
1387.000  10.5        0.0  0.20000 
1387.100  10.4        0.0  0.10000 
1387.200  10.0        0.0  0.20000 
1387.300   9.9        0.0  0.20000 
1387.400   9.9        0.0  0.10000 
1387.500   9.9        0.1  0.20000 
1387.600   9.9        0.8  0.20000 
1387.700   9.8        0.8  0.20000 
1387.800   9.8        0.8  0.10000 
