~Version Information
 VERS.                2.0:  CWLS LOG ASCII STANDARD -VERSION 2.0
 WRAP.                 NO:  ONE LINE PER DEPTH STEP
~WELL INFORMATION BLOCK
#MNEM.UNIT       DATA		            DESCRIPTION OF MNEMONIC
#---------    -------------            ------------------------
 STRT.FT  1.400                          :START DEPTH
 STOP.FT  1872.000                       :STOP DEPTH
 STEP.FT  0.100                          :STEP    UP_HOLE  
 NULL.    0                              :NULL VALUE
 COMP.                            USGS   :COMPANY
 WELL.                      MCWD-DMW #1  :WELL
 FLD .                           Marina  :FIELD
 LOC .    None  None  None               :LOCATION
 CNTY.                         Monterey  :COUNTY
 STAT.             California            :STATE
 SRVC.    Western Reg                    :SERVICE COMPANY
 DATE.   05/27/00                        :LOG DATE
 UWI .                       	         :UNIQUE WELL ID
 LIC .                                   :LICENSE NUMBER
~Curve Information Block
#MNEM.UNIT      API CODE     Curve Description
#---------    -------------  ------------------------
 DEPT     .FT        00 001 00 00          :  1  DEPTH   
 TIME(N)  .USEC      00 000 00 00          :  2              TIME(N)
 TIME(F)  .USEC      00 000 00 00          :  3              TIME(F)
 DELTAT   .USEC/FT   00 522 00 00          :  4               DELTAT
 AMP(N)   .MV        00 000 00 00          :  5               AMP(N)
 AMP(F)   .MV        00 000 00 00          :  6               AMP(F)
 XTR PWR  .PERCENT   00 000 00 00          :  7              XTR PWR
 POR(SON) .PERCENT   00 890 00 00          :  8             POR(SON)
 BHC-DELT .USEC/FT   00 520 00 00          :  9             BHC-DELT
 TENSION  .POUNDS    00 000 00 00          : 10              TENSION
 TIME     .MINUTES   00 000 00 00          : 11                 TIME
~Parameter Information Block
#MNEM.UNIT   Information     Description
#---------- ---------------  ------------------------
~Other Information
#MNEM.UNIT  Information      Description
#---------- ---------------  ------------------------
 FILE.      ORIGINAL           File Type
 FIID.      9300A              File Type Identifier
 VERS.      1.0                System Version
 SER .      1                  System Serial Number
 TRUK.      0.5                Truck Calibration Number
 TOOL.         691             Tool Serial Number
 TIME.      07:18:             Time
 LAT .          None           Latitude
 LON .          None           Longitude
 LMF .           LSD           Log Measured From
 DMF .           LSD           Driller Measured From
 PD  .          None           Permanent Data
 PDEV.          None           Elevation Permanent Data
 EKB .M         None           Elevation Kelly Bushing
 ELEV.DF        None           Elevation DF
 EGL .M         None           Elevation Ground Level
 DRDP.         1990'           Driller's Depth
 CASD.         0               Casing Diameter
 CASB.          None           Casing Bottom
 CASX.          None           Casing Type
 CAST.         0               Casing Thickness
 TNOC.          None           Time Circulation Stopped
 LOGU.       WRRD              Logging Unit
 RECB.           Everett       Recorded By
 OSR1.       Pimente           Other Services
 OSR2.       mud vis           Other Services
 OSR3.           =62           Other Services
 BS  .MM           6           Bit Size
 MST .                         Mean Surface Temperature
 TGRD.        0                Temperature Gradiant
 MAGN.             0           Magnetic Declination
 MDEN.      2.71               Density Matrix
 MATR.       Dolomite          Neutron Matrix
 DTMT.            54           Delta T Matrix
 DTFL.                         Delta T Fluid
 MUDS.               0         Mud Sample Source
 MRS .           0             Mud Resistivity
 MTP .           0             Mud Temperature
 MFRS.                         Resistivity Mud Filtrate
 MFTP.                         Temperature Mud Filtrate
 MCRS.         0               Resistivity Mud Cake
 MCTP.                         Temperature Mud Cake
 FTYP.             0           Fluid Type
 FD  .K/M3                     Fluid Density
 DFV .S                        Fluid Viscosity
 FPH .                         Fuild PH
 ELCO.        2500             Electron Cutoff
# -------------------------- 
~A DEPTH  TIME(N) TIME(F) DELTAT AMP(N)   AMP(F)   XTR PWR POR(SON) BHC-DELT TENSION  TIME    
# ...
1369.900   604     753    149.3   2912.5   2095.0  13.0    40.6      152         4.7  0.20000 
1370.000   604     754    150.0   3178.0   2132.5  13.2    40.6      152         6.6  0.20000 
1370.100   604     755    151.1   3253.5   2170.0  13.2    40.7      153         5.3  0.20000 
1370.200   603     755    152.4   2949.0   2185.5  13.1    40.8      153         6.6  0.20000 
1370.300   603     756    153.4   2779.5   2238.5  13.0    40.9      154         6.1  0.20000 
1370.400   602     757    154.5   2842.0   2282.0  13.3    40.9      154         6.4  0.20000 
1370.500   602     757    155.3   2919.5   2267.5  14.4    41.0      155         4.9  0.20000 
1370.600   602     758    156.4   2930.5   2262.5  16.4    41.1      155         4.9  0.20000 
1370.700   601     759    157.4   2887.5   2236.0  17.8    41.2      156         6.5  0.20000 
1370.800   601     759    158.3   2888.5   2302.5  17.9    41.3      157         4.1  0.20000 
1370.900   600     759    159.1   2960.5   2397.5  17.6    41.4      158         5.7  0.20000 
1371.000   600     759    159.6   2923.5   2580.0  18.0    41.5      158         5.0  0.20000 
1371.100   600     759    159.8   2860.5   2575.5  18.6    41.5      158         6.4  0.20000 
1371.200   600     759    159.7   2848.5   2261.0  19.0    41.4      158         4.2  0.20000 
1371.300   600     759    159.4   2861.5   2079.0  19.1    41.4      157         4.2  0.20000 
1371.400   599     758    159.3   3031.0   2298.0  19.3    41.3      157         3.1  0.20000 
1371.500   599     758    159.3   3184.5   2381.0  19.7    41.3      157         2.9  0.20000 
1371.600   599     758    159.1   3147.0   2292.5  19.9    41.2      156         2.5  0.20000 
1371.700   599     758    159.0   3085.0   2228.0  19.8    41.2      156         1.8  0.20000 
1371.800   599     757    158.8   3073.5   2206.0  19.7    41.1      155         2.0  0.20000 
1371.900   599     757    158.4   3049.5   2252.5  19.7    41.0      155         1.3  0.20000 
1372.000   598     757    158.5   3072.0   2219.5  20.1    41.0      155         1.3  0.20000 
1372.100   598     756    158.4   3076.0   2163.5  20.7    41.0      155         0.3  0.20000 
1372.200   598     756    158.5   3047.0   2149.5  21.0    41.0      155         0.3  0.20000 
1372.300   597     756    158.7   3105.5   2158.0  21.1    41.1      155         0.1  0.20000 
1372.400   596     755    158.7   3158.5   2118.5  21.0    41.1      155         0.0  0.20000 
1372.500   595     754    159.0   2992.0   2092.5  20.8    41.2      156         0.1  0.20000 
1372.600   594     754    159.2   2895.0   2070.0  20.6    41.2      156         0.1  0.20000 
1372.700   593     753    159.4   2859.5   2022.0  20.4    41.3      157         0.1  0.20000 
1372.800   592     751    159.6   2810.5   1968.5  20.2    41.3      157         0.2  0.20000 
1372.900   590     750    159.9   2779.0   1866.0  20.7    41.3      157         0.2  0.20000 
1373.000   589     749    159.8   2793.0   1894.0  21.4    41.3      157         0.1  0.20000 
1373.100   588     747    159.8   2803.5   1894.0  21.7    41.4      157         0.1  0.20000 
1373.200   587     746    159.7   2789.5   1895.0  21.9    41.4      157         0.1  0.20000 
1373.300   586     745    159.4   2836.5   2014.0  22.0    41.4      157         1.3  0.20000 
1373.400   585     744    158.9   2900.5   2204.0  22.0    41.3      157         1.3  0.20000 
1373.500   584     743    158.4   2868.5   2224.0  21.9    41.3      157         2.5  0.20000 
1373.600   584     742    158.2   2744.0   2229.5  21.8    41.3      157         3.3  0.20000 
1373.700   584     741    157.6   2649.5   2231.0  21.6    41.3      156         3.4  0.20000 
1373.800   584     740    156.8   2597.0   2248.0  21.4    41.2      156         2.5  0.20000 
1373.900   584     740    155.7   2549.0   2228.0  21.4    41.1      155         3.7  0.20000 
1374.000   585     739    154.8   2583.0   2208.0  21.4    41.1      155         2.5  0.20000 
1374.100   585     739    154.2   2615.5   2165.0  21.1    41.0      155         3.5  0.20000 
1374.200   585     739    153.7   2539.0   2154.0  20.3    41.0      155         3.4  0.20000 
1374.300   585     738    153.9   2490.0   2160.5  19.4    41.1      155         3.6  0.20000 
1374.400   584     739    154.8   2598.5   2155.5  18.5    41.1      155         3.6  0.20000 
1374.500   584     738    154.9   2679.5   2101.0  17.7    41.1      156         4.0  0.20000 
1374.600   583     739    155.6   2692.5   2033.0  17.5    41.2      156         2.8  0.20000 
1374.700   583     740    156.5   2652.0   1980.0  17.7    41.3      156         2.8  0.20000 
1374.800   583     741    157.9   2652.5   2057.5  17.3    41.4      157         3.3  0.20000 
1374.900   583     742    159.3   2717.5   2160.5  16.7    41.5      158         2.1  0.20000 
1375.000   582     744    161.2   2801.0   2302.0  16.8    41.6      159         4.1  0.20000 
1375.100   582     745    162.8   2875.0   2477.0  17.1    41.7      160         3.5  0.20000 
1375.200   582     745    163.8   2972.3   2430.5  17.0    41.8      160         4.8  0.20000 
1375.300   581     746    164.1   2942.5   2338.5  16.7    41.8      160         6.9  0.20000 
1375.400   581     745    164.4   2850.5   2382.5  16.5    41.7      160         7.0  0.20000 
1375.500   581     745    164.8   2798.0   2438.0  16.3    41.8      160         6.3  0.20000 
1375.600   581     745    164.8   2802.5   2380.0  16.2    41.7      160         6.3  0.20000 
1375.700   581     745    164.4   2810.0   2297.0  16.6    41.6      159         9.9  0.20000 
1375.800   581     745    163.4   2853.0   2262.0  17.1    41.5      158         6.7  0.20000 
1375.900   582     744    162.0   2857.0   2216.0  17.4    41.3      157         9.5  0.20000 
1376.000   583     743    160.4   2847.5   2211.0  17.5    41.1      156         8.5  0.20000 
1376.100   584     743    158.9   2873.5   2259.0  17.7    40.9      154         8.9  0.20000 
1376.200   585     742    157.5   2927.5   2266.3  17.8    40.8      153         4.0  0.20000 
1376.300   586     742    155.8   2882.0   2244.0  17.8    40.6      152         4.0  0.20000 
1376.400   587     741    154.1   2901.0   2227.0  17.8    40.4      151         1.1  0.20000 
1376.500   588     740    152.8   2989.0   2288.0  17.5    40.3      150         0.4  0.20000 
1376.600   588     740    151.5   2936.0   2333.0  17.3    40.2      149         1.2  0.20000 
1376.700   589     740    150.4   2833.5   2251.5  17.2    40.2      149         1.2  0.20000 
1376.800   591     740    149.6   2683.5   2176.5  17.4    40.2      149         1.2  0.20000 
1376.900   592     741    148.6   2514.5   2106.5  17.5    40.2      149         2.0  0.20000 
1377.000   594     742    147.8   2459.0   2080.5  17.7    40.2      149         2.0  0.20000 
1377.100   595     742    147.1   2480.0   2097.5  18.1    40.2      149         0.8  0.20000 
1377.200   596     743    146.3   2536.5   2179.0  18.5    40.2      149         0.8  0.20000 
1377.300   597     744    146.4   2597.5   2210.3  18.8    40.3      150         0.8  0.20000 
1377.400   598     745    146.5   2738.0   2189.0  18.4    40.3      150         0.0  0.20000 
1377.500   599     745    146.5   2810.0   2182.0  17.6    40.4      150         0.3  0.20000 
1377.600   599     746    146.6   2749.5   2287.0  16.8    40.5      151         0.3  0.20000 
1377.700   600     747    147.1   2739.5   2352.0  16.2    40.6      152         0.3  0.20000 
1377.800   600     747    147.6   2689.0   2283.5  15.9    40.7      152         0.3  0.20000 
1377.900   601     749    148.3   2687.5   2221.0  16.0    40.8      153         0.3  0.20000 
1378.000   601     749    148.4   2798.0   2240.0  16.5    40.9      154         0.0  0.20000 
1378.100   601     750    148.9   2931.0   2287.0  16.6    41.0      154         0.0  0.20000 
1378.200   601     750    149.3   3042.5   2346.5  16.7    41.0      155         1.4  0.20000 
1378.300   600     749    149.7   3223.5   2407.5  16.7    41.1      155         2.2  0.20000 
