~Version Information
 VERS.                2.0:  CWLS LOG ASCII STANDARD -VERSION 2.0
 WRAP.                 NO:  ONE LINE PER DEPTH STEP
~WELL INFORMATION BLOCK
#MNEM.UNIT       DATA		            DESCRIPTION OF MNEMONIC
#---------    -------------            ------------------------
 STRT.FT  5.300                          :START DEPTH
 STOP.FT  1874.500                       :STOP DEPTH
 STEP.FT  0.100                          :STEP    UP_HOLE  
 NULL.    0                              :NULL VALUE
 COMP.                            USGS   :COMPANY
 WELL.                      MCWD-DMW #1  :WELL
 FLD .                           Marina  :FIELD
 LOC .    None  None  None               :LOCATION
 CNTY.                         Monterey  :COUNTY
 STAT.             California            :STATE
 SRVC.    Western Reg                    :SERVICE COMPANY
 DATE.   05/27/00                        :LOG DATE
 UWI .                       	         :UNIQUE WELL ID
 LIC .                                   :LICENSE NUMBER
~Curve Information Block
#MNEM.UNIT      API CODE     Curve Description
#---------    -------------  ------------------------
 DEPT     .FT        00 001 00 00          :  1  DEPTH   
 CALIPER  .INCH      00 280 00 00          :  2              CALIPER
 TENSION  .POUNDS    00 000 00 00          :  3              TENSION
 TIME     .MINUTES   00 000 00 00          :  4                 TIME
~Parameter Information Block
#MNEM.UNIT   Information     Description
#---------- ---------------  ------------------------
~Other Information
#MNEM.UNIT  Information      Description
#---------- ---------------  ------------------------
 FILE.      ORIGINAL           File Type
 FIID.      9065A              File Type Identifier
 VERS.      1.0                System Version
 SER .      1                  System Serial Number
 TRUK.      0.5                Truck Calibration Number
 TOOL.         573             Tool Serial Number
 TIME.      03:05:             Time
 LAT .          None           Latitude
 LON .          None           Longitude
 LMF .           LSD           Log Measured From
 DMF .           LSD           Driller Measured From
 PD  .          None           Permanent Data
 PDEV.          None           Elevation Permanent Data
 EKB .M         None           Elevation Kelly Bushing
 ELEV.DF        None           Elevation DF
 EGL .M         None           Elevation Ground Level
 DRDP.         1990'           Driller's Depth
 CASD.         0               Casing Diameter
 CASB.          None           Casing Bottom
 CASX.          None           Casing Type
 CAST.         0               Casing Thickness
 TNOC.          None           Time Circulation Stopped
 LOGU.       WRRD              Logging Unit
 RECB.           Everett       Recorded By
 OSR1.       Pimente           Other Services
 OSR2.       mud vis           Other Services
 OSR3.           =62           Other Services
 BS  .MM           6           Bit Size
 MST .                         Mean Surface Temperature
 TGRD.        0                Temperature Gradiant
 MAGN.             0           Magnetic Declination
 MDEN.      2.71               Density Matrix
 MATR.       Dolomite          Neutron Matrix
 DTMT.            54           Delta T Matrix
 DTFL.                         Delta T Fluid
 MUDS.               0         Mud Sample Source
 MRS .           0             Mud Resistivity
 MTP .           0             Mud Temperature
 MFRS.                         Resistivity Mud Filtrate
 MFTP.                         Temperature Mud Filtrate
 MCRS.         0               Resistivity Mud Cake
 MCTP.                         Temperature Mud Cake
 FTYP.             0           Fluid Type
 FD  .K/M3                     Fluid Density
 DFV .S                        Fluid Viscosity
 FPH .                         Fuild PH
 ELCO.        2500             Electron Cutoff
# -------------------------- 
~A DEPTH  CALIPER TENSION  TIME    
# ...
 495.900   9.3        0.0  0.20000 
 496.000   9.3        0.0  0.20000 
 496.100   9.3        0.0  0.20000 
 496.200   9.3        0.0  0.10000 
 496.300   9.3        0.0  0.20000 
 496.400   9.3        0.0  0.20000 
 496.500   9.3        0.0  0.10000 
 496.600   9.3        0.0  0.20000 
 496.700   9.3        0.1  0.20000 
 496.800   9.3        0.1  0.20000 
 496.900   9.3        0.1  0.10000 
 497.000   9.3        0.1  0.20000 
 497.100   9.3        0.1  0.20000 
 497.200   9.3        0.4  0.10000 
 497.300   9.3        0.3  0.20000 
 497.400   9.3        0.3  0.20000 
 497.500   9.3        0.3  0.20000 
 497.600   9.3        0.3  0.11000 
 497.700   9.3        0.5  0.22000 
 497.800   9.3        0.7  0.22000 
 497.900   9.3        0.7  0.11000 
 498.000   9.3        0.7  0.22000 
 498.100   9.3        1.0  0.11000 
 498.200   9.3        1.0  0.21000 
 498.300   9.3        1.4  0.10000 
 498.400   9.3        1.4  0.20000 
 498.500   9.3        0.9  0.20000 
 498.600   9.3        0.9  0.20000 
 498.700   9.3        0.6  0.10000 
 498.800   9.3        1.0  0.20000 
 498.900   9.3        0.4  0.20000 
 499.000   9.3        0.4  0.10000 
 499.100   9.3        0.4  0.22000 
 499.200   9.3        1.1  0.22000 
 499.300   9.3        1.1  0.11000 
 499.400   9.3        0.7  0.22000 
 499.500   9.3        0.7  0.22000 
 499.600   9.3        0.7  0.11000 
 499.700   9.3        0.7  0.10000 
 499.800   9.3        0.2  0.20000 
 499.900   9.3        0.2  0.20000 
 500.000   9.3        0.2  0.10000 
 500.100   9.3        0.2  0.20000 
 500.200   9.3        0.4  0.20000 
 500.300   9.3        0.4  0.20000 
 500.400   9.3        1.6  0.10000 
 500.500   9.3        1.4  0.20000 
 500.600   9.3        1.4  0.20000 
 500.700   9.3        1.4  0.10000 
 500.800   9.3        1.3  0.20000 
 500.900   9.3        0.1  0.20000 
 501.000   9.3        0.1  0.20000 
 501.100   9.3        0.4  0.10000 
 501.200   9.3        0.4  0.20000 
 501.300   9.3        0.8  0.20000 
 501.400   9.3        0.7  0.20000 
 501.500   9.3        0.7  0.10000 
 501.600   9.3        0.7  0.20000 
 501.700   9.3        0.4  0.20000 
 501.800   9.3        0.4  0.10000 
 501.900   9.3        0.0  0.20000 
 502.000   9.3        0.0  0.20000 
 502.100   9.3        0.0  0.20000 
 502.200   9.3        0.0  0.10000 
 502.300   9.3        0.0  0.20000 
 502.400   9.3        0.0  0.20000 
 502.500   9.3        0.0  0.10000 
 502.600   9.3        0.0  0.20000 
 502.700   9.3        0.0  0.20000 
 502.800   9.3        0.0  0.21000 
 502.900   9.3        0.0  0.11000 
 503.000   9.3        0.0  0.22000 
 503.100   9.3        0.0  0.22000 
 503.200   9.3        0.0  0.11000 
 503.300   9.3        0.0  0.22000 
 503.400   9.3        0.0  0.11000 
 503.500   9.3        0.0  0.20000 
 503.600   9.3        0.0  0.10000 
 503.700   9.3        0.0  0.20000 
 503.800   9.3        0.0  0.20000 
 503.900   9.3        0.0  0.20000 
 504.000   9.4        0.0  0.10000 
 504.100   9.4        0.0  0.21000 
 504.200   9.4        0.0  0.22000 
 504.300   9.4        0.0  0.11000 
 504.400   9.3        0.0  0.22000 
 504.500   9.3        0.0  0.22000 
 504.600   9.3        0.0  0.11000 
 504.700   9.3        0.0  0.11000 
 504.800   9.3        0.0  0.20000 
 504.900   9.3        0.0  0.20000 
 505.000   9.3        0.0  0.10000 
 505.100   9.3        0.0  0.20000 
 505.200   9.3        0.0  0.20000 
 505.300   9.3        0.0  0.20000 
 505.400   9.3        0.0  0.11000 
 505.500   9.3        0.0  0.22000 
 505.600   9.3        0.0  0.22000 
 505.700   9.4        0.0  0.11000 
 505.800   9.4        0.0  0.22000 
 505.900   9.4        0.0  0.11000 
 506.000   9.4        0.0  0.21000 
 506.100   9.4        0.0  0.10000 
 506.200   9.4        0.0  0.20000 
 506.300   9.4        0.4  0.20000 
 506.400   9.4        0.4  0.10000 
 506.500   9.4        0.4  0.20000 
 506.600   9.3        0.4  0.20000 
 506.700   9.3        0.4  0.20000 
 506.800   9.3        0.4  0.10000 
 506.900   9.3        0.0  0.20000 
 507.000   9.3        0.0  0.20000 
 507.100   9.3        0.0  0.10000 
 507.200   9.3        0.5  0.20000 
 507.300   9.3        0.5  0.20000 
 507.400   9.3        0.6  0.20000 
 507.500   9.3        0.9  0.10000 
 507.600   9.3        0.9  0.20000 
 507.700   9.3        0.9  0.20000 
 507.800   9.3        0.4  0.10000 
 507.900   9.3        0.4  0.20000 
 508.000   9.3        0.3  0.20000 
 508.100   9.3        0.0  0.20000 
 508.200   9.3        0.1  0.10000 
 508.300   9.3        0.6  0.20000 
 508.400   9.3        0.6  0.20000 
 508.500   9.3        0.6  0.20000 
 508.600   9.3        0.6  0.10000 
 508.700   9.3        0.5  0.20000 
 508.800   9.3        0.5  0.20000 
 508.900   9.3        0.0  0.10000 
 509.000   9.3        0.0  0.20000 
 509.100   9.3        0.0  0.20000 
 509.200   9.3        0.0  0.20000 
 509.300   9.3        0.7  0.10000 
 509.400   9.3        0.7  0.20000 
 509.500   9.3        1.2  0.20000 
 509.600   9.3        1.2  0.10000 
 509.700   9.3        1.2  0.20000 
 509.800   9.3        0.5  0.20000 
 509.900   9.3        0.5  0.20000 
 510.000   9.3        0.5  0.10000 
 510.100   9.3        0.0  0.20000 
 510.200   9.3        0.0  0.20000 
 510.300   9.3        0.0  0.10000 
 510.400   9.4        0.0  0.20000 
 510.500   9.4        0.0  0.20000 
 510.600   9.3        0.0  0.20000 
 510.700   9.3        0.0  0.10000 
 510.800   9.3        0.0  0.20000 
 510.900   9.4        0.0  0.20000 
 511.000   9.4        0.0  0.10000 
 511.100   9.3        0.0  0.20000 
 511.200   9.4        0.0  0.20000 
 511.300   9.3        0.0  0.20000 
 511.400   9.3        0.0  0.10000 
 511.500   9.3        0.0  0.20000 
 511.600   9.3        0.0  0.20000 
 511.700   9.3        0.0  0.20000 
 511.800   9.3        0.0  0.10000 
 511.900   9.3        0.0  0.20000 
 512.000   9.3        0.0  0.20000 
 512.100   9.3        0.0  0.10000 
 512.200   9.3        0.0  0.20000 
 512.300   9.3        0.0  0.20000 
 512.400   9.3        0.0  0.20000 
 512.500   9.3        0.0  0.10000 
 512.600   9.3        0.0  0.20000 
 512.700   9.3        0.0  0.20000 
 512.800   9.3        0.0  0.10000 
 512.900   9.3        0.0  0.20000 
 513.000   9.3        0.0  0.20000 
 513.100   9.3        0.0  0.20000 
 513.200   9.3        0.0  0.10000 
 513.300   9.3        0.0  0.20000 
 513.400   9.3        0.0  0.20000 
 513.500   9.3        0.0  0.10000 
 513.600   9.3        0.0  0.20000 
 513.700   9.3        0.0  0.20000 
 513.800   9.3        0.0  0.20000 
 513.900   9.3        0.0  0.10000 
 514.000   9.3        0.0  0.20000 
 514.100   9.3        0.0  0.20000 
 514.200   9.3        0.0  0.20000 
 514.300   9.3        0.0  0.10000 
 514.400   9.3        0.0  0.20000 
 514.500   9.3        0.7  0.20000 
 514.600   9.3        0.7  0.10000 
 514.700   9.3        1.1  0.20000 
 514.800   9.3        1.1  0.20000 
 514.900   9.3        1.1  0.20000 
 515.000   9.3        1.1  0.10000 
 515.100   9.4        0.4  0.20000 
 515.200   9.4        0.4  0.20000 
 515.300   9.4        0.0  0.20000 
 515.400   9.4        0.0  0.10000 
 515.500   9.4        0.0  0.20000 
 515.600   9.4        0.0  0.20000 
 515.700   9.4        0.0  0.10000 
 515.800   9.4        0.0  0.20000 
 515.900   9.4        0.0  0.20000 
 516.000   9.4        0.0  0.20000 
 516.100   9.4        0.0  0.10000 
 516.200   9.4        0.0  0.20000 
 516.300   9.4        0.0  0.20000 
 516.400   9.3        0.0  0.10000 
 516.500   9.3        0.0  0.20000 
 516.600   9.3        0.1  0.20000 
 516.700   9.3        0.1  0.20000 
 516.800   9.3        0.2  0.10000 
 516.900   9.3        0.3  0.20000 
 517.000   9.3        0.6  0.20000 
 517.100   9.3        0.6  0.20000 
 517.200   9.3        0.6  0.10000 
 517.300   9.3        0.5  0.20000 
 517.400   9.3        0.4  0.20000 
 517.500   9.3        0.8  0.10000 
 517.600   9.3        0.5  0.20000 
 517.700   9.3        0.5  0.20000 
 517.800   9.3        0.4  0.20000 
 517.900   9.4        0.4  0.10000 
 518.000   9.4        0.4  0.20000 
 518.100   9.3        0.0  0.20000 
