~Version Information
 VERS.                2.0:  CWLS LOG ASCII STANDARD -VERSION 2.0
 WRAP.                 NO:  ONE LINE PER DEPTH STEP
~WELL INFORMATION BLOCK
#MNEM.UNIT       DATA		            DESCRIPTION OF MNEMONIC
#---------    -------------            ------------------------
 STRT.FT  1.400                          :START DEPTH
 STOP.FT  1872.000                       :STOP DEPTH
 STEP.FT  0.100                          :STEP    UP_HOLE  
 NULL.    0                              :NULL VALUE
 COMP.                            USGS   :COMPANY
 WELL.                      MCWD-DMW #1  :WELL
 FLD .                           Marina  :FIELD
 LOC .    None  None  None               :LOCATION
 CNTY.                         Monterey  :COUNTY
 STAT.             California            :STATE
 SRVC.    Western Reg                    :SERVICE COMPANY
 DATE.   05/27/00                        :LOG DATE
 UWI .                       	         :UNIQUE WELL ID
 LIC .                                   :LICENSE NUMBER
~Curve Information Block
#MNEM.UNIT      API CODE     Curve Description
#---------    -------------  ------------------------
 DEPT     .FT        00 001 00 00          :  1  DEPTH   
 TIME(N)  .USEC      00 000 00 00          :  2              TIME(N)
 TIME(F)  .USEC      00 000 00 00          :  3              TIME(F)
 DELTAT   .USEC/FT   00 522 00 00          :  4               DELTAT
 AMP(N)   .MV        00 000 00 00          :  5               AMP(N)
 AMP(F)   .MV        00 000 00 00          :  6               AMP(F)
 XTR PWR  .PERCENT   00 000 00 00          :  7              XTR PWR
 POR(SON) .PERCENT   00 890 00 00          :  8             POR(SON)
 BHC-DELT .USEC/FT   00 520 00 00          :  9             BHC-DELT
 TENSION  .POUNDS    00 000 00 00          : 10              TENSION
 TIME     .MINUTES   00 000 00 00          : 11                 TIME
~Parameter Information Block
#MNEM.UNIT   Information     Description
#---------- ---------------  ------------------------
~Other Information
#MNEM.UNIT  Information      Description
#---------- ---------------  ------------------------
 FILE.      ORIGINAL           File Type
 FIID.      9300A              File Type Identifier
 VERS.      1.0                System Version
 SER .      1                  System Serial Number
 TRUK.      0.5                Truck Calibration Number
 TOOL.         691             Tool Serial Number
 TIME.      07:18:             Time
 LAT .          None           Latitude
 LON .          None           Longitude
 LMF .           LSD           Log Measured From
 DMF .           LSD           Driller Measured From
 PD  .          None           Permanent Data
 PDEV.          None           Elevation Permanent Data
 EKB .M         None           Elevation Kelly Bushing
 ELEV.DF        None           Elevation DF
 EGL .M         None           Elevation Ground Level
 DRDP.         1990'           Driller's Depth
 CASD.         0               Casing Diameter
 CASB.          None           Casing Bottom
 CASX.          None           Casing Type
 CAST.         0               Casing Thickness
 TNOC.          None           Time Circulation Stopped
 LOGU.       WRRD              Logging Unit
 RECB.           Everett       Recorded By
 OSR1.       Pimente           Other Services
 OSR2.       mud vis           Other Services
 OSR3.           =62           Other Services
 BS  .MM           6           Bit Size
 MST .                         Mean Surface Temperature
 TGRD.        0                Temperature Gradiant
 MAGN.             0           Magnetic Declination
 MDEN.      2.71               Density Matrix
 MATR.       Dolomite          Neutron Matrix
 DTMT.            54           Delta T Matrix
 DTFL.                         Delta T Fluid
 MUDS.               0         Mud Sample Source
 MRS .           0             Mud Resistivity
 MTP .           0             Mud Temperature
 MFRS.                         Resistivity Mud Filtrate
 MFTP.                         Temperature Mud Filtrate
 MCRS.         0               Resistivity Mud Cake
 MCTP.                         Temperature Mud Cake
 FTYP.             0           Fluid Type
 FD  .K/M3                     Fluid Density
 DFV .S                        Fluid Viscosity
 FPH .                         Fuild PH
 ELCO.        2500             Electron Cutoff
# -------------------------- 
~A DEPTH  TIME(N) TIME(F) DELTAT AMP(N)   AMP(F)   XTR PWR POR(SON) BHC-DELT TENSION  TIME    
# ...
 995.900   524     673    149.0   2464.0   1545.0  44.7    40.1      149         0.0  0.20000 
 996.000   523     672    148.8   2095.5   1512.0  44.1    40.1      148         0.0  0.20000 
 996.100   522     671    149.1   1753.0   1462.0  43.3    40.1      148         0.0  0.20000 
 996.200   521     670    149.9   1704.5   1482.5  41.9    40.1      149         0.0  0.20000 
 996.300   520     671    150.7   1876.0   1532.0  40.1    40.1      149         0.0  0.20000 
 996.400   520     671    151.3   2261.5   1668.5  38.7    40.1      149         0.0  0.20000 
 996.500   520     672    151.9   2679.0   1780.0  37.9    40.2      149         0.0  0.20000 
 996.600   520     672    152.3   2667.0   1761.0  36.8    40.3      150         0.0  0.20000 
 996.700   520     673    153.3   2472.5   1772.5  35.7    40.4      151         0.0  0.20000 
 996.800   520     675    154.8   2390.0   1950.5  35.1    40.6      152         0.0  0.20000 
 996.900   521     677    156.1   2467.0   2225.5  34.9    40.8      153         0.0  0.20000 
 997.000   522     679    156.3   2642.5   2500.5  35.4    40.9      154         0.0  0.20000 
 997.100   524     680    155.8   2926.5   2816.5  36.6    41.0      154         0.0  0.20000 
 997.200   524     679    154.6   3213.0   3041.0  37.0    40.9      154         0.0  0.20000 
 997.300   525     677    152.6   3104.5   3039.0  36.6    40.9      154         0.0  0.20000 
 997.400   525     674    149.9   2991.5   2876.0  35.7    40.7      152         0.0  0.20000 
 997.500   524     672    147.3   3006.0   2824.0  34.3    40.4      151         0.0  0.20000 
 997.600   523     669    145.8   3347.5   2686.5  33.3    40.1      149         0.0  0.10000 
 997.700   522     665    143.4   3437.0   2392.0  33.1    39.7      146         0.0  0.20000 
 997.800   522     663    141.1   2950.0   2147.0  33.2    39.4      144         0.0  0.20000 
 997.900   523     662    139.3   2472.5   1997.0  33.2    39.0      142         0.0  0.20000 
 998.000   525     661    135.9   2351.5   1908.5  33.3    38.5      139         0.0  0.20000 
 998.100   527     660    132.2   2307.5   1926.0  34.5    38.0      136         0.0  0.20000 
 998.200   529     659    130.1   2275.5   1897.5  36.8    37.5      133         0.0  0.20000 
 998.300   530     659    129.2   2348.5   1903.5  38.9    37.1      132         0.0  0.20000 
 998.400   531     660    129.4   2337.5   2091.0  39.3    36.9      131         0.0  0.20000 
 998.500   532     661    129.6   2102.5   2299.0  38.4    36.8      130         0.0  0.20000 
 998.600   533     662    128.4   1944.0   2519.0  37.1    36.7      129         0.0  0.20000 
 998.700   535     663    127.4   2145.0   2612.5  35.8    36.6      129         0.0  0.20000 
 998.800   537     664    127.6   2497.5   2475.0  34.9    36.8      130         0.0  0.20000 
 998.900   537     666    128.6   2765.0   2275.5  34.1    36.9      131         0.0  0.20000 
 999.000   538     669    130.8   2745.5   2154.5  32.7    37.1      132         0.0  0.20000 
 999.100   537     672    134.8   2592.5   2179.0  30.2    37.6      134         0.0  0.20000 
 999.200   536     674    138.3   2757.0   2346.0  27.3    38.0      136         0.4  0.20000 
 999.300   533     675    141.1   2989.5   2378.5  25.5    38.5      139         0.4  0.20000 
 999.400   531     675    144.0   3049.5   2162.5  25.2    39.0      142         0.4  0.20000 
 999.500   528     676    147.5   2935.0   2027.5  25.5    39.5      145         0.4  0.20000 
 999.600   525     676    151.3   2793.0   1900.0  24.9    40.0      148         0.4  0.20000 
 999.700   523     677    154.8   2799.5   1994.5  23.5    40.4      151         0.0  0.20000 
 999.800   521     678    157.1   2831.5   2270.0  22.7    40.8      154         0.0  0.20000 
 999.900   520     677    157.7   2802.0   2394.0  22.8    41.1      155         0.0  0.20000 
1000.000   520     677    157.1   2926.0   2203.5  23.0    41.3      157         0.0  0.20000 
1000.100   520     675    155.3   3155.0   1876.5  23.3    41.3      157         0.0  0.20000 
1000.200   520     673    152.8   3119.0   1836.0  23.2    41.1      156         0.0  0.20000 
1000.300   521     671    150.4   2951.5   1997.5  23.2    40.9      154         0.0  0.20000 
1000.400   521     669    147.5   2823.0   2167.0  23.1    40.5      151         0.0  0.20000 
1000.500   522     666    143.8   2717.5   2170.5  22.4    40.0      148         0.0  0.20000 
1000.600   523     662    139.3   2812.0   2256.0  22.1    39.4      144         0.0  0.10000 
1000.700   523     659    135.9   2980.5   2254.5  22.6    38.8      141         0.0  0.20000 
1000.800   523     657    133.9   3199.5   2164.0  22.7    38.4      138         0.0  0.20000 
1000.900   523     656    133.1   3173.0   1972.5  22.5    38.2      137         0.0  0.20000 
1001.000   523     656    133.3   2966.0   1884.0  21.8    38.0      136         0.0  0.20000 
1001.100   523     657    134.0   2601.5   2040.5  20.5    37.8      135         0.0  0.20000 
1001.200   523     658    134.9   2422.5   2053.5  19.4    37.8      135         0.0  0.20000 
1001.300   523     658    135.4   2644.5   1992.5  19.0    37.8      135         0.2  0.20000 
1001.400   522     658    136.1   2906.5   1902.0  19.6    38.0      136         0.2  0.20000 
1001.500   521     659    137.6   2754.0   1787.0  20.2    38.2      137         1.3  0.20000 
1001.600   520     660    140.1   2669.5   1701.5  20.3    38.6      140         1.7  0.20000 
1001.700   519     661    141.6   2677.0   1778.0  19.8    38.9      141         1.7  0.20000 
1001.800   518     661    142.4   2666.0   2003.0  19.3    39.1      142         2.2  0.20000 
1001.900   517     660    142.8   2510.0   2167.5  20.5    39.2      143         2.2  0.20000 
1002.000   517     660    142.9   2324.0   2210.5  22.5    39.3      143         1.1  0.20000 
1002.100   517     659    142.6   2251.0   2278.5  23.9    39.3      144         0.7  0.20000 
1002.200   516     659    142.8   2373.5   2343.0  24.8    39.3      144         0.7  0.20000 
1002.300   515     658    142.4   2527.5   2594.5  25.6    39.3      143         0.0  0.20000 
1002.400   515     656    140.9   2692.0   2974.5  26.8    39.2      143         0.0  0.20000 
1002.500   515     654    139.5   2781.5   2945.5  27.6    39.0      142         0.0  0.20000 
1002.600   515     652    137.5   2795.5   2876.0  27.4    38.8      140         0.0  0.20000 
1002.700   514     651    136.4   2888.0   2824.0  26.5    38.6      139         0.0  0.20000 
1002.800   514     649    135.6   3175.0   2832.0  25.6    38.4      139         0.0  0.20000 
1002.900   513     648    135.0   3373.0   2941.0  24.7    38.3      138         0.0  0.20000 
1003.000   511     646    134.8   3413.0   2786.5  23.8    38.1      137         0.0  0.20000 
1003.100   510     645    134.6   3417.0   2437.5  23.1    38.0      136         0.0  0.20000 
1003.200   509     643    134.7   3286.0   2267.5  22.7    38.0      136         0.0  0.20000 
1003.300   508     643    134.9   3037.0   2131.0  22.8    38.0      136         0.0  0.20000 
1003.400   508     642    134.9   2773.0   2003.0  23.8    38.0      136         0.0  0.20000 
1003.500   507     643    135.8   2731.0   1946.0  25.0    38.1      137         0.1  0.20000 
1003.600   507     643    136.1   2912.0   2008.0  26.4    38.1      137         0.1  0.20000 
1003.700   507     644    136.6   3143.5   2101.0  27.9    38.1      137         0.1  0.20000 
1003.800   506     643    137.4   3303.5   2194.0  28.9    38.1      137         0.1  0.20000 
1003.900   505     643    137.6   3093.5   2150.0  29.2    38.1      137         0.1  0.20000 
1004.000   505     642    137.6   2796.5   2119.0  28.7    38.2      137         0.1  0.20000 
1004.100   504     641    137.8   2734.0   2246.5  28.2    38.2      137         0.1  0.20000 
1004.200   502     641    138.1   2654.0   2257.5  28.1    38.3      138         0.1  0.10000 
1004.300   501     640    138.3   2722.0   2210.0  28.8    38.3      138         0.1  0.20000 
