~Version Information
 VERS.                2.0:  CWLS LOG ASCII STANDARD -VERSION 2.0
 WRAP.                 NO:  ONE LINE PER DEPTH STEP
~WELL INFORMATION BLOCK
#MNEM.UNIT       DATA		            DESCRIPTION OF MNEMONIC
#---------    -------------            ------------------------
 STRT.FT  5.300                          :START DEPTH
 STOP.FT  1874.500                       :STOP DEPTH
 STEP.FT  0.100                          :STEP    UP_HOLE  
 NULL.    0                              :NULL VALUE
 COMP.                            USGS   :COMPANY
 WELL.                      MCWD-DMW #1  :WELL
 FLD .                           Marina  :FIELD
 LOC .    None  None  None               :LOCATION
 CNTY.                         Monterey  :COUNTY
 STAT.             California            :STATE
 SRVC.    Western Reg                    :SERVICE COMPANY
 DATE.   05/27/00                        :LOG DATE
 UWI .                       	         :UNIQUE WELL ID
 LIC .                                   :LICENSE NUMBER
~Curve Information Block
#MNEM.UNIT      API CODE     Curve Description
#---------    -------------  ------------------------
 DEPT     .FT        00 001 00 00          :  1  DEPTH   
 CALIPER  .INCH      00 280 00 00          :  2              CALIPER
 TENSION  .POUNDS    00 000 00 00          :  3              TENSION
 TIME     .MINUTES   00 000 00 00          :  4                 TIME
~Parameter Information Block
#MNEM.UNIT   Information     Description
#---------- ---------------  ------------------------
~Other Information
#MNEM.UNIT  Information      Description
#---------- ---------------  ------------------------
 FILE.      ORIGINAL           File Type
 FIID.      9065A              File Type Identifier
 VERS.      1.0                System Version
 SER .      1                  System Serial Number
 TRUK.      0.5                Truck Calibration Number
 TOOL.         573             Tool Serial Number
 TIME.      03:05:             Time
 LAT .          None           Latitude
 LON .          None           Longitude
 LMF .           LSD           Log Measured From
 DMF .           LSD           Driller Measured From
 PD  .          None           Permanent Data
 PDEV.          None           Elevation Permanent Data
 EKB .M         None           Elevation Kelly Bushing
 ELEV.DF        None           Elevation DF
 EGL .M         None           Elevation Ground Level
 DRDP.         1990'           Driller's Depth
 CASD.         0               Casing Diameter
 CASB.          None           Casing Bottom
 CASX.          None           Casing Type
 CAST.         0               Casing Thickness
 TNOC.          None           Time Circulation Stopped
 LOGU.       WRRD              Logging Unit
 RECB.           Everett       Recorded By
 OSR1.       Pimente           Other Services
 OSR2.       mud vis           Other Services
 OSR3.           =62           Other Services
 BS  .MM           6           Bit Size
 MST .                         Mean Surface Temperature
 TGRD.        0                Temperature Gradiant
 MAGN.             0           Magnetic Declination
 MDEN.      2.71               Density Matrix
 MATR.       Dolomite          Neutron Matrix
 DTMT.            54           Delta T Matrix
 DTFL.                         Delta T Fluid
 MUDS.               0         Mud Sample Source
 MRS .           0             Mud Resistivity
 MTP .           0             Mud Temperature
 MFRS.                         Resistivity Mud Filtrate
 MFTP.                         Temperature Mud Filtrate
 MCRS.         0               Resistivity Mud Cake
 MCTP.                         Temperature Mud Cake
 FTYP.             0           Fluid Type
 FD  .K/M3                     Fluid Density
 DFV .S                        Fluid Viscosity
 FPH .                         Fuild PH
 ELCO.        2500             Electron Cutoff
# -------------------------- 
~A DEPTH  CALIPER TENSION  TIME    
# ...
 875.000   9.1        0.7  0.20000 
 875.100   9.1        1.3  0.20000 
 875.200   9.1        1.3  0.20000 
 875.300   9.1        1.3  0.10000 
 875.400   9.1        1.8  0.20000 
 875.500   9.1        1.7  0.20000 
 875.600   9.1        1.7  0.21000 
 875.700   9.1        1.7  0.22000 
 875.800   9.1        1.9  0.22000 
 875.900   9.1        0.9  0.22000 
 876.000   9.1        1.3  0.22000 
 876.100   9.1        1.3  0.11000 
 876.200   9.1        0.6  0.10000 
 876.300   9.1        0.4  0.20000 
 876.400   9.1        0.4  0.20000 
 876.500   9.1        0.4  0.20000 
 876.600   9.1        0.2  0.20000 
 876.700   9.1        0.2  0.20000 
 876.800   9.1        0.2  0.22000 
 876.900   9.1        0.7  0.22000 
 877.000   9.1        0.7  0.22000 
 877.100   9.1        0.5  0.11000 
 877.200   9.1        0.5  0.22000 
 877.300   9.1        0.5  0.11000 
 877.400   9.1        0.0  0.20000 
 877.500   9.1        0.0  0.20000 
 877.600   9.1        0.0  0.20000 
 877.700   9.1        0.0  0.20000 
 877.800   9.1        0.0  0.10000 
 877.900   9.1        0.0  0.20000 
 878.000   9.1        0.0  0.20000 
 878.100   9.1        0.0  0.20000 
 878.200   9.1        0.0  0.20000 
 878.300   9.1        0.0  0.20000 
 878.400   9.1        0.0  0.20000 
 878.500   9.1        0.0  0.20000 
 878.600   9.1        0.0  0.20000 
 878.700   9.1        0.0  0.10000 
 878.800   9.1        0.0  0.20000 
 878.900   9.1        0.0  0.20000 
 879.000   9.1        0.0  0.20000 
 879.100   9.1        0.0  0.22000 
 879.200   9.1        0.0  0.22000 
 879.300   9.1        0.0  0.22000 
 879.400   9.1        0.0  0.22000 
 879.500   9.1        0.0  0.11000 
 879.600   9.1        0.0  0.11000 
 879.700   9.1        0.0  0.20000 
 879.800   9.1        0.0  0.20000 
 879.900   9.1        0.0  0.20000 
 880.000   9.1        0.0  0.20000 
 880.100   9.0        0.0  0.20000 
 880.200   9.0        0.0  0.20000 
 880.300   9.0        0.0  0.11000 
 880.400   9.0        0.0  0.22000 
 880.500   9.0        0.0  0.22000 
 880.600   9.0        0.0  0.22000 
 880.700   9.0        0.0  0.22000 
 880.800   9.0        0.0  0.11000 
 880.900   9.0        0.0  0.20000 
 881.000   9.0        0.0  0.20000 
 881.100   9.1        0.0  0.20000 
 881.200   9.1        0.0  0.10000 
 881.300   9.1        0.0  0.20000 
 881.400   9.1        0.0  0.20000 
 881.500   9.1        0.0  0.22000 
 881.600   9.1        0.0  0.22000 
 881.700   9.1        0.0  0.22000 
 881.800   9.1        0.0  0.22000 
 881.900   9.0        0.1  0.11000 
 882.000   9.1        0.1  0.21000 
 882.100   9.1        0.6  0.10000 
 882.200   9.1        0.9  0.20000 
 882.300   9.1        0.9  0.20000 
 882.400   9.1        0.9  0.20000 
 882.500   9.1        0.8  0.20000 
 882.600   9.1        0.8  0.22000 
 882.700   9.1        0.3  0.22000 
 882.800   9.1        0.0  0.11000 
 882.900   9.1        0.0  0.22000 
 883.000   9.1        0.0  0.22000 
 883.100   9.1        0.0  0.11000 
 883.200   9.1        0.0  0.20000 
 883.300   9.1        0.0  0.20000 
 883.400   9.1        0.0  0.20000 
 883.500   9.1        0.2  0.20000 
 883.600   9.1        0.2  0.20000 
 883.700   9.1        0.2  0.10000 
 883.800   9.1        0.2  0.20000 
 883.900   9.1        0.2  0.20000 
 884.000   9.1        0.0  0.20000 
 884.100   9.1        0.0  0.20000 
 884.200   9.1        0.0  0.20000 
 884.300   9.1        0.0  0.20000 
 884.400   9.1        0.0  0.20000 
 884.500   9.1        0.0  0.20000 
 884.600   9.1        0.0  0.10000 
 884.700   9.1        0.0  0.20000 
 884.800   9.1        0.0  0.20000 
 884.900   9.1        0.0  0.20000 
 885.000   9.1        0.0  0.20000 
 885.100   9.1        0.0  0.20000 
 885.200   9.1        0.0  0.20000 
 885.300   9.1        0.0  0.20000 
 885.400   9.1        0.0  0.10000 
 885.500   9.1        0.0  0.20000 
 885.600   9.0        0.0  0.20000 
 885.700   9.0        0.0  0.20000 
 885.800   9.0        0.0  0.20000 
 885.900   9.0        0.0  0.20000 
 886.000   9.0        0.0  0.20000 
 886.100   9.0        0.0  0.20000 
 886.200   9.0        0.0  0.20000 
 886.300   9.0        0.0  0.10000 
 886.400   9.0        0.1  0.20000 
 886.500   9.0        0.1  0.20000 
 886.600   9.0        0.1  0.20000 
 886.700   9.1        0.5  0.20000 
 886.800   9.1        0.5  0.20000 
 886.900   9.1        0.5  0.20000 
 887.000   9.1        1.4  0.20000 
 887.100   9.1        1.4  0.20000 
 887.200   9.1        1.1  0.10000 
 887.300   9.1        1.1  0.20000 
 887.400   9.1        1.1  0.20000 
 887.500   9.1        0.4  0.20000 
 887.600   9.1        0.4  0.20000 
 887.700   9.1        0.4  0.20000 
 887.800   9.1        1.7  0.20000 
 887.900   9.1        1.7  0.20000 
 888.000   9.1        1.4  0.10000 
 888.100   9.1        1.4  0.20000 
 888.200   9.1        1.4  0.20000 
 888.300   9.1        0.3  0.20000 
 888.400   9.1        0.3  0.20000 
 888.500   9.1        0.3  0.20000 
 888.600   9.2        0.3  0.20000 
 888.700   9.2        0.3  0.20000 
 888.800   9.2        0.0  0.20000 
 888.900   9.2        0.0  0.10000 
 889.000   9.2        0.0  0.20000 
 889.100   9.2        0.0  0.20000 
 889.200   9.2        0.0  0.20000 
 889.300   9.2        0.0  0.20000 
 889.400   9.2        0.0  0.20000 
 889.500   9.2        0.5  0.20000 
 889.600   9.2        0.5  0.20000 
 889.700   9.2        0.5  0.10000 
 889.800   9.2        0.5  0.20000 
 889.900   9.2        0.5  0.20000 
 890.000   9.3        0.5  0.20000 
 890.100   9.3        0.4  0.20000 
 890.200   9.3        0.4  0.20000 
 890.300   9.3        1.0  0.20000 
 890.400   9.3        1.0  0.20000 
 890.500   9.3        1.0  0.10000 
 890.600   9.3        1.1  0.20000 
 890.700   9.3        1.1  0.20000 
 890.800   9.2        1.1  0.20000 
 890.900   9.2        0.5  0.20000 
 891.000   9.2        0.5  0.20000 
 891.100   9.2        0.1  0.20000 
 891.200   9.2        0.1  0.20000 
 891.300   9.1        0.3  0.20000 
 891.400   9.1        0.3  0.10000 
 891.500   9.1        0.3  0.20000 
 891.600   9.1        0.2  0.20000 
 891.700   9.1        0.2  0.20000 
 891.800   9.1        0.0  0.20000 
 891.900   9.1        0.0  0.20000 
 892.000   9.1        0.0  0.20000 
 892.100   9.1        0.7  0.20000 
 892.200   9.2        0.7  0.20000 
 892.300   9.2        1.2  0.10000 
 892.400   9.2        1.2  0.20000 
 892.500   9.2        1.2  0.20000 
 892.600   9.2        0.5  0.20000 
 892.700   9.2        0.5  0.20000 
 892.800   9.2        0.5  0.20000 
 892.900   9.1        0.2  0.20000 
 893.000   9.2        0.2  0.10000 
 893.100   9.2        0.2  0.20000 
 893.200   9.2        0.2  0.22000 
 893.300   9.3        0.2  0.22000 
 893.400   9.3        0.0  0.22000 
 893.500   9.3        0.0  0.22000 
 893.600   9.3        0.0  0.11000 
 893.700   9.3        0.0  0.21000 
 893.800   9.3        0.0  0.20000 
 893.900   9.3        0.0  0.10000 
 894.000   9.3        0.0  0.20000 
 894.100   9.3        0.0  0.20000 
 894.200   9.3        0.0  0.20000 
 894.300   9.3        0.0  0.20000 
 894.400   9.3        0.2  0.20000 
 894.500   9.3        0.2  0.20000 
 894.600   9.3        0.2  0.20000 
 894.700   9.3        0.2  0.20000 
 894.800   9.3        0.2  0.10000 
 894.900   9.4        0.0  0.20000 
 895.000   9.4        0.0  0.20000 
 895.100   9.4        0.0  0.20000 
 895.200   9.4        0.0  0.20000 
 895.300   9.4        0.0  0.20000 
 895.400   9.4        0.0  0.20000 
 895.500   9.4        0.0  0.10000 
 895.600   9.4        0.0  0.20000 
 895.700   9.4        0.0  0.22000 
 895.800   9.4        0.0  0.22000 
 895.900   9.3        0.0  0.22000 
 896.000   9.2        0.0  0.22000 
 896.100   9.1        0.0  0.11000 
 896.200   9.0        0.0  0.21000 
 896.300   9.0        0.0  0.10000 
 896.400   9.0        0.0  0.20000 
 896.500   8.9        0.3  0.20000 
 896.600   8.9        0.3  0.20000 
 896.700   8.9        0.4  0.20000 
 896.800   8.9        0.7  0.20000 
 896.900   8.9        1.7  0.20000 
 897.000   8.9        1.4  0.20000 
 897.100   8.9        1.4  0.10000 
 897.200   8.9        1.3  0.20000 
