~Version Information
 VERS.                2.0:  CWLS LOG ASCII STANDARD -VERSION 2.0
 WRAP.                 NO:  ONE LINE PER DEPTH STEP
~WELL INFORMATION BLOCK
#MNEM.UNIT       DATA		            DESCRIPTION OF MNEMONIC
#---------    -------------            ------------------------
 STRT.FT  41.500                         :START DEPTH
 STOP.FT  1871.500                       :STOP DEPTH
 STEP.FT  0.100                          :STEP    UP_HOLE  
 NULL.    0                              :NULL VALUE
 COMP.                            USGS   :COMPANY
 WELL.                      MCWD-DMW #1  :WELL
 FLD .                           Marina  :FIELD
 LOC .    None  None  None               :LOCATION
 CNTY.                         Monterey  :COUNTY
 STAT.             California            :STATE
 SRVC.    Western Reg                    :SERVICE COMPANY
 DATE.   05/27/00                        :LOG DATE
 UWI .                       	         :UNIQUE WELL ID
 LIC .                                   :LICENSE NUMBER
~Curve Information Block
#MNEM.UNIT      API CODE     Curve Description
#---------    -------------  ------------------------
 DEPT     .FT        00 001 00 00          :  1  DEPTH   
 GAM(NAT) .API-GR    00 310 00 00          :  2             GAM(NAT)
 COND     .MMHO/M    00 000 00 00          :  3                 COND
 RES      .OHM-M     00 000 00 00          :  4                  RES
 TEMP     .DEG F     00 660 00 00          :  5                 TEMP
 AP-COND  .MMHO/M    00 000 00 00          :  6              AP-COND
 TEMP     .CPS       00 660 00 00          :  7                 TEMP
 AP-COND  .CPS       00 000 00 00          :  8              AP-COND
 TENSION  .POUNDS    00 000 00 00          :  9              TENSION
 TIME     .MINUTES   00 000 00 00          : 10                 TIME
~Parameter Information Block
#MNEM.UNIT   Information     Description
#---------- ---------------  ------------------------
~Other Information
#MNEM.UNIT  Information      Description
#---------- ---------------  ------------------------
 FILE.      ORIGINAL           File Type
 FIID.      9511A              File Type Identifier
 VERS.      1.0                System Version
 SER .      1                  System Serial Number
 TRUK.      0.5                Truck Calibration Number
 TOOL.         770             Tool Serial Number
 TIME.      05:18:             Time
 LAT .          None           Latitude
 LON .          None           Longitude
 LMF .           LSD           Log Measured From
 DMF .           LSD           Driller Measured From
 PD  .          None           Permanent Data
 PDEV.          None           Elevation Permanent Data
 EKB .M         None           Elevation Kelly Bushing
 ELEV.DF        None           Elevation DF
 EGL .M         None           Elevation Ground Level
 DRDP.         1990'           Driller's Depth
 CASD.         0               Casing Diameter
 CASB.          None           Casing Bottom
 CASX.          None           Casing Type
 CAST.         0               Casing Thickness
 TNOC.          None           Time Circulation Stopped
 LOGU.       WRRD              Logging Unit
 RECB.           Everett       Recorded By
 OSR1.       Pimente           Other Services
 OSR2.       mud vis           Other Services
 OSR3.           =62           Other Services
 BS  .MM           6           Bit Size
 MST .                         Mean Surface Temperature
 TGRD.        0                Temperature Gradiant
 MAGN.             0           Magnetic Declination
 MDEN.      2.71               Density Matrix
 MATR.       Dolomite          Neutron Matrix
 DTMT.            54           Delta T Matrix
 DTFL.                         Delta T Fluid
 MUDS.               0         Mud Sample Source
 MRS .           0             Mud Resistivity
 MTP .           0             Mud Temperature
 MFRS.                         Resistivity Mud Filtrate
 MFTP.                         Temperature Mud Filtrate
 MCRS.         0               Resistivity Mud Cake
 MCTP.                         Temperature Mud Cake
 FTYP.             0           Fluid Type
 FD  .K/M3                     Fluid Density
 DFV .S                        Fluid Viscosity
 FPH .                         Fuild PH
 ELCO.        2500             Electron Cutoff
# -------------------------- 
~A DEPTH  GAM(NAT) COND     RES      TEMP  AP-COND  TEMP  AP-COND  TENSION  TIME    
# ...
 768.400     87.8    225.7      4.4  87.4    201.4  28915.0 78800.0      0.0  0.10000 
 768.500    116.5    222.1      4.5  87.3    198.2  28910.0 78420.0      0.0  0.20000 
 768.600    116.5    221.1      4.5  87.3    197.4  28910.0 78320.0      0.0  0.20000 
 768.700     96.2    218.1      4.6  87.4    194.7  28915.0 78005.0      0.7  0.20000 
 768.800     75.9    214.2      4.7  87.4    191.4  28915.0 77605.0      0.7  0.10000 
 768.900    121.5    212.4      4.7  87.4    189.8  28915.0 77415.0      0.7  0.20000 
 769.000    162.0    212.1      4.7  87.5    189.5  28920.0 77380.0      1.1  0.20000 
 769.100     96.2    208.1      4.8  87.4    186.1  28915.0 76975.0      1.1  0.20000 
 769.200     91.1    206.6      4.8  87.4    184.7  28915.0 76815.0      1.1  0.10000 
 769.300    151.9    201.8      5.0  87.4    180.6  28915.0 76320.0      0.5  0.20000 
 769.400    121.5    201.2      5.0  87.5    180.0  28920.0 76250.0      0.5  0.20000 
 769.500     70.9    198.6      5.0  87.4    177.7  28915.0 75980.0      0.5  0.20000 
 769.600    101.3    196.8      5.1  87.4    176.1  28915.0 75795.0      0.5  0.11000 
 769.700    131.6    194.4      5.1  87.4    174.0  28915.0 75545.0      0.5  0.22000 
 769.800    106.3    193.0      5.2  87.5    172.8  28920.0 75400.0      0.7  0.22000 
 769.900     96.2    191.8      5.2  87.4    171.7  28915.0 75270.0      0.7  0.22000 
 770.000     81.0    190.3      5.3  87.4    170.5  28915.0 75120.0      0.7  0.22000 
 770.100    116.5    190.8      5.2  87.4    170.9  28915.0 75175.0      0.3  0.11000 
 770.200    116.5    188.1      5.3  87.3    168.6  28910.0 74895.0      0.3  0.20000 
 770.300     91.1    189.9      5.3  87.4    170.1  28915.0 75075.0      0.8  0.10000 
 770.400     75.9    190.6      5.2  87.4    170.7  28915.0 75145.0      0.6  0.20000 
 770.500    136.7    189.4      5.3  87.5    169.6  28920.0 75020.0      0.6  0.20000 
 770.600     96.2    190.3      5.3  87.4    170.4  28915.0 75115.0      0.6  0.20000 
 770.700    106.3    192.3      5.2  87.4    172.2  28915.0 75325.0      0.9  0.20000 
 770.800     70.9    194.1      5.2  87.4    173.8  28915.0 75515.0      0.9  0.20000 
 770.900    116.5    197.7      5.1  87.4    176.9  28915.0 75885.0      0.4  0.20000 
 771.000     70.9    201.2      5.0  87.4    180.0  28915.0 76250.0      0.9  0.10000 
 771.100     86.1    205.9      4.9  87.4    184.1  28915.0 76745.0      0.9  0.20000 
 771.200     91.1    207.1      4.8  87.5    185.1  28920.0 76860.0      1.0  0.20000 
 771.300    101.3    212.8      4.7  87.4    190.1  28915.0 77460.0      1.0  0.20000 
 771.400    111.4    216.5      4.6  87.4    193.4  28915.0 77845.0      1.0  0.10000 
 771.500    111.4    220.4      4.5  87.5    196.8  28920.0 78250.0      2.0  0.20000 
 771.600     96.2    225.3      4.4  87.3    201.0  28910.0 78760.0      2.5  0.20000 
 771.700     50.6    227.8      4.4  87.4    203.2  28915.0 79010.0      2.5  0.20000 
 771.800     55.7    231.6      4.3  87.5    206.5  28920.0 79410.0      2.6  0.20000 
 771.900     91.1    235.9      4.2  87.4    210.3  28915.0 79855.0      2.7  0.10000 
 772.000     91.1    238.1      4.2  87.4    212.1  28915.0 80080.0      2.7  0.21000 
 772.100     81.0    239.9      4.2  87.5    213.8  28920.0 80270.0      0.6  0.22000 
 772.200     75.9    243.9      4.1  87.4    217.2  28915.0 80680.0      0.6  0.22000 
 772.300    111.4    245.4      4.1  87.4    218.5  28915.0 80840.0      0.6  0.22000 
 772.400     50.6    248.7      4.0  87.5    221.4  28920.0 81180.0      0.0  0.22000 
 772.500    101.3    249.5      4.0  87.4    222.1  28915.0 81265.0      0.0  0.00000 
 772.600     96.2    251.4      4.0  87.4    223.7  28915.0 81460.0      0.0  0.21000 
 772.700     81.0    254.3      3.9  87.4    226.3  28916.7 81760.0      0.0  0.20000 
 772.800     96.2    254.3      3.9  87.4    226.3  28916.7 81760.0      0.0  0.20000 
 772.900    101.3    254.6      3.9  87.5    226.6  28920.0 81795.0      0.0  0.20000 
 773.000     75.9    254.5      3.9  87.4    226.5  28915.0 81785.0      0.0  0.20000 
 773.100    121.5    255.2      3.9  87.4    227.1  28915.0 81855.0      0.3  0.20000 
 773.200     70.9    253.9      3.9  87.5    225.9  28920.0 81720.0      0.3  0.20000 
 773.300    136.7    253.1      4.0  87.4    225.2  28915.0 81635.0      0.3  0.20000 
 773.400    131.6    250.7      4.0  87.4    223.2  28915.0 81390.0      0.3  0.20000 
 773.500     70.9    248.9      4.0  87.5    221.5  28920.0 81195.0      0.3  0.20000 
 773.600     86.1    246.9      4.1  87.4    219.8  28915.0 80995.0      0.0  0.10000 
 773.700     91.1    243.3      4.1  87.4    216.7  28915.0 80620.0      0.0  0.20000 
 773.800    101.3    242.7      4.1  87.3    216.2  28910.0 80560.0      0.2  0.20000 
 773.900     96.2    237.0      4.2  87.5    211.2  28920.0 79965.0      0.2  0.20000 
 774.000    162.0    234.2      4.3  87.4    208.7  28915.0 79675.0      0.2  0.20000 
 774.100     91.1    228.5      4.4  87.4    203.8  28915.0 79085.0      0.2  0.20000 
 774.200    111.4    225.8      4.4  87.5    201.4  28920.0 78805.0      0.2  0.10000 
 774.300     86.1    220.2      4.5  87.3    196.6  28910.0 78225.0      0.0  0.21000 
 774.400    106.3    218.2      4.6  87.5    194.8  28920.0 78020.0      0.0  0.22000 
 774.500     86.1    215.3      4.6  87.4    192.3  28915.0 77720.0      0.0  0.22000 
 774.600     91.1    213.4      4.7  87.5    190.6  28920.0 77515.0      0.0  0.22000 
 774.700     96.2    209.6      4.8  87.4    187.4  28915.0 77130.0      0.0  0.22000 
 774.800    111.4    207.5      4.8  87.5    185.5  28920.0 76905.0      0.0  0.11000 
 774.900    101.3    205.4      4.9  87.3    183.7  28910.0 76695.0      0.0  0.20000 
 775.000    106.3    204.2      4.9  87.5    182.6  28920.0 76565.0      0.0  0.10000 
 775.100     70.9    204.7      4.9  87.4    183.1  28915.0 76620.0      0.0  0.20000 
 775.200     70.9    205.3      4.9  87.5    183.6  28920.0 76680.0      0.0  0.20000 
 775.300    106.3    206.8      4.8  87.4    184.9  28915.0 76835.0      0.0  0.20000 
 775.400    111.4    208.4      4.8  87.5    186.3  28920.0 77000.0      0.0  0.20000 
 775.500     40.5    208.3      4.8  87.4    186.2  28915.0 76990.0      0.0  0.20000 
 775.600    121.5    210.8      4.7  87.5    188.3  28920.0 77245.0      0.0  0.20000 
 775.700    111.4    213.7      4.7  87.4    190.9  28915.0 77550.0      0.0  0.20000 
 775.800     86.1    215.9      4.6  87.5    192.8  28920.0 77780.0      0.0  0.20000 
 775.900    111.4    221.2      4.5  87.4    197.4  28915.0 78330.0      0.0  0.20000 
 776.000    141.8    222.6      4.5  87.4    198.7  28915.0 78475.0      0.0  0.20000 
 776.100     91.1    224.8      4.4  87.4    200.6  28915.0 78700.0      0.1  0.10000 
 776.200    116.5    226.4      4.4  87.4    202.0  28915.0 78870.0      0.1  0.20000 
 776.300    126.6    228.8      4.4  87.5    204.1  28920.0 79120.0      0.1  0.20000 
 776.400     86.1    228.3      4.4  87.4    203.7  28915.0 79070.0      0.1  0.20000 
 776.500    126.6    231.6      4.3  87.5    206.5  28920.0 79410.0      0.1  0.20000 
 776.600    114.8    231.4      4.3  87.5    206.4  28920.0 79390.0      0.0  0.10000 
 776.700    114.8    231.9      4.3  87.4    206.7  28915.0 79435.0      0.0  0.20000 
 776.800    121.5    231.6      4.3  87.5    206.5  28920.0 79410.0      0.1  0.22000 
 776.900    116.5    229.3      4.4  87.5    204.5  28920.0 79170.0      0.1  0.22000 
 777.000     75.9    230.6      4.3  87.4    205.6  28915.0 79305.0      0.1  0.22000 
 777.100    101.3    227.3      4.4  87.5    202.8  28920.0 78965.0      0.1  0.11000 
 777.200     81.0    226.2      4.4  87.4    201.8  28915.0 78850.0      0.1  0.22000 
 777.300     60.8    228.1      4.4  87.5    203.5  28920.0 79050.0      0.1  0.11000 
 777.400    106.3    222.0      4.5  87.5    198.1  28920.0 78410.0      0.1  0.20000 
 777.500     81.0    219.3      4.6  87.5    195.8  28920.0 78135.0      0.1  0.20000 
