~Version Information
 VERS.                2.0:  CWLS LOG ASCII STANDARD -VERSION 2.0
 WRAP.                 NO:  ONE LINE PER DEPTH STEP
~WELL INFORMATION BLOCK
#MNEM.UNIT       DATA		            DESCRIPTION OF MNEMONIC
#---------    -------------            ------------------------
 STRT.FT  5.300                          :START DEPTH
 STOP.FT  1874.500                       :STOP DEPTH
 STEP.FT  0.100                          :STEP    UP_HOLE  
 NULL.    0                              :NULL VALUE
 COMP.                            USGS   :COMPANY
 WELL.                      MCWD-DMW #1  :WELL
 FLD .                           Marina  :FIELD
 LOC .    None  None  None               :LOCATION
 CNTY.                         Monterey  :COUNTY
 STAT.             California            :STATE
 SRVC.    Western Reg                    :SERVICE COMPANY
 DATE.   05/27/00                        :LOG DATE
 UWI .                       	         :UNIQUE WELL ID
 LIC .                                   :LICENSE NUMBER
~Curve Information Block
#MNEM.UNIT      API CODE     Curve Description
#---------    -------------  ------------------------
 DEPT     .FT        00 001 00 00          :  1  DEPTH   
 CALIPER  .INCH      00 280 00 00          :  2              CALIPER
 TENSION  .POUNDS    00 000 00 00          :  3              TENSION
 TIME     .MINUTES   00 000 00 00          :  4                 TIME
~Parameter Information Block
#MNEM.UNIT   Information     Description
#---------- ---------------  ------------------------
~Other Information
#MNEM.UNIT  Information      Description
#---------- ---------------  ------------------------
 FILE.      ORIGINAL           File Type
 FIID.      9065A              File Type Identifier
 VERS.      1.0                System Version
 SER .      1                  System Serial Number
 TRUK.      0.5                Truck Calibration Number
 TOOL.         573             Tool Serial Number
 TIME.      03:05:             Time
 LAT .          None           Latitude
 LON .          None           Longitude
 LMF .           LSD           Log Measured From
 DMF .           LSD           Driller Measured From
 PD  .          None           Permanent Data
 PDEV.          None           Elevation Permanent Data
 EKB .M         None           Elevation Kelly Bushing
 ELEV.DF        None           Elevation DF
 EGL .M         None           Elevation Ground Level
 DRDP.         1990'           Driller's Depth
 CASD.         0               Casing Diameter
 CASB.          None           Casing Bottom
 CASX.          None           Casing Type
 CAST.         0               Casing Thickness
 TNOC.          None           Time Circulation Stopped
 LOGU.       WRRD              Logging Unit
 RECB.           Everett       Recorded By
 OSR1.       Pimente           Other Services
 OSR2.       mud vis           Other Services
 OSR3.           =62           Other Services
 BS  .MM           6           Bit Size
 MST .                         Mean Surface Temperature
 TGRD.        0                Temperature Gradiant
 MAGN.             0           Magnetic Declination
 MDEN.      2.71               Density Matrix
 MATR.       Dolomite          Neutron Matrix
 DTMT.            54           Delta T Matrix
 DTFL.                         Delta T Fluid
 MUDS.               0         Mud Sample Source
 MRS .           0             Mud Resistivity
 MTP .           0             Mud Temperature
 MFRS.                         Resistivity Mud Filtrate
 MFTP.                         Temperature Mud Filtrate
 MCRS.         0               Resistivity Mud Cake
 MCTP.                         Temperature Mud Cake
 FTYP.             0           Fluid Type
 FD  .K/M3                     Fluid Density
 DFV .S                        Fluid Viscosity
 FPH .                         Fuild PH
 ELCO.        2500             Electron Cutoff
# -------------------------- 
~A DEPTH  CALIPER TENSION  TIME    
# ...
1120.300   9.3        3.7  0.10000 
1120.400   9.3        4.2  0.20000 
1120.500   9.3        3.5  0.20000 
1120.600   9.3        3.7  0.20000 
1120.700   9.3        4.5  0.10000 
1120.800   9.3        4.5  0.20000 
1120.900   9.3        2.5  0.20000 
1121.000   9.3        4.8  0.10000 
1121.100   9.4        6.2  0.20000 
1121.200   9.4        5.0  0.20000 
1121.300   9.4        5.1  0.20000 
1121.400   9.3        6.6  0.10000 
1121.500   9.3        7.0  0.20000 
1121.600   9.3        4.2  0.20000 
1121.700   9.4        5.6  0.10000 
1121.800   9.4        7.3  0.20000 
1121.900   9.3        6.4  0.20000 
1122.000   9.3        5.5  0.20000 
1122.100   9.4        6.7  0.10000 
1122.200   9.5        7.3  0.22000 
1122.300   9.5        4.5  0.22000 
1122.400   9.5        4.7  0.22000 
1122.500   9.5        6.0  0.11000 
1122.600   9.4        5.4  0.22000 
1122.700   9.4        5.4  0.11000 
1122.800   9.4        4.8  0.20000 
1122.900   9.4        5.1  0.10000 
1123.000   9.3        3.2  0.20000 
1123.100   9.2        2.5  0.20000 
1123.200   9.2        3.8  0.20000 
1123.300   9.3        3.8  0.10000 
1123.400   9.5        2.2  0.21000 
1123.500   9.6        3.2  0.22000 
1123.600   9.4        3.3  0.11000 
1123.700   9.4        2.7  0.22000 
1123.800   9.4        2.0  0.22000 
1123.900   9.5        2.0  0.11000 
1124.000   9.7        2.0  0.11000 
1124.100   9.8        1.1  0.20000 
1124.200   9.9        1.0  0.20000 
1124.300  10.0        1.0  0.10000 
1124.400  10.1        1.0  0.20000 
1124.500  10.1        0.4  0.20000 
1124.600  10.1        0.4  0.20000 
1124.700  10.4        0.4  0.20000 
1124.800  10.7        0.0  0.10000 
1124.900  10.9        0.0  0.20000 
1125.000  11.2        0.0  0.20000 
1125.100  11.4        0.0  0.20000 
1125.200  11.4        0.0  0.10000 
1125.300  10.3        0.2  0.20000 
1125.400   9.9        0.2  0.20000 
1125.500  10.0        0.2  0.20000 
1125.600  10.1        0.2  0.10000 
1125.700  10.0        0.2  0.20000 
1125.800   9.8        0.2  0.20000 
1125.900   9.9        0.0  0.10000 
1126.000   9.8        0.0  0.20000 
1126.100   9.9        0.0  0.20000 
1126.200  10.1        0.0  0.20000 
1126.300  10.6        0.0  0.10000 
1126.400  11.1        0.0  0.20000 
1126.500  10.7        0.0  0.20000 
1126.600   9.9        0.0  0.20000 
1126.700   9.7        0.0  0.10000 
1126.800   9.6        0.0  0.20000 
1126.900   9.7        0.0  0.20000 
1127.000   9.9        0.0  0.20000 
1127.100  10.0        0.0  0.10000 
1127.200  10.0        0.1  0.20000 
1127.300  10.0        0.1  0.20000 
1127.400   9.9        0.1  0.10000 
1127.500   9.8        0.2  0.20000 
1127.600   9.8        0.2  0.20000 
1127.700   9.8        0.2  0.20000 
1127.800   9.8        0.1  0.20000 
1127.900   9.8        0.1  0.10000 
1128.000   9.7        0.0  0.20000 
1128.100   9.7        0.0  0.20000 
1128.200   9.7        0.0  0.20000 
1128.300   9.6        0.0  0.20000 
1128.400   9.5        0.0  0.10000 
1128.500   9.5        0.0  0.20000 
1128.600   9.4        0.0  0.20000 
1128.700   9.3        0.0  0.20000 
1128.800   9.4        1.4  0.10000 
1128.900   9.5        1.6  0.20000 
1129.000   9.5        1.6  0.20000 
1129.100   9.5        1.6  0.20000 
1129.200   9.5        1.6  0.10000 
1129.300   9.5        1.6  0.20000 
1129.400   9.5        0.2  0.20000 
1129.500   9.6        0.0  0.20000 
1129.600   9.6        0.1  0.20000 
1129.700   9.8        0.1  0.10000 
1129.800   9.9        0.1  0.20000 
1129.900   9.9        0.7  0.20000 
1130.000   9.8        0.7  0.20000 
1130.100   9.7        0.7  0.20000 
1130.200   9.7        0.6  0.10000 
1130.300   9.8        0.6  0.20000 
1130.400   9.8        0.0  0.20000 
1130.500   9.9        0.0  0.20000 
1130.600   9.8        0.0  0.20000 
1130.700   9.8        0.0  0.10000 
1130.800   9.7        0.0  0.20000 
1130.900   9.7        0.0  0.21000 
1131.000   9.6        0.0  0.22000 
1131.100   9.7        0.0  0.22000 
1131.200   9.7        0.0  0.11000 
1131.300   9.6        0.0  0.22000 
1131.400   9.5        0.0  0.11000 
1131.500   9.5        0.0  0.21000 
1131.600   9.4        0.1  0.10000 
1131.700   9.6        0.1  0.20000 
1131.800   9.7        0.1  0.20000 
1131.900   9.7        0.1  0.20000 
1132.000   9.8        1.0  0.20000 
1132.100   9.8        1.1  0.10000 
1132.200   9.8        1.0  0.20000 
1132.300   9.7        1.2  0.20000 
1132.400   9.6        1.2  0.20000 
1132.500   9.5        0.3  0.20000 
1132.600   9.5        0.7  0.20000 
1132.700   9.5        0.7  0.10000 
1132.800   9.5        0.7  0.20000 
1132.900   9.5        0.5  0.20000 
1133.000   9.5        0.5  0.20000 
1133.100   9.5        0.6  0.20000 
1133.200   9.5        0.1  0.20000 
1133.300   9.5        0.2  0.20000 
1133.400   9.5        0.2  0.11000 
1133.500   9.5        0.2  0.22000 
1133.600   9.4        0.1  0.22000 
1133.700   9.4        0.1  0.22000 
1133.800   9.4        0.1  0.22000 
1133.900   9.4        0.0  0.00000 
1134.000   9.4        0.0  0.21000 
1134.100   9.4        0.0  0.20000 
1134.200   9.4        0.0  0.20000 
1134.300   9.4        0.0  0.10000 
1134.400   9.4        0.2  0.20000 
1134.500   9.4        0.2  0.20000 
1134.600   9.4        0.2  0.21000 
1134.700   9.4        0.2  0.22000 
1134.800   9.3        0.8  0.22000 
1134.900   9.3        0.6  0.11000 
1135.000   9.3        0.6  0.22000 
1135.100   9.3        0.6  0.11000 
1135.200   9.3        0.6  0.21000 
1135.300   9.3        0.0  0.20000 
1135.400   9.5        0.2  0.10000 
1135.500   9.8        0.2  0.20000 
1135.600   9.9        0.2  0.20000 
1135.700   9.9        0.2  0.20000 
1135.800   9.9        0.2  0.20000 
1135.900   9.9        0.2  0.10000 
1136.000   9.9        0.0  0.20000 
1136.100   9.9        0.0  0.20000 
1136.200   9.9        0.0  0.21000 
1136.300   9.8        0.0  0.22000 
1136.400   9.8        0.0  0.11000 
1136.500   9.8        1.2  0.22000 
1136.600   9.8        1.2  0.22000 
1136.700   9.8        1.2  0.11000 
1136.800   9.9        1.2  0.21000 
1136.900   9.9        1.2  0.10000 
1137.000  10.0        1.2  0.20000 
1137.100  10.1        0.1  0.20000 
1137.200  10.1        0.1  0.20000 
1137.300  10.2        0.1  0.20000 
1137.400  10.2        0.1  0.10000 
1137.500  10.2        0.1  0.20000 
1137.600  10.2        0.1  0.20000 
1137.700  10.2        0.0  0.20000 
1137.800  10.2        0.0  0.20000 
1137.900  10.2        0.0  0.10000 
1138.000  10.2        0.0  0.20000 
1138.100  10.2        0.0  0.20000 
1138.200  10.1        0.0  0.20000 
1138.300  10.0        0.0  0.11000 
1138.400   9.9        0.0  0.22000 
1138.500   9.8        0.1  0.22000 
1138.600   9.8        0.1  0.22000 
1138.700   9.7        0.1  0.22000 
1138.800   9.7        0.1  0.11000 
1138.900   9.7        0.1  0.10000 
1139.000   9.7        0.1  0.20000 
1139.100   9.7        0.0  0.20000 
1139.200   9.7        0.0  0.20000 
1139.300   9.7        0.7  0.20000 
1139.400   9.7        1.1  0.10000 
1139.500   9.7        1.1  0.20000 
1139.600   9.7        1.1  0.20000 
1139.700   9.7        1.1  0.20000 
1139.800   9.7        0.4  0.20000 
1139.900   9.7        0.0  0.10000 
1140.000   9.8        0.0  0.20000 
1140.100   9.9        0.0  0.20000 
1140.200  10.0        0.0  0.20000 
1140.300  10.2        0.4  0.20000 
1140.400  10.4        0.4  0.10000 
1140.500  10.4        0.4  0.20000 
1140.600  10.4        0.4  0.20000 
1140.700  10.4        0.4  0.21000 
1140.800  10.4        0.4  0.22000 
1140.900  10.4        0.0  0.11000 
1141.000  10.4        0.8  0.22000 
1141.100  10.4        0.8  0.22000 
1141.200  10.3        0.8  0.11000 
1141.300  10.1        1.0  0.21000 
1141.400  10.1        1.0  0.10000 
1141.500  10.0        1.0  0.20000 
1141.600  10.0        0.2  0.20000 
1141.700  10.0        0.3  0.20000 
1141.800  10.1        0.6  0.20000 
1141.900  10.0        0.4  0.10000 
1142.000   9.9        0.4  0.20000 
1142.100   9.9        0.4  0.20000 
1142.200   9.9        0.4  0.20000 
1142.300   9.9        0.3  0.20000 
1142.400   9.9        0.9  0.10000 
1142.500   9.9        1.2  0.20000 
