~Version Information
 VERS.                2.0:  CWLS LOG ASCII STANDARD -VERSION 2.0
 WRAP.                 NO:  ONE LINE PER DEPTH STEP
~WELL INFORMATION BLOCK
#MNEM.UNIT       DATA		            DESCRIPTION OF MNEMONIC
#---------    -------------            ------------------------
 STRT.FT  5.300                          :START DEPTH
 STOP.FT  1874.500                       :STOP DEPTH
 STEP.FT  0.100                          :STEP    UP_HOLE  
 NULL.    0                              :NULL VALUE
 COMP.                            USGS   :COMPANY
 WELL.                      MCWD-DMW #1  :WELL
 FLD .                           Marina  :FIELD
 LOC .    None  None  None               :LOCATION
 CNTY.                         Monterey  :COUNTY
 STAT.             California            :STATE
 SRVC.    Western Reg                    :SERVICE COMPANY
 DATE.   05/27/00                        :LOG DATE
 UWI .                       	         :UNIQUE WELL ID
 LIC .                                   :LICENSE NUMBER
~Curve Information Block
#MNEM.UNIT      API CODE     Curve Description
#---------    -------------  ------------------------
 DEPT     .FT        00 001 00 00          :  1  DEPTH   
 CALIPER  .INCH      00 280 00 00          :  2              CALIPER
 TENSION  .POUNDS    00 000 00 00          :  3              TENSION
 TIME     .MINUTES   00 000 00 00          :  4                 TIME
~Parameter Information Block
#MNEM.UNIT   Information     Description
#---------- ---------------  ------------------------
~Other Information
#MNEM.UNIT  Information      Description
#---------- ---------------  ------------------------
 FILE.      ORIGINAL           File Type
 FIID.      9065A              File Type Identifier
 VERS.      1.0                System Version
 SER .      1                  System Serial Number
 TRUK.      0.5                Truck Calibration Number
 TOOL.         573             Tool Serial Number
 TIME.      03:05:             Time
 LAT .          None           Latitude
 LON .          None           Longitude
 LMF .           LSD           Log Measured From
 DMF .           LSD           Driller Measured From
 PD  .          None           Permanent Data
 PDEV.          None           Elevation Permanent Data
 EKB .M         None           Elevation Kelly Bushing
 ELEV.DF        None           Elevation DF
 EGL .M         None           Elevation Ground Level
 DRDP.         1990'           Driller's Depth
 CASD.         0               Casing Diameter
 CASB.          None           Casing Bottom
 CASX.          None           Casing Type
 CAST.         0               Casing Thickness
 TNOC.          None           Time Circulation Stopped
 LOGU.       WRRD              Logging Unit
 RECB.           Everett       Recorded By
 OSR1.       Pimente           Other Services
 OSR2.       mud vis           Other Services
 OSR3.           =62           Other Services
 BS  .MM           6           Bit Size
 MST .                         Mean Surface Temperature
 TGRD.        0                Temperature Gradiant
 MAGN.             0           Magnetic Declination
 MDEN.      2.71               Density Matrix
 MATR.       Dolomite          Neutron Matrix
 DTMT.            54           Delta T Matrix
 DTFL.                         Delta T Fluid
 MUDS.               0         Mud Sample Source
 MRS .           0             Mud Resistivity
 MTP .           0             Mud Temperature
 MFRS.                         Resistivity Mud Filtrate
 MFTP.                         Temperature Mud Filtrate
 MCRS.         0               Resistivity Mud Cake
 MCTP.                         Temperature Mud Cake
 FTYP.             0           Fluid Type
 FD  .K/M3                     Fluid Density
 DFV .S                        Fluid Viscosity
 FPH .                         Fuild PH
 ELCO.        2500             Electron Cutoff
# -------------------------- 
~A DEPTH  CALIPER TENSION  TIME    
# ...
1231.800  10.4        6.0  0.10000 
1231.900  10.4        4.3  0.20000 
1232.000  10.4        4.1  0.20000 
1232.100  10.4        4.1  0.20000 
1232.200  10.4        5.1  0.20000 
1232.300  10.5        3.1  0.10000 
1232.400  10.6        2.6  0.20000 
1232.500  10.6        3.6  0.20000 
1232.600  10.6        3.1  0.20000 
1232.700  10.6        1.4  0.10000 
1232.800  10.6        1.1  0.20000 
1232.900  10.6        1.1  0.20000 
1233.000  10.6        1.1  0.21000 
1233.100  10.6        0.1  0.11000 
1233.200  10.5        0.0  0.22000 
1233.300  10.5        0.0  0.22000 
1233.400  10.5        0.0  0.22000 
1233.500  10.5        0.0  0.11000 
1233.600  10.5        0.4  0.11000 
1233.700  10.5        0.8  0.20000 
1233.800  10.5        0.8  0.20000 
1233.900  10.4        1.0  0.10000 
1234.000  10.4        1.0  0.20000 
1234.100  10.3        2.0  0.20000 
1234.200  10.3        4.0  0.20000 
1234.300  10.4        4.3  0.22000 
1234.400  10.5        3.9  0.11000 
1234.500  10.8        5.0  0.22000 
1234.600  10.9        5.4  0.22000 
1234.700  10.9        5.4  0.22000 
1234.800  10.9        5.4  0.11000 
1234.900  11.0        7.4  0.10000 
1235.000  11.1        7.3  0.20000 
1235.100  11.1        7.3  0.20000 
1235.200  11.2        7.3  0.20000 
1235.300  11.2        7.5  0.10000 
1235.400  11.2        8.3  0.20000 
1235.500  11.2        7.0  0.21000 
1235.600  11.2        7.0  0.22000 
1235.700  11.1        7.1  0.22000 
1235.800  11.1       10.0  0.11000 
1235.900  11.1        7.2  0.22000 
1236.000  11.0        6.6  0.11000 
1236.100  10.8        9.9  0.21000 
1236.200  10.6       10.1  0.10000 
1236.300  10.4       10.1  0.20000 
1236.400  10.3        6.2  0.20000 
1236.500  10.3        6.2  0.20000 
1236.600  10.3        9.6  0.10000 
1236.700  10.4        8.6  0.20000 
1236.800  10.4        7.4  0.22000 
1236.900  10.4        7.4  0.11000 
1237.000  10.4       10.6  0.22000 
1237.100  10.4        6.4  0.22000 
1237.200  10.5        6.4  0.22000 
1237.300  10.6        7.8  0.00000 
1237.400  10.6        9.4  0.21000 
1237.500  10.6        5.6  0.20000 
1237.600  10.6        5.6  0.20000 
1237.700  10.6        5.6  0.10000 
1237.800  10.6        8.9  0.20000 
1237.900  10.6        7.1  0.20000 
1238.000  10.6        7.4  0.20000 
1238.100  10.6        5.5  0.10000 
1238.200  10.6        9.6  0.20000 
1238.300  10.6        8.5  0.20000 
1238.400  10.6        8.7  0.20000 
1238.500  10.5        6.8  0.11000 
1238.600  10.5       10.7  0.22000 
1238.700  10.4        9.5  0.22000 
1238.800  10.4        9.5  0.11000 
1238.900  10.4       10.1  0.22000 
1239.000  10.5       12.4  0.11000 
1239.100  10.5       12.4  0.21000 
1239.200  10.5        8.9  0.10000 
1239.300  10.5        6.0  0.20000 
1239.400  10.5        8.5  0.20000 
1239.500  10.5       10.6  0.10000 
1239.600  10.5        8.2  0.20000 
1239.700  10.4        5.7  0.20000 
1239.800  10.3        6.4  0.20000 
1239.900  10.2        7.9  0.10000 
1240.000  10.2        5.9  0.20000 
1240.100  10.2        3.8  0.20000 
1240.200  10.2        3.9  0.20000 
1240.300  10.1        4.9  0.10000 
1240.400  10.1        3.5  0.20000 
1240.500  10.1        2.0  0.20000 
1240.600  10.1        1.9  0.20000 
1240.700  10.1        3.2  0.10000 
1240.800  10.1        3.3  0.20000 
1240.900  10.1        2.3  0.20000 
1241.000  10.2        2.9  0.20000 
1241.100  10.3        5.0  0.10000 
1241.200  10.5        5.6  0.20000 
1241.300  10.7        4.3  0.20000 
1241.400  10.7        4.0  0.10000 
1241.500  10.7        6.4  0.20000 
1241.600  10.7        6.9  0.20000 
1241.700  10.7        4.8  0.20000 
1241.800  10.8        3.8  0.20000 
1241.900  10.9        5.7  0.10000 
1242.000  11.0        6.3  0.20000 
1242.100  11.0        3.9  0.20000 
1242.200  11.0        2.8  0.20000 
1242.300  11.1        4.7  0.10000 
1242.400  11.1        5.8  0.20000 
1242.500  11.1        3.9  0.20000 
1242.600  11.1        3.0  0.20000 
1242.700  11.1        6.3  0.10000 
1242.800  11.1        8.5  0.20000 
1242.900  11.1        6.9  0.20000 
1243.000  11.1        5.8  0.20000 
1243.100  11.1        8.8  0.20000 
1243.200  11.1       10.8  0.10000 
1243.300  11.0        8.0  0.20000 
1243.400  11.0        5.8  0.20000 
1243.500  11.0        8.9  0.20000 
1243.600  10.9       11.8  0.10000 
1243.700  10.7        9.8  0.20000 
1243.800  10.6        7.8  0.20000 
1243.900  10.6       10.4  0.20000 
1244.000  10.6       12.9  0.10000 
1244.100  10.6       10.3  0.20000 
1244.200  10.6        7.4  0.20000 
1244.300  10.5        9.4  0.20000 
1244.400  10.5       12.6  0.20000 
1244.500  10.4       11.2  0.10000 
1244.600  10.4        8.7  0.20000 
1244.700  10.4       10.9  0.20000 
1244.800  10.4       15.5  0.20000 
1244.900  10.4       14.8  0.20000 
1245.000  10.5       11.6  0.10000 
1245.100  10.6       13.0  0.20000 
1245.200  10.6       15.3  0.20000 
1245.300  10.6       18.0  0.20000 
1245.400  10.6       13.4  0.20000 
1245.500  10.6       14.1  0.20000 
1245.600  10.6       15.4  0.10000 
1245.700  10.6       12.9  0.20000 
1245.800  10.5       11.6  0.20000 
1245.900  10.4       11.6  0.20000 
1246.000  10.4       12.3  0.20000 
1246.100  10.4       10.5  0.10000 
1246.200  10.3        8.4  0.20000 
1246.300  10.3       12.6  0.20000 
1246.400  10.2       11.2  0.20000 
1246.500  10.2        9.4  0.10000 
1246.600  10.0        7.0  0.20000 
1246.700   9.9       10.6  0.20000 
1246.800   9.9        9.9  0.20000 
1246.900   9.9        8.7  0.10000 
1247.000   9.8        6.9  0.20000 
1247.100   9.9       10.7  0.20000 
1247.200  10.2       10.5  0.20000 
1247.300  10.4        9.8  0.10000 
1247.400  10.4        7.4  0.20000 
1247.500  10.4        9.9  0.20000 
1247.600  10.4        9.9  0.20000 
1247.700  10.4        7.9  0.20000 
1247.800  10.5        5.2  0.20000 
1247.900  10.5        5.7  0.10000 
1248.000  10.5        7.2  0.20000 
1248.100  10.4        5.1  0.20000 
1248.200  10.4        3.3  0.20000 
1248.300  10.3        3.5  0.10000 
1248.400  10.2        5.1  0.20000 
1248.500  10.2        4.6  0.20000 
1248.600  10.2        3.1  0.10000 
1248.700  10.2        2.9  0.20000 
1248.800  10.2        3.7  0.20000 
1248.900  10.2        3.3  0.20000 
1249.000  10.0        2.4  0.10000 
1249.100   9.9        1.8  0.20000 
1249.200   9.7        2.1  0.20000 
1249.300   9.6        1.8  0.20000 
1249.400   9.5        1.4  0.20000 
1249.500   9.5        0.7  0.10000 
1249.600   9.5        1.1  0.20000 
1249.700   9.6        1.1  0.20000 
1249.800   9.6        0.8  0.20000 
1249.900   9.6        0.4  0.10000 
1250.000   9.4        0.4  0.20000 
1250.100   9.4        0.4  0.20000 
1250.200   9.4        0.0  0.20000 
1250.300   9.6        0.0  0.20000 
1250.400   9.6        0.0  0.10000 
1250.500   9.8        0.4  0.21000 
1250.600   9.8        0.8  0.22000 
1250.700   9.8        0.8  0.22000 
1250.800   9.8        1.3  0.11000 
1250.900   9.8        2.0  0.22000 
1251.000   9.8        1.6  0.11000 
1251.100   9.7        1.6  0.21000 
1251.200   9.6        2.4  0.10000 
1251.300   9.6        2.4  0.20000 
1251.400   9.7        2.4  0.20000 
1251.500   9.7        2.4  0.20000 
1251.600   9.7        1.7  0.20000 
1251.700   9.7        3.0  0.10000 
1251.800   9.7        2.3  0.20000 
1251.900   9.6        1.8  0.20000 
1252.000   9.6        1.8  0.20000 
1252.100   9.6        1.8  0.20000 
1252.200   9.6        0.5  0.10000 
1252.300   9.6        0.0  0.20000 
1252.400   9.6        0.0  0.20000 
1252.500   9.6        0.0  0.20000 
1252.600   9.6        0.0  0.10000 
1252.700   9.6        0.0  0.20000 
1252.800   9.6        0.0  0.20000 
1252.900   9.5        0.0  0.20000 
1253.000   9.5        0.0  0.22000 
1253.100   9.5        0.0  0.11000 
1253.200   9.5        0.0  0.22000 
1253.300   9.5        0.2  0.22000 
1253.400   9.6        0.2  0.22000 
1253.500   9.6        0.2  0.00000 
1253.600   9.6        2.0  0.21000 
1253.700   9.6        3.1  0.20000 
1253.800   9.6        3.1  0.20000 
1253.900   9.7        3.1  0.20000 
1254.000   9.7        2.9  0.20000 
