~Version Information
 VERS.                2.0:  CWLS LOG ASCII STANDARD -VERSION 2.0
 WRAP.                 NO:  ONE LINE PER DEPTH STEP
~WELL INFORMATION BLOCK
#MNEM.UNIT       DATA		            DESCRIPTION OF MNEMONIC
#---------    -------------            ------------------------
 STRT.FT  41.500                         :START DEPTH
 STOP.FT  1871.500                       :STOP DEPTH
 STEP.FT  0.100                          :STEP    UP_HOLE  
 NULL.    0                              :NULL VALUE
 COMP.                            USGS   :COMPANY
 WELL.                      MCWD-DMW #1  :WELL
 FLD .                           Marina  :FIELD
 LOC .    None  None  None               :LOCATION
 CNTY.                         Monterey  :COUNTY
 STAT.             California            :STATE
 SRVC.    Western Reg                    :SERVICE COMPANY
 DATE.   05/27/00                        :LOG DATE
 UWI .                       	         :UNIQUE WELL ID
 LIC .                                   :LICENSE NUMBER
~Curve Information Block
#MNEM.UNIT      API CODE     Curve Description
#---------    -------------  ------------------------
 DEPT     .FT        00 001 00 00          :  1  DEPTH   
 GAM(NAT) .API-GR    00 310 00 00          :  2             GAM(NAT)
 COND     .MMHO/M    00 000 00 00          :  3                 COND
 RES      .OHM-M     00 000 00 00          :  4                  RES
 TEMP     .DEG F     00 660 00 00          :  5                 TEMP
 AP-COND  .MMHO/M    00 000 00 00          :  6              AP-COND
 TEMP     .CPS       00 660 00 00          :  7                 TEMP
 AP-COND  .CPS       00 000 00 00          :  8              AP-COND
 TENSION  .POUNDS    00 000 00 00          :  9              TENSION
 TIME     .MINUTES   00 000 00 00          : 10                 TIME
~Parameter Information Block
#MNEM.UNIT   Information     Description
#---------- ---------------  ------------------------
~Other Information
#MNEM.UNIT  Information      Description
#---------- ---------------  ------------------------
 FILE.      ORIGINAL           File Type
 FIID.      9511A              File Type Identifier
 VERS.      1.0                System Version
 SER .      1                  System Serial Number
 TRUK.      0.5                Truck Calibration Number
 TOOL.         770             Tool Serial Number
 TIME.      05:18:             Time
 LAT .          None           Latitude
 LON .          None           Longitude
 LMF .           LSD           Log Measured From
 DMF .           LSD           Driller Measured From
 PD  .          None           Permanent Data
 PDEV.          None           Elevation Permanent Data
 EKB .M         None           Elevation Kelly Bushing
 ELEV.DF        None           Elevation DF
 EGL .M         None           Elevation Ground Level
 DRDP.         1990'           Driller's Depth
 CASD.         0               Casing Diameter
 CASB.          None           Casing Bottom
 CASX.          None           Casing Type
 CAST.         0               Casing Thickness
 TNOC.          None           Time Circulation Stopped
 LOGU.       WRRD              Logging Unit
 RECB.           Everett       Recorded By
 OSR1.       Pimente           Other Services
 OSR2.       mud vis           Other Services
 OSR3.           =62           Other Services
 BS  .MM           6           Bit Size
 MST .                         Mean Surface Temperature
 TGRD.        0                Temperature Gradiant
 MAGN.             0           Magnetic Declination
 MDEN.      2.71               Density Matrix
 MATR.       Dolomite          Neutron Matrix
 DTMT.            54           Delta T Matrix
 DTFL.                         Delta T Fluid
 MUDS.               0         Mud Sample Source
 MRS .           0             Mud Resistivity
 MTP .           0             Mud Temperature
 MFRS.                         Resistivity Mud Filtrate
 MFTP.                         Temperature Mud Filtrate
 MCRS.         0               Resistivity Mud Cake
 MCTP.                         Temperature Mud Cake
 FTYP.             0           Fluid Type
 FD  .K/M3                     Fluid Density
 DFV .S                        Fluid Viscosity
 FPH .                         Fuild PH
 ELCO.        2500             Electron Cutoff
# -------------------------- 
~A DEPTH  GAM(NAT) COND     RES      TEMP  AP-COND  TEMP  AP-COND  TENSION  TIME    
# ...
1863.200     54.0     52.5     19.1  96.6     48.4  29390.0 60500.0      0.0  0.20000 
1863.300    101.3     51.8     19.3  96.6     47.8  29390.0 60425.0      0.0  0.20000 
1863.400     43.0     53.6     18.7  96.6     49.4  29390.0 60620.0      0.7  0.20000 
1863.500     74.3     52.7     19.0  96.6     48.6  29390.0 60525.0      2.1  0.20000 
1863.600     60.8     54.5     18.3  96.6     50.3  29390.0 60720.0      3.0  0.20000 
1863.700     64.1     53.6     18.6  96.6     49.5  29390.0 60625.0      3.1  0.20000 
1863.800     58.2     53.0     18.9  96.6     48.9  29390.0 60555.0      3.7  0.20000 
1863.900     50.6     52.6     19.0  96.6     48.6  29390.0 60520.0      4.9  0.20000 
1864.000     64.1     53.9     18.6  96.6     49.7  29390.0 60650.0      4.9  0.20000 
1864.100     70.9     53.2     18.8  96.6     49.0  29390.0 60575.0      4.0  0.20000 
1864.200     70.9     52.5     19.0  96.6     48.4  29390.0 60505.0      4.7  0.20000 
1864.300     54.0     53.6     18.7  96.6     49.4  29390.0 60620.0      7.3  0.20000 
1864.400     74.3     53.5     18.7  96.6     49.4  29390.0 60615.0     11.2  0.20000 
1864.500     64.1     53.4     18.7  96.6     49.2  29390.0 60600.0     10.7  0.20000 
1864.600     73.4     53.6     18.6  96.6     49.5  29390.0 60625.0     14.3  0.20000 
1864.700     57.4     53.1     18.8  96.6     49.0  29390.0 60565.0     21.3  0.30000 
1864.800     65.8     52.8     18.9  96.6     48.7  29390.0 60535.0     25.2  0.20000 
1864.900     64.1     53.4     18.7  96.6     49.2  29390.0 60596.7     19.4  0.20000 
1865.000     65.8     53.4     18.7  96.5     49.3  29385.0 60605.0     32.2  0.20000 
1865.100     75.9     54.0     18.5  96.6     49.8  29390.0 60670.0     40.3  0.20000 
1865.200     50.6     54.0     18.5  96.6     49.8  29390.0 60670.0     37.2  0.30000 
1865.300     91.1     52.6     19.0  96.6     48.5  29390.0 60510.0     30.1  0.20000 
1865.400     73.4     54.9     18.2  96.6     50.6  29390.0 60760.0     36.9  0.20000 
1865.500     53.2     54.0     18.5  96.6     49.8  29390.0 60665.0     54.9  0.30000 
1865.600     55.7     54.4     18.4  96.6     50.2  29390.0 60710.0     43.2  0.20000 
1865.700     60.8     53.1     18.8  96.6     49.0  29390.0 60566.7     39.4  0.20000 
1865.800     68.4     54.7     18.3  96.4     50.4  29380.0 60740.0     30.8  0.30000 
1865.900     81.0     53.8     18.6  96.6     49.6  29390.0 60640.0     19.6  0.20000 
1866.000     63.3     53.5     18.7  96.6     49.3  29390.0 60610.0      4.3  0.20000 
1866.100     50.6     53.1     18.8  96.6     49.0  29390.0 60570.0     19.1  0.30000 
1866.200     65.8     55.3     18.1  96.6     50.9  29390.0 60800.0     23.4  0.20000 
1866.300     89.1     54.0     18.5  96.5     49.8  29383.3 60670.0     24.0  0.20000 
1866.400     68.4     54.4     18.4  96.6     50.1  29390.0 60705.0     26.9  0.30000 
1866.500     83.0     54.4     18.4  96.6     50.2  29390.0 60710.0     23.6  0.20000 
1866.600     65.8     55.0     18.2  96.6     50.7  29390.0 60776.7     14.3  0.20000 
1866.700     85.1     53.7     18.6  96.5     49.5  29385.0 60635.0     10.4  0.30000 
1866.800     79.0     53.6     18.7  96.6     49.4  29390.0 60620.0     11.3  0.20000 
1866.900     62.8     53.0     18.9  96.6     48.9  29390.0 60553.3      6.8  0.20000 
1867.000     65.8     54.0     18.5  96.4     49.8  29380.0 60670.0      4.8  0.30000 
1867.100     66.3     52.9     18.9  96.6     48.8  29390.0 60545.0      2.4  0.30000 
1867.200      0.0     51.9     19.3  96.6     47.9  29390.0 60443.3      1.5  0.20000 
1867.300      0.0     51.6     19.4  96.5     47.7  29383.3 60413.3      1.1  0.40000 
1867.400      0.0     52.0     19.2  96.6     48.0  29390.0 60455.0      0.0  0.30000 
1867.500      0.0     51.1     19.6  96.6     47.2  29387.5 60352.5      0.0  0.30000 
1867.600      0.0     51.9     19.3  96.6     47.9  29390.0 60440.0      0.0  0.40000 
1867.700      0.0     52.4     19.1  96.6     48.4  29386.7 60496.7      0.0  0.30000 
1867.800      0.0     53.6     18.7  96.6     49.4  29387.5 60620.0      0.0  0.30000 
1867.900      0.0     53.8     18.6  96.6     49.6  29390.0 60643.3      0.7  0.30000 
1868.000      0.0     56.6     17.7  96.6     52.1  29386.7 60940.0      0.7  0.40000 
1868.100      0.0     55.4     18.1  96.6     51.0  29390.0 60810.0      2.7  0.30000 
1868.200      0.0     55.8     17.9  96.6     51.4  29387.5 60860.0      2.0  0.30000 
1868.300      0.0     54.7     18.3  96.6     50.4  29386.7 60743.3      3.4  0.30000 
1868.400      0.0     55.2     18.1  96.6     50.9  29386.7 60796.7      2.0  0.40000 
1868.500      0.0     54.9     18.2  96.6     50.6  29390.0 60763.3      2.0  0.30000 
1868.600      0.0     54.2     18.4  96.6     50.0  29387.5 60687.5      3.6  0.30000 
1868.700      0.0     56.2     17.8  96.5     51.8  29383.3 60900.0      2.1  0.30000 
1868.800      0.0     55.2     18.1  96.5     50.9  29383.3 60793.3      4.0  0.40000 
1868.900      0.0     55.5     18.0  96.6     51.1  29386.7 60826.7      3.9  0.30000 
1869.000      0.0     55.4     18.0  96.6     51.1  29387.5 60820.0      3.7  0.40000 
1869.100      0.0     54.3     18.4  96.6     50.1  29386.7 60696.7      3.3  0.30000 
1869.200      0.0     55.0     18.2  96.5     50.7  29385.0 60770.0      2.4  0.40000 
1869.300      0.0     54.9     18.2  96.6     50.6  29386.7 60766.7      1.7  0.40000 
1869.400      0.0     55.0     18.2  96.5     50.7  29385.0 60770.0      0.9  0.40000 
1869.500      0.0     54.9     18.2  96.6     50.6  29387.5 60765.0      0.1  0.40000 
1869.600      0.0     54.7     18.3  96.6     50.4  29387.5 60740.0      0.2  0.40000 
1869.700      0.0     55.0     18.2  96.5     50.7  29385.0 60770.0      0.2  0.40000 
1869.800      0.0     55.5     18.0  96.5     51.1  29385.0 60827.5      0.0  0.40000 
1869.900      0.0     57.2     17.5  96.6     52.7  29387.5 61010.0      0.1  0.40000 
1870.000      0.0     56.4     17.7  96.5     51.9  29382.5 60922.5      0.1  0.40000 
1870.100      0.0     54.9     18.2  96.6     50.6  29387.5 60767.5      0.0  0.40000 
1870.200      0.0     56.1     17.8  96.5     51.7  29385.0 60887.5      0.0  0.40000 
1870.300      0.0     56.0     17.9  96.5     51.6  29385.0 60880.0      0.1  0.40000 
1870.400      0.0     55.9     17.9  96.5     51.5  29385.0 60867.5      0.1  0.40000 
1870.500      0.0     55.3     18.1  96.6     51.0  29387.5 60810.0      0.2  0.50000 
1870.600      0.0     54.4     18.4  96.5     50.1  29385.0 60705.0      0.2  0.40000 
1870.700      0.0     55.0     18.2  96.5     50.7  29386.0 60778.0      0.0  0.50000 
1870.800      0.0     53.7     18.6  96.5     49.6  29385.0 60637.5      0.0  0.40000 
1870.900      0.0     54.1     18.5  96.5     49.9  29386.0 60676.0      0.0  0.53000 
1871.000      0.0     53.6     18.7  96.5     49.4  29385.0 60620.0      0.0  0.55000 
1871.100      0.0     53.0     18.9  96.5     48.9  29384.0 60562.0      0.0  0.92000 
1871.200      0.0     53.9     18.6  96.5     49.7  29386.0 60654.0      0.2  1.40000 
1871.300      0.0     52.9     18.9  96.5     48.8  29385.0 60551.0      1.0  6.20000 
1871.400      0.0     53.6     18.7  96.5     49.4  29385.0 60624.3      1.2  0.00000 
1871.500      0.0     52.8     18.9  96.5     48.7  29383.9 60539.4      0.5  0.00000 
