~Version Information
 VERS.                2.0:  CWLS LOG ASCII STANDARD -VERSION 2.0
 WRAP.                 NO:  ONE LINE PER DEPTH STEP
~WELL INFORMATION BLOCK
#MNEM.UNIT       DATA		            DESCRIPTION OF MNEMONIC
#---------    -------------            ------------------------
 STRT.FT  1.400                          :START DEPTH
 STOP.FT  1872.000                       :STOP DEPTH
 STEP.FT  0.100                          :STEP    UP_HOLE  
 NULL.    0                              :NULL VALUE
 COMP.                            USGS   :COMPANY
 WELL.                      MCWD-DMW #1  :WELL
 FLD .                           Marina  :FIELD
 LOC .    None  None  None               :LOCATION
 CNTY.                         Monterey  :COUNTY
 STAT.             California            :STATE
 SRVC.    Western Reg                    :SERVICE COMPANY
 DATE.   05/27/00                        :LOG DATE
 UWI .                       	         :UNIQUE WELL ID
 LIC .                                   :LICENSE NUMBER
~Curve Information Block
#MNEM.UNIT      API CODE     Curve Description
#---------    -------------  ------------------------
 DEPT     .FT        00 001 00 00          :  1  DEPTH   
 TIME(N)  .USEC      00 000 00 00          :  2              TIME(N)
 TIME(F)  .USEC      00 000 00 00          :  3              TIME(F)
 DELTAT   .USEC/FT   00 522 00 00          :  4               DELTAT
 AMP(N)   .MV        00 000 00 00          :  5               AMP(N)
 AMP(F)   .MV        00 000 00 00          :  6               AMP(F)
 XTR PWR  .PERCENT   00 000 00 00          :  7              XTR PWR
 POR(SON) .PERCENT   00 890 00 00          :  8             POR(SON)
 BHC-DELT .USEC/FT   00 520 00 00          :  9             BHC-DELT
 TENSION  .POUNDS    00 000 00 00          : 10              TENSION
 TIME     .MINUTES   00 000 00 00          : 11                 TIME
~Parameter Information Block
#MNEM.UNIT   Information     Description
#---------- ---------------  ------------------------
~Other Information
#MNEM.UNIT  Information      Description
#---------- ---------------  ------------------------
 FILE.      ORIGINAL           File Type
 FIID.      9300A              File Type Identifier
 VERS.      1.0                System Version
 SER .      1                  System Serial Number
 TRUK.      0.5                Truck Calibration Number
 TOOL.         691             Tool Serial Number
 TIME.      07:18:             Time
 LAT .          None           Latitude
 LON .          None           Longitude
 LMF .           LSD           Log Measured From
 DMF .           LSD           Driller Measured From
 PD  .          None           Permanent Data
 PDEV.          None           Elevation Permanent Data
 EKB .M         None           Elevation Kelly Bushing
 ELEV.DF        None           Elevation DF
 EGL .M         None           Elevation Ground Level
 DRDP.         1990'           Driller's Depth
 CASD.         0               Casing Diameter
 CASB.          None           Casing Bottom
 CASX.          None           Casing Type
 CAST.         0               Casing Thickness
 TNOC.          None           Time Circulation Stopped
 LOGU.       WRRD              Logging Unit
 RECB.           Everett       Recorded By
 OSR1.       Pimente           Other Services
 OSR2.       mud vis           Other Services
 OSR3.           =62           Other Services
 BS  .MM           6           Bit Size
 MST .                         Mean Surface Temperature
 TGRD.        0                Temperature Gradiant
 MAGN.             0           Magnetic Declination
 MDEN.      2.71               Density Matrix
 MATR.       Dolomite          Neutron Matrix
 DTMT.            54           Delta T Matrix
 DTFL.                         Delta T Fluid
 MUDS.               0         Mud Sample Source
 MRS .           0             Mud Resistivity
 MTP .           0             Mud Temperature
 MFRS.                         Resistivity Mud Filtrate
 MFTP.                         Temperature Mud Filtrate
 MCRS.         0               Resistivity Mud Cake
 MCTP.                         Temperature Mud Cake
 FTYP.             0           Fluid Type
 FD  .K/M3                     Fluid Density
 DFV .S                        Fluid Viscosity
 FPH .                         Fuild PH
 ELCO.        2500             Electron Cutoff
# -------------------------- 
~A DEPTH  TIME(N) TIME(F) DELTAT AMP(N)   AMP(F)   XTR PWR POR(SON) BHC-DELT TENSION  TIME    
# ...
1616.400   570     729    159.1   3074.0   2064.0  22.0    41.6      159         1.0  0.11000 
1616.500   570     729    159.1   2940.5   2072.5  21.6    41.6      159         0.8  0.22000 
1616.600   570     729    159.2   2978.5   2116.5  22.4    41.6      159         1.3  0.11000 
1616.700   570     730    159.6   3203.5   1970.0  23.7    41.6      159         0.8  0.21000 
1616.800   570     729    159.6   3280.0   1731.5  24.3    41.6      159         0.9  0.20000 
1616.900   569     729    159.4   3202.5   1748.0  24.5    41.6      159         0.6  0.10000 
1617.000   569     728    159.4   2902.0   1853.0  24.0    41.5      158         0.6  0.20000 
1617.100   569     728    159.4   2688.5   1942.5  23.0    41.5      158         0.6  0.20000 
1617.200   569     727    158.9   2594.0   1873.5  22.8    41.4      158         0.6  0.20000 
1617.300   569     727    158.6   2617.0   1861.5  23.8    41.4      158         0.1  0.21000 
1617.400   569     727    158.0   2637.0   1776.0  25.3    41.4      157         0.5  0.11000 
1617.500   570     728    157.4   2597.0   1713.5  27.2    41.3      157         0.5  0.22000 
1617.600   571     728    157.0   2650.5   1826.5  27.9    41.3      157         0.8  0.22000 
1617.700   572     729    157.1   2928.5   2189.0  27.6    41.3      157         0.8  0.22000 
1617.800   571     729    157.6   3317.5   2545.0  26.7    41.4      157         0.9  0.11000 
1617.900   571     729    158.1   3618.5   2715.5  26.0    41.5      158         0.9  0.11000 
1618.000   570     728    158.1   3641.0   2564.0  25.0    41.5      158         0.4  0.20000 
1618.100   570     728    158.1   3523.5   2346.5  23.6    41.5      158         1.3  0.20000 
1618.200   569     727    158.8   3229.5   2128.0  22.1    41.6      159         1.1  0.20000 
1618.300   568     728    159.5   3015.0   1993.0  21.5    41.6      159         1.0  0.10000 
1618.400   568     728    160.1   2944.5   1934.0  22.3    41.7      160         2.2  0.20000 
1618.500   569     729    159.8   3030.0   1849.5  23.8    41.7      159         2.2  0.20000 
1618.600   570     730    160.2   3073.0   1736.5  25.4    41.7      160         3.0  0.22000 
1618.700   570     730    160.6   3094.0   1751.0  27.0    41.8      160         4.2  0.11000 
1618.800   570     730    160.7   3130.0   1836.0  27.5    41.8      161         4.2  0.22000 
1618.900   569     730    160.9   3276.0   2146.0  27.2    41.8      161         4.8  0.22000 
1619.000   568     730    161.5   3177.5   2279.0  26.8    41.9      161         3.5  0.22000 
1619.100   568     729    160.8   3017.0   2303.0  26.6    41.8      161         3.6  0.11000 
1619.200   569     729    159.8   2937.0   2136.0  26.5    41.8      160         2.8  0.10000 
1619.300   569     728    158.9   3011.0   1980.0  26.5    41.7      160         0.7  0.20000 
1619.400   569     728    159.0   3078.5   1908.0  26.8    41.7      160         1.1  0.20000 
1619.500   570     729    159.6   3113.5   1911.0  27.3    41.8      160         1.1  0.20000 
1619.600   570     729    159.3   3066.0   1919.5  27.3    41.8      160         0.5  0.20000 
1619.700   571     729    158.3   2975.0   1942.0  26.9    41.7      160         1.1  0.10000 
1619.800   571     729    157.6   2904.5   1949.0  26.8    41.6      159         1.1  0.20000 
1619.900   571     728    157.1   2783.0   1938.3  27.1    41.5      158         1.8  0.20000 
1620.000   571     728    156.9   2695.0   1941.5  27.5    41.4      158         2.6  0.20000 
1620.100   571     728    157.4   2611.5   1886.5  28.0    41.4      158         2.6  0.20000 
1620.200   571     729    157.6   2790.0   2009.0  28.1    41.4      158         3.6  0.10000 
1620.300   571     729    157.9   3311.5   2136.0  27.7    41.4      158         3.2  0.20000 
1620.400   571     730    158.4   3651.0   2127.5  27.2    41.5      158         2.7  0.20000 
1620.500   571     730    159.3   3469.5   2122.5  26.4    41.5      159         2.7  0.20000 
1620.600   570     730    160.6   3335.5   2075.0  24.9    41.7      159         1.5  0.10000 
1620.700   569     731    161.6   3302.0   1960.0  23.2    41.8      160         0.5  0.20000 
1620.800   569     731    162.2   3205.5   1886.5  22.6    41.8      161         0.2  0.20000 
1620.900   568     731    162.4   3168.0   1788.0  24.0    41.9      161         0.2  0.20000 
1621.000   568     731    162.5   3130.0   1743.5  25.7    41.9      161         0.0  0.20000 
1621.100   568     731    162.7   3086.0   1740.5  26.5    41.9      161         0.0  0.20000 
1621.200   568     731    162.8   3004.5   1804.5  26.9    41.9      161         0.0  0.10000 
1621.300   568     730    162.4   2929.0   2062.5  27.2    41.8      161         0.3  0.20000 
1621.400   568     730    162.1   2938.0   2172.5  27.3    41.8      161         0.3  0.20000 
1621.500   568     729    161.1   3138.0   1983.0  27.2    41.7      160         0.3  0.20000 
1621.600   569     728    159.7   3449.5   1951.5  27.1    41.6      159         0.3  0.20000 
1621.700   569     728    159.3   3302.5   1938.0  26.7    41.6      159         0.9  0.20000 
1621.800   568     727    159.1   2987.0   1877.5  26.1    41.6      159         0.6  0.10000 
1621.900   568     727    159.0   2867.0   1858.5  25.3    41.6      159         0.6  0.20000 
1622.000   568     727    158.9   2887.0   1848.5  24.4    41.6      159         0.6  0.20000 
1622.100   568     727    158.6   2893.0   1859.5  24.6    41.6      159         0.6  0.21000 
1622.200   568     727    159.4   3041.0   1721.5  25.5    41.7      160         0.6  0.22000 
1622.300   568     727    159.3   3125.0   1667.0  25.7    41.7      160         0.0  0.22000 
1622.400   567     727    160.2   2924.5   1671.0  25.2    41.7      160         0.0  0.22000 
1622.500   568     728    160.1   2741.5   1817.0  24.6    41.7      160         0.9  0.11000 
1622.600   568     728    159.8   2644.0   1981.0  24.0    41.7      160         0.9  0.11000 
1622.700   569     728    159.9   2610.0   1909.0  24.4    41.7      160         0.9  0.21000 
1622.800   568     729    160.7   2589.5   1837.5  26.1    41.7      160         0.9  0.20000 
1622.900   569     730    160.4   2682.0   1845.0  27.5    41.7      160         0.9  0.20000 
1623.000   571     730    159.4   2764.0   1853.0  27.6    41.7      160         0.9  0.20000 
1623.100   573     731    158.4   2911.5   2117.5  27.0    41.6      159         0.0  0.10000 
1623.200   574     732    158.0   3034.5   2556.0  26.4    41.6      159         0.4  0.20000 
1623.300   574     732    158.0   3048.0   2655.5  25.9    41.6      159         0.4  0.20000 
1623.400   574     732    157.8   2898.5   2295.0  25.3    41.6      159         0.4  0.20000 
1623.500   575     733    157.9   2585.0   2023.0  24.9    41.6      159         0.4  0.20000 
1623.600   576     734    158.2   2710.5   2036.0  24.8    41.6      159         0.4  0.20000 
1623.700   577     734    157.9   2936.5   2196.0  24.8    41.6      159         0.5  0.10000 
1623.800   577     734    157.4   2882.0   2198.5  24.9    41.6      159         0.7  0.20000 
1623.900   577     734    157.9   2881.0   2172.5  24.9    41.6      159         1.1  0.20000 
1624.000   577     736    158.4   2914.5   2180.5  24.3    41.6      159         1.1  0.20000 
1624.100   578     737    158.9   2906.0   2149.5  22.8    41.6      159         1.5  0.20000 
1624.200   578     737    158.6   2741.0   2040.5  22.2    41.6      159         1.7  0.20000 
1624.300   579     737    158.1   2570.0   2046.0  21.9    41.5      159         1.7  0.20000 
1624.400   579     737    157.6   2478.5   1973.0  21.6    41.5      158         1.7  0.20000 
1624.500   579     737    158.4   2684.0   1859.5  21.3    41.5      158         1.6  0.10000 
1624.600   579     738    159.4   3098.0   1964.0  21.2    41.6      159         1.2  0.20000 
1624.700   579     738    159.9   3363.5   1978.5  20.9    41.6      159         1.6  0.20000 
1624.800   579     738    159.6   3462.0   2010.5  20.2    41.6      159         1.6  0.20000 
