~Version Information
 VERS.                2.0:  CWLS LOG ASCII STANDARD -VERSION 2.0
 WRAP.                 NO:  ONE LINE PER DEPTH STEP
~WELL INFORMATION BLOCK
#MNEM.UNIT       DATA		            DESCRIPTION OF MNEMONIC
#---------    -------------            ------------------------
 STRT.FT  1.400                          :START DEPTH
 STOP.FT  1872.000                       :STOP DEPTH
 STEP.FT  0.100                          :STEP    UP_HOLE  
 NULL.    0                              :NULL VALUE
 COMP.                            USGS   :COMPANY
 WELL.                      MCWD-DMW #1  :WELL
 FLD .                           Marina  :FIELD
 LOC .    None  None  None               :LOCATION
 CNTY.                         Monterey  :COUNTY
 STAT.             California            :STATE
 SRVC.    Western Reg                    :SERVICE COMPANY
 DATE.   05/27/00                        :LOG DATE
 UWI .                       	         :UNIQUE WELL ID
 LIC .                                   :LICENSE NUMBER
~Curve Information Block
#MNEM.UNIT      API CODE     Curve Description
#---------    -------------  ------------------------
 DEPT     .FT        00 001 00 00          :  1  DEPTH   
 TIME(N)  .USEC      00 000 00 00          :  2              TIME(N)
 TIME(F)  .USEC      00 000 00 00          :  3              TIME(F)
 DELTAT   .USEC/FT   00 522 00 00          :  4               DELTAT
 AMP(N)   .MV        00 000 00 00          :  5               AMP(N)
 AMP(F)   .MV        00 000 00 00          :  6               AMP(F)
 XTR PWR  .PERCENT   00 000 00 00          :  7              XTR PWR
 POR(SON) .PERCENT   00 890 00 00          :  8             POR(SON)
 BHC-DELT .USEC/FT   00 520 00 00          :  9             BHC-DELT
 TENSION  .POUNDS    00 000 00 00          : 10              TENSION
 TIME     .MINUTES   00 000 00 00          : 11                 TIME
~Parameter Information Block
#MNEM.UNIT   Information     Description
#---------- ---------------  ------------------------
~Other Information
#MNEM.UNIT  Information      Description
#---------- ---------------  ------------------------
 FILE.      ORIGINAL           File Type
 FIID.      9300A              File Type Identifier
 VERS.      1.0                System Version
 SER .      1                  System Serial Number
 TRUK.      0.5                Truck Calibration Number
 TOOL.         691             Tool Serial Number
 TIME.      07:18:             Time
 LAT .          None           Latitude
 LON .          None           Longitude
 LMF .           LSD           Log Measured From
 DMF .           LSD           Driller Measured From
 PD  .          None           Permanent Data
 PDEV.          None           Elevation Permanent Data
 EKB .M         None           Elevation Kelly Bushing
 ELEV.DF        None           Elevation DF
 EGL .M         None           Elevation Ground Level
 DRDP.         1990'           Driller's Depth
 CASD.         0               Casing Diameter
 CASB.          None           Casing Bottom
 CASX.          None           Casing Type
 CAST.         0               Casing Thickness
 TNOC.          None           Time Circulation Stopped
 LOGU.       WRRD              Logging Unit
 RECB.           Everett       Recorded By
 OSR1.       Pimente           Other Services
 OSR2.       mud vis           Other Services
 OSR3.           =62           Other Services
 BS  .MM           6           Bit Size
 MST .                         Mean Surface Temperature
 TGRD.        0                Temperature Gradiant
 MAGN.             0           Magnetic Declination
 MDEN.      2.71               Density Matrix
 MATR.       Dolomite          Neutron Matrix
 DTMT.            54           Delta T Matrix
 DTFL.                         Delta T Fluid
 MUDS.               0         Mud Sample Source
 MRS .           0             Mud Resistivity
 MTP .           0             Mud Temperature
 MFRS.                         Resistivity Mud Filtrate
 MFTP.                         Temperature Mud Filtrate
 MCRS.         0               Resistivity Mud Cake
 MCTP.                         Temperature Mud Cake
 FTYP.             0           Fluid Type
 FD  .K/M3                     Fluid Density
 DFV .S                        Fluid Viscosity
 FPH .                         Fuild PH
 ELCO.        2500             Electron Cutoff
# -------------------------- 
~A DEPTH  TIME(N) TIME(F) DELTAT AMP(N)   AMP(F)   XTR PWR POR(SON) BHC-DELT TENSION  TIME    
# ...
1862.900   531     669    137.5   3452.0   2035.5  22.1    38.2      137         0.9  0.20000 
1863.000   532     669    137.5   3489.5   1968.5  21.8    38.3      138         0.8  0.20000 
1863.100   532     669    137.1   3382.5   1924.5  21.4    38.3      138         0.4  0.20000 
1863.200   532     670    137.2   3156.5   1969.0  21.4    38.3      138         0.4  0.20000 
1863.300   533     670    136.9   3039.5   2000.0  21.6    38.3      138         0.0  0.20000 
1863.400   533     670    136.8   2983.5   1982.5  22.5    38.3      138         0.0  0.20000 
1863.500   534     670    136.3   2776.5   1968.0  23.6    38.2      137         0.0  0.20000 
1863.600   535     670    135.2   2404.5   1975.5  24.8    38.1      137         0.0  0.20000 
1863.700   536     671    134.5   2050.7   1969.0  25.6    38.1      137         0.0  0.20000 
1863.800   537     671    133.5   1841.0   2014.0  25.6    38.0      136         0.0  0.20000 
1863.900   539     671    131.8   1656.0   2002.0  25.2    37.9      136         0.5  0.20000 
1864.000   541     671    129.9   2005.5   2063.5  24.3    37.7      135         0.5  0.20000 
1864.100   542     671    128.9   2359.5   2057.0  22.4    37.6      134         0.5  0.20000 
1864.200   543     671    128.1   2338.7   1937.5  20.8    37.6      134         0.9  0.20000 
1864.300   544     672    127.3   2308.5   1871.0  19.9    37.5      133         0.9  0.20000 
1864.400   545     611     65.6   2479.0   1721.0  18.6    29.8      102         1.0  0.20000 
1864.500   546     674    127.8   2631.0   1585.0  17.0    37.5      133         1.7  0.20000 
1864.600   547     653    106.1   2681.5   1773.0  16.7    35.2      122         2.0  0.20000 
1864.700   547     643     95.2   2742.3   2694.7  15.6    33.9      117         1.9  0.20000 
1864.800   547     678    130.7   2848.0   2738.0  13.8    37.7      135         1.9  0.20000 
1864.900   547     681    133.3   2842.0   2663.5  12.5    38.0      136         1.3  0.20000 
1865.000   546     681    135.4   2994.0   2820.0  11.4    38.2      137         0.6  0.20000 
1865.100   544     679    135.2   2769.7   2392.0  10.6    38.2      137         1.1  0.20000 
1865.200   541     676    135.1   2660.0   2137.3   9.8    38.2      137         1.0  0.20000 
1865.300   539     675    136.3   2609.7   2182.0   9.1    38.3      138         1.3  0.20000 
1865.400   537     675    137.4   2686.0   2039.0   9.1    38.4      138         1.6  0.20000 
1865.500   536     674    138.3   2818.3   2052.5   9.1    38.5      139         1.6  0.20000 
1865.600   535     674    139.1   2861.0   2067.5   9.5    38.5      139         0.8  0.30000 
1865.700   534     674    139.5   2871.0   2070.3   9.3    38.6      139         0.9  0.20000 
1865.800   533     673    140.1   2927.0   2104.5   9.1    38.6      139         0.6  0.20000 
1865.900   533     673    140.1   2727.7   2125.0   9.1    38.6      139         0.4  0.20000 
1866.000   533     672    138.6   2828.0   2251.0   9.1    38.4      138         0.4  0.20000 
1866.100   532     671    138.7   2976.0   2235.0   9.1    38.4      138         0.4  0.20000 
1866.200   532     670    138.4   2932.7   2349.5   9.1    38.4      138         0.1  0.20000 
1866.300   531     670    138.2   2938.3   2359.0   9.6    38.4      139         0.1  0.20000 
1866.400   530     669    138.4   2855.3   2304.0   9.7    38.4      139         0.1  0.20000 
1866.500   529     668    139.3   2884.7   2257.7   9.0    38.5      139         0.1  0.20000 
1866.600   528     667    139.3   2838.7   2171.5   8.8    38.5      139         0.1  0.20000 
1866.700   528     667    138.6   2849.0   2184.7   8.8    38.5      139         0.1  0.20000 
1866.800   528     666    138.2   2873.0   2280.7   8.7    38.5      139         0.1  0.20000 
1866.900   528     666    138.2   2892.8   2137.3   8.4    38.5      139         0.0  0.20000 
1867.000   528     666    138.5   2889.7   2055.0   8.6    38.5      139         0.7  0.20000 
1867.100   527     666    138.5   2931.3   2079.5   8.6    38.5      139         0.7  0.20000 
1867.200   527     666    138.5   2949.3   2066.3   8.4    38.5      139         0.7  0.20000 
1867.300   527     666    138.5   2965.5   2058.0   8.4    38.5      139         0.7  0.20000 
1867.400   527     665    138.6   3007.8   2130.0   8.4    31.5      108         0.9  0.20000 
1867.500   526     664    137.5   3063.4   2220.7   8.5    38.5      139         0.9  0.30000 
1867.600   526     663    137.2   3152.2   2136.7   8.5    36.3      127         1.3  0.20000 
1867.700   525     663    137.6   3214.2   2170.0   8.6    35.1      122         2.5  0.20000 
1867.800   525     663    137.8   3178.0   2152.0   8.8    38.6        0         2.5  0.20000 
1867.900   525     663    137.7   3152.6   2155.8   9.0    38.6        0         3.7  0.20000 
1868.000   525     663    137.5   3148.9   2127.3   9.4    38.5        0         8.0  0.30000 
1868.100     0     662      0.0   2602.3   2126.0  10.2    37.9        0        11.2  0.20000 
1868.200     0     662      0.0   4652.3   2115.7  11.2    37.7        0        12.6  0.20000 
1868.300     0     662      0.0   3838.8   2097.5  11.9    37.6        0        13.3  0.20000 
1868.400     0     661      0.0   3124.3   2088.0  11.9    37.4        0        11.9  0.20000 
1868.500     0     661      0.0   3089.0   2062.2  11.8    37.2        0         7.9  0.30000 
1868.600     0     660      0.0   2743.0      0.0   7.7    37.0        0         6.0  0.20000 
1868.700     0     659      0.0   2656.0      0.0   7.5    36.7        0         6.1  0.20000 
1868.800     0     659      0.0   3784.0      0.0  11.1    36.6        0         6.5  0.20000 
1868.900     0     658      0.0   3599.0      0.0  11.5    36.7        0         5.5  0.30000 
1869.000     0     659      0.0   3150.7      0.0  11.5    36.8        0         3.8  0.20000 
1869.100     0       0      0.0      0.0      0.0  10.9    37.4        0         1.1  0.30000 
1869.200     0       0      0.0      0.0      0.0   9.1    37.4        0         0.0  0.20000 
1869.300     0       0      0.0      0.0      0.0   8.4    37.3        0         0.4  0.30000 
1869.400     0       0      0.0      0.0      0.0  11.5    37.4        0         0.4  0.20000 
1869.500     0       0      0.0      0.0      0.0  12.0    37.5        0         0.4  0.30000 
1869.600     0       0      0.0      0.0      0.0  11.9    37.6        0         0.7  0.30000 
1869.700     0       0      0.0      0.0      0.0  11.9    37.7        0         0.3  0.30000 
1869.800     0       0      0.0      0.0      0.0  11.9    37.7        0         0.3  0.30000 
1869.900     0       0      0.0      0.0      0.0  11.9    37.5        0         0.3  0.20000 
1870.000     0       0      0.0      0.0      0.0  11.9    37.5        0         0.2  0.30000 
1870.100     0       0      0.0      0.0      0.0  11.9    37.5        0         0.5  0.30000 
1870.200     0       0      0.0      0.0      0.0  11.9    37.5        0         0.5  0.30000 
1870.300     0       0      0.0      0.0      0.0  11.9    37.6        0         0.3  0.30000 
1870.400     0       0      0.0      0.0      0.0  11.9    37.7        0         0.3  0.30000 
1870.500     0       0      0.0      0.0      0.0  11.8    37.7        0         0.0  0.40000 
1870.600     0       0      0.0      0.0      0.0  11.9    37.7        0         0.0  0.32000 
1870.700     0       0      0.0      0.0      0.0  11.9    37.7        0         0.5  0.44000 
1870.800     0       0      0.0      0.0      0.0  11.9    37.7        0         0.8  0.33000 
1870.900     0       0      0.0      0.0      0.0  11.9    37.7        0         0.8  0.31000 
1871.000     0       0      0.0      0.0      0.0  11.9    37.7        0         0.3  0.30000 
1871.100     0       0      0.0      0.0      0.0  11.9    37.7        0         0.0  0.40000 
1871.200     0       0      0.0      0.0      0.0  11.9    37.7        0         0.0  0.50000 
1871.300     0       0      0.0      0.0      0.0  11.9    37.6        0         0.0  0.50000 
