~Version Information
 VERS.                2.0:  CWLS LOG ASCII STANDARD -VERSION 2.0
 WRAP.                 NO:  ONE LINE PER DEPTH STEP
~WELL INFORMATION BLOCK
#MNEM.UNIT       DATA		            DESCRIPTION OF MNEMONIC
#---------    -------------            ------------------------
 STRT.FT  5.300                          :START DEPTH
 STOP.FT  1874.500                       :STOP DEPTH
 STEP.FT  0.100                          :STEP    UP_HOLE  
 NULL.    0                              :NULL VALUE
 COMP.                            USGS   :COMPANY
 WELL.                      MCWD-DMW #1  :WELL
 FLD .                           Marina  :FIELD
 LOC .    None  None  None               :LOCATION
 CNTY.                         Monterey  :COUNTY
 STAT.             California            :STATE
 SRVC.    Western Reg                    :SERVICE COMPANY
 DATE.   05/27/00                        :LOG DATE
 UWI .                       	         :UNIQUE WELL ID
 LIC .                                   :LICENSE NUMBER
~Curve Information Block
#MNEM.UNIT      API CODE     Curve Description
#---------    -------------  ------------------------
 DEPT     .FT        00 001 00 00          :  1  DEPTH   
 CALIPER  .INCH      00 280 00 00          :  2              CALIPER
 TENSION  .POUNDS    00 000 00 00          :  3              TENSION
 TIME     .MINUTES   00 000 00 00          :  4                 TIME
~Parameter Information Block
#MNEM.UNIT   Information     Description
#---------- ---------------  ------------------------
~Other Information
#MNEM.UNIT  Information      Description
#---------- ---------------  ------------------------
 FILE.      ORIGINAL           File Type
 FIID.      9065A              File Type Identifier
 VERS.      1.0                System Version
 SER .      1                  System Serial Number
 TRUK.      0.5                Truck Calibration Number
 TOOL.         573             Tool Serial Number
 TIME.      03:05:             Time
 LAT .          None           Latitude
 LON .          None           Longitude
 LMF .           LSD           Log Measured From
 DMF .           LSD           Driller Measured From
 PD  .          None           Permanent Data
 PDEV.          None           Elevation Permanent Data
 EKB .M         None           Elevation Kelly Bushing
 ELEV.DF        None           Elevation DF
 EGL .M         None           Elevation Ground Level
 DRDP.         1990'           Driller's Depth
 CASD.         0               Casing Diameter
 CASB.          None           Casing Bottom
 CASX.          None           Casing Type
 CAST.         0               Casing Thickness
 TNOC.          None           Time Circulation Stopped
 LOGU.       WRRD              Logging Unit
 RECB.           Everett       Recorded By
 OSR1.       Pimente           Other Services
 OSR2.       mud vis           Other Services
 OSR3.           =62           Other Services
 BS  .MM           6           Bit Size
 MST .                         Mean Surface Temperature
 TGRD.        0                Temperature Gradiant
 MAGN.             0           Magnetic Declination
 MDEN.      2.71               Density Matrix
 MATR.       Dolomite          Neutron Matrix
 DTMT.            54           Delta T Matrix
 DTFL.                         Delta T Fluid
 MUDS.               0         Mud Sample Source
 MRS .           0             Mud Resistivity
 MTP .           0             Mud Temperature
 MFRS.                         Resistivity Mud Filtrate
 MFTP.                         Temperature Mud Filtrate
 MCRS.         0               Resistivity Mud Cake
 MCTP.                         Temperature Mud Cake
 FTYP.             0           Fluid Type
 FD  .K/M3                     Fluid Density
 DFV .S                        Fluid Viscosity
 FPH .                         Fuild PH
 ELCO.        2500             Electron Cutoff
# -------------------------- 
~A DEPTH  CALIPER TENSION  TIME    
# ...
 741.200   9.7        0.0  0.20000 
 741.300   9.7        0.0  0.20000 
 741.400   9.7        0.0  0.10000 
 741.500   9.7        0.0  0.20000 
 741.600   9.7        0.0  0.20000 
 741.700   9.7        0.0  0.22000 
 741.800   9.7        0.0  0.22000 
 741.900   9.7        0.0  0.11000 
 742.000   9.7        0.0  0.22000 
 742.100   9.7        0.0  0.22000 
 742.200   9.7        0.0  0.11000 
 742.300   9.7        0.0  0.10000 
 742.400   9.7        0.0  0.20000 
 742.500   9.7        0.0  0.20000 
 742.600   9.7        0.1  0.20000 
 742.700   9.7        0.1  0.10000 
 742.800   9.7        0.1  0.20000 
 742.900   9.7        0.1  0.21000 
 743.000   9.7        0.1  0.22000 
 743.100   9.7        0.1  0.11000 
 743.200   9.7        0.0  0.22000 
 743.300   9.7        0.0  0.22000 
 743.400   9.7        0.0  0.11000 
 743.500   9.7        0.0  0.11000 
 743.600   9.7        0.0  0.20000 
 743.700   9.7        0.0  0.20000 
 743.800   9.7        1.2  0.10000 
 743.900   9.7        1.2  0.20000 
 744.000   9.8        1.2  0.20000 
 744.100   9.8        2.6  0.20000 
 744.200   9.8        2.6  0.10000 
 744.300   9.8        3.0  0.20000 
 744.400   9.8        2.1  0.20000 
 744.500   9.8        2.1  0.20000 
 744.600   9.9        2.9  0.10000 
 744.700   9.9        1.5  0.20000 
 744.800   9.9        1.6  0.20000 
 744.900   9.9        1.6  0.20000 
 745.000   9.9        1.4  0.10000 
 745.100   9.9        0.6  0.20000 
 745.200   9.9        0.6  0.20000 
 745.300   9.9        0.6  0.20000 
 745.400   9.9        0.1  0.10000 
 745.500   9.9        0.1  0.22000 
 745.600   9.9        0.0  0.22000 
 745.700   9.9        0.0  0.22000 
 745.800   9.9        0.0  0.11000 
 745.900   9.9        0.0  0.22000 
 746.000   9.9        0.5  0.11000 
 746.100   9.9        0.5  0.10000 
 746.200   9.9        0.5  0.20000 
 746.300  10.0        1.1  0.20000 
 746.400   9.9        1.1  0.20000 
 746.500   9.9        1.3  0.10000 
 746.600   9.9        0.8  0.20000 
 746.700   9.9        0.8  0.20000 
 746.800   9.9        0.8  0.20000 
 746.900   9.9        0.2  0.10000 
 747.000   9.9        0.2  0.20000 
 747.100   9.9        0.0  0.20000 
 747.200   9.9        0.0  0.20000 
 747.300   9.9        0.0  0.10000 
 747.400   9.9        0.0  0.20000 
 747.500   9.9        0.2  0.20000 
 747.600   9.9        0.2  0.20000 
 747.700   9.9        0.2  0.10000 
 747.800  10.0        0.2  0.20000 
 747.900  10.0        0.2  0.20000 
 748.000  10.0        0.2  0.20000 
 748.100   9.9        0.0  0.10000 
 748.200   9.9        0.0  0.20000 
 748.300   9.9        0.0  0.20000 
 748.400   9.9        0.0  0.20000 
 748.500   9.9        0.0  0.10000 
 748.600   9.9        0.0  0.20000 
 748.700   9.9        0.0  0.20000 
 748.800   9.9        0.0  0.20000 
 748.900   9.9        0.0  0.10000 
 749.000   9.9        0.0  0.20000 
 749.100   9.9        0.0  0.20000 
 749.200   9.9        0.0  0.20000 
 749.300   9.9        0.0  0.20000 
 749.400  10.0        0.0  0.10000 
 749.500  10.0        0.5  0.20000 
 749.600  10.1        0.5  0.20000 
 749.700  10.2        0.5  0.20000 
 749.800  10.2        0.5  0.10000 
 749.900  10.2        0.5  0.20000 
 750.000  10.2        0.0  0.20000 
 750.100  10.2        0.0  0.20000 
 750.200  10.2        0.0  0.10000 
 750.300  10.1        0.0  0.20000 
 750.400  10.1        0.0  0.20000 
 750.500  10.1        0.1  0.20000 
 750.600  10.0        0.1  0.10000 
 750.700   9.9        0.1  0.20000 
 750.800  10.0        0.1  0.20000 
 750.900  10.1        0.1  0.20000 
 751.000  10.0        0.1  0.20000 
 751.100  10.0        0.0  0.10000 
 751.200  10.0        0.1  0.20000 
 751.300   9.9        0.1  0.20000 
 751.400   9.9        0.1  0.20000 
 751.500   9.9        0.2  0.20000 
 751.600   9.9        0.2  0.10000 
 751.700   9.9        0.2  0.20000 
 751.800   9.9        0.1  0.20000 
 751.900   9.9        0.1  0.20000 
 752.000   9.9        0.1  0.20000 
 752.100   9.9        0.0  0.10000 
 752.200   9.9        0.0  0.20000 
 752.300   9.9        0.0  0.20000 
 752.400   9.9        0.1  0.20000 
 752.500   9.9        0.1  0.20000 
 752.600   9.9        0.1  0.10000 
 752.700   9.9        0.9  0.20000 
 752.800   9.9        0.9  0.20000 
 752.900   9.9        0.9  0.20000 
 753.000   9.9        0.8  0.20000 
 753.100   9.9        1.4  0.10000 
 753.200   9.9        0.6  0.20000 
 753.300   9.9        0.6  0.20000 
 753.400   9.9        1.6  0.20000 
 753.500   9.9        1.6  0.10000 
 753.600   9.9        1.6  0.20000 
 753.700   9.9        1.1  0.20000 
 753.800   9.9        1.1  0.20000 
 753.900   9.9        1.9  0.20000 
 754.000   9.9        1.2  0.10000 
 754.100  10.0        1.4  0.20000 
 754.200   9.9        1.3  0.20000 
 754.300   9.9        1.3  0.20000 
 754.400   9.9        0.5  0.10000 
 754.500   9.9        0.2  0.20000 
 754.600  10.0        0.5  0.20000 
 754.700   9.9        0.3  0.20000 
 754.800   9.9        0.3  0.10000 
 754.900   9.9        0.3  0.20000 
 755.000   9.9        0.3  0.20000 
 755.100   9.9        0.3  0.20000 
 755.200   9.9        0.0  0.10000 
 755.300   9.9        0.3  0.20000 
 755.400   9.9        0.3  0.20000 
 755.500   9.9        0.3  0.20000 
 755.600   9.9        0.3  0.10000 
 755.700   9.9        0.3  0.20000 
 755.800   9.9        0.3  0.20000 
 755.900   9.9        0.0  0.20000 
 756.000   9.9        0.0  0.10000 
 756.100  10.0        0.0  0.20000 
 756.200   9.9        0.0  0.20000 
 756.300   9.9        0.0  0.20000 
 756.400   9.9        0.0  0.10000 
 756.500   9.9        0.0  0.20000 
 756.600   9.8        0.4  0.20000 
 756.700   9.8        0.4  0.20000 
 756.800   9.8        0.8  0.10000 
 756.900   9.8        1.0  0.20000 
 757.000   9.8        1.0  0.20000 
 757.100   9.8        1.2  0.20000 
 757.200   9.8        0.8  0.10000 
 757.300   9.8        0.8  0.20000 
 757.400   9.8        0.4  0.20000 
 757.500   9.8        0.2  0.20000 
 757.600   9.8        0.3  0.10000 
 757.700   9.8        0.2  0.20000 
 757.800   9.8        0.3  0.20000 
 757.900   9.8        0.3  0.20000 
 758.000   9.8        0.3  0.11000 
 758.100   9.8        0.2  0.22000 
 758.200   9.8        0.1  0.22000 
 758.300   9.8        0.1  0.22000 
 758.400   9.8        0.1  0.22000 
 758.500   9.8        0.1  0.00000 
 758.600   9.7        0.1  0.21000 
 758.700   9.7        0.1  0.20000 
 758.800   9.7        0.1  0.20000 
 758.900   9.7        0.7  0.10000 
 759.000   9.7        0.9  0.20000 
 759.100   9.7        0.9  0.20000 
 759.200   9.7        0.9  0.20000 
 759.300   9.7        1.2  0.20000 
 759.400   9.7        0.6  0.10000 
 759.500   9.7        0.6  0.20000 
 759.600   9.7        1.1  0.20000 
 759.700   9.7        1.1  0.20000 
 759.800   9.7        1.7  0.10000 
 759.900   9.7        1.8  0.20000 
 760.000   9.7        3.0  0.20000 
 760.100   9.8        3.0  0.20000 
 760.200   9.8        2.2  0.20000 
 760.300   9.8        2.9  0.10000 
 760.400   9.8        2.5  0.21000 
 760.500   9.8        2.9  0.22000 
 760.600   9.8        2.6  0.22000 
 760.700   9.8        4.0  0.22000 
 760.800   9.9        4.0  0.11000 
 760.900   9.9        2.7  0.11000 
 761.000   9.9        3.2  0.21000 
 761.100  10.0        3.2  0.20000 
 761.200  10.2        2.3  0.20000 
 761.300  10.4        0.9  0.10000 
 761.400  10.5        0.9  0.20000 
 761.500  10.6        1.2  0.20000 
 761.600  10.7        0.3  0.20000 
 761.700  10.8        0.3  0.20000 
 761.800  10.9        0.3  0.10000 
 761.900  10.9        0.3  0.20000 
 762.000  10.9        0.0  0.20000 
 762.100  11.0        0.0  0.20000 
 762.200  11.0        0.1  0.20000 
 762.300  11.0        0.1  0.10000 
 762.400  10.7        0.1  0.20000 
 762.500  10.5        0.1  0.20000 
 762.600  10.4        0.1  0.20000 
 762.700  10.2        0.1  0.20000 
 762.800  10.2        0.0  0.10000 
 762.900  10.1        0.3  0.22000 
 763.000  10.1        0.3  0.22000 
 763.100  10.1        0.3  0.22000 
 763.200  10.1        0.4  0.22000 
 763.300  10.1        0.4  0.11000 
 763.400  10.1        0.6  0.11000 
