~Version Information
 VERS.                2.0:  CWLS LOG ASCII STANDARD -VERSION 2.0
 WRAP.                 NO:  ONE LINE PER DEPTH STEP
~WELL INFORMATION BLOCK
#MNEM.UNIT       DATA		            DESCRIPTION OF MNEMONIC
#---------    -------------            ------------------------
 STRT.FT  5.300                          :START DEPTH
 STOP.FT  1874.500                       :STOP DEPTH
 STEP.FT  0.100                          :STEP    UP_HOLE  
 NULL.    0                              :NULL VALUE
 COMP.                            USGS   :COMPANY
 WELL.                      MCWD-DMW #1  :WELL
 FLD .                           Marina  :FIELD
 LOC .    None  None  None               :LOCATION
 CNTY.                         Monterey  :COUNTY
 STAT.             California            :STATE
 SRVC.    Western Reg                    :SERVICE COMPANY
 DATE.   05/27/00                        :LOG DATE
 UWI .                       	         :UNIQUE WELL ID
 LIC .                                   :LICENSE NUMBER
~Curve Information Block
#MNEM.UNIT      API CODE     Curve Description
#---------    -------------  ------------------------
 DEPT     .FT        00 001 00 00          :  1  DEPTH   
 CALIPER  .INCH      00 280 00 00          :  2              CALIPER
 TENSION  .POUNDS    00 000 00 00          :  3              TENSION
 TIME     .MINUTES   00 000 00 00          :  4                 TIME
~Parameter Information Block
#MNEM.UNIT   Information     Description
#---------- ---------------  ------------------------
~Other Information
#MNEM.UNIT  Information      Description
#---------- ---------------  ------------------------
 FILE.      ORIGINAL           File Type
 FIID.      9065A              File Type Identifier
 VERS.      1.0                System Version
 SER .      1                  System Serial Number
 TRUK.      0.5                Truck Calibration Number
 TOOL.         573             Tool Serial Number
 TIME.      03:05:             Time
 LAT .          None           Latitude
 LON .          None           Longitude
 LMF .           LSD           Log Measured From
 DMF .           LSD           Driller Measured From
 PD  .          None           Permanent Data
 PDEV.          None           Elevation Permanent Data
 EKB .M         None           Elevation Kelly Bushing
 ELEV.DF        None           Elevation DF
 EGL .M         None           Elevation Ground Level
 DRDP.         1990'           Driller's Depth
 CASD.         0               Casing Diameter
 CASB.          None           Casing Bottom
 CASX.          None           Casing Type
 CAST.         0               Casing Thickness
 TNOC.          None           Time Circulation Stopped
 LOGU.       WRRD              Logging Unit
 RECB.           Everett       Recorded By
 OSR1.       Pimente           Other Services
 OSR2.       mud vis           Other Services
 OSR3.           =62           Other Services
 BS  .MM           6           Bit Size
 MST .                         Mean Surface Temperature
 TGRD.        0                Temperature Gradiant
 MAGN.             0           Magnetic Declination
 MDEN.      2.71               Density Matrix
 MATR.       Dolomite          Neutron Matrix
 DTMT.            54           Delta T Matrix
 DTFL.                         Delta T Fluid
 MUDS.               0         Mud Sample Source
 MRS .           0             Mud Resistivity
 MTP .           0             Mud Temperature
 MFRS.                         Resistivity Mud Filtrate
 MFTP.                         Temperature Mud Filtrate
 MCRS.         0               Resistivity Mud Cake
 MCTP.                         Temperature Mud Cake
 FTYP.             0           Fluid Type
 FD  .K/M3                     Fluid Density
 DFV .S                        Fluid Viscosity
 FPH .                         Fuild PH
 ELCO.        2500             Electron Cutoff
# -------------------------- 
~A DEPTH  CALIPER TENSION  TIME    
# ...
1722.400   7.3        0.4  0.20000 
1722.500   7.3        0.4  0.20000 
1722.600   7.3        0.4  0.20000 
1722.700   7.3        0.0  0.20000 
1722.800   7.2        0.0  0.20000 
1722.900   7.2        0.0  0.10000 
1723.000   7.2        0.0  0.20000 
1723.100   7.2        0.0  0.20000 
1723.200   7.2        0.0  0.20000 
1723.300   7.2        0.0  0.20000 
1723.400   7.2        0.0  0.20000 
1723.500   7.2        0.0  0.20000 
1723.600   7.2        0.0  0.20000 
1723.700   7.3        0.0  0.21000 
1723.800   7.3        0.0  0.22000 
1723.900   7.3        0.0  0.22000 
1724.000   7.3        0.0  0.22000 
1724.100   7.3        0.0  0.22000 
1724.200   7.3        0.0  0.11000 
1724.300   7.3        0.0  0.20000 
1724.400   7.3        0.0  0.20000 
1724.500   7.3        0.0  0.20000 
1724.600   7.3        0.0  0.20000 
1724.700   7.3        0.0  0.20000 
1724.800   7.3        0.0  0.20000 
1724.900   7.3        0.0  0.20000 
1725.000   7.3        0.0  0.20000 
1725.100   7.3        0.0  0.20000 
1725.200   7.3        0.1  0.20000 
1725.300   7.3        0.1  0.20000 
1725.400   7.3        0.1  0.20000 
1725.500   7.4        0.1  0.20000 
1725.600   7.4        0.1  0.20000 
1725.700   7.4        0.0  0.20000 
1725.800   7.4        0.0  0.20000 
1725.900   7.4        0.0  0.20000 
1726.000   7.4        0.4  0.20000 
1726.100   7.4        0.4  0.20000 
1726.200   7.4        0.4  0.20000 
1726.300   7.4        0.4  0.20000 
1726.400   7.4        0.4  0.20000 
1726.500   7.4        0.6  0.20000 
1726.600   7.4        0.6  0.20000 
1726.700   7.4        0.6  0.20000 
1726.800   7.4        0.6  0.20000 
1726.900   7.4        0.6  0.20000 
1727.000   7.4        0.0  0.20000 
1727.100   7.4        0.0  0.20000 
1727.200   7.4        0.0  0.20000 
1727.300   7.4        0.2  0.20000 
1727.400   7.4        0.2  0.20000 
1727.500   7.4        0.2  0.20000 
1727.600   7.4        1.1  0.20000 
1727.700   7.3        1.1  0.20000 
1727.800   7.3        1.7  0.20000 
1727.900   7.3        1.7  0.20000 
1728.000   7.3        1.7  0.21000 
1728.100   7.2        0.8  0.11000 
1728.200   7.2        0.8  0.22000 
1728.300   7.1        0.0  0.22000 
1728.400   7.1        0.0  0.22000 
1728.500   7.1        0.0  0.11000 
1728.600   7.1        0.0  0.21000 
1728.700   7.1        0.0  0.20000 
1728.800   7.1        0.0  0.20000 
1728.900   7.1        0.0  0.20000 
1729.000   7.2        0.0  0.20000 
1729.100   7.2        0.0  0.20000 
1729.200   7.2        0.0  0.20000 
1729.300   7.2        0.0  0.20000 
1729.400   7.2        0.0  0.20000 
1729.500   7.2        0.0  0.20000 
1729.600   7.2        0.0  0.20000 
1729.700   7.1        0.1  0.20000 
1729.800   7.1        0.6  0.20000 
1729.900   7.1        0.6  0.20000 
1730.000   7.1        0.6  0.20000 
1730.100   7.1        0.7  0.20000 
1730.200   7.1        0.6  0.20000 
1730.300   7.1        0.1  0.20000 
1730.400   7.1        0.1  0.20000 
1730.500   7.1        0.1  0.20000 
1730.600   7.2        0.0  0.20000 
1730.700   7.3        0.0  0.20000 
1730.800   7.3        0.0  0.20000 
1730.900   7.3        0.0  0.20000 
1731.000   7.3        0.3  0.20000 
1731.100   7.3        0.5  0.20000 
1731.200   7.3        0.5  0.20000 
1731.300   7.3        1.3  0.20000 
1731.400   7.3        1.3  0.20000 
1731.500   7.3        1.0  0.20000 
1731.600   7.2        1.3  0.20000 
1731.700   7.2        2.1  0.20000 
1731.800   7.3        1.3  0.20000 
1731.900   7.3        1.3  0.20000 
1732.000   7.3        1.3  0.20000 
1732.100   7.3        0.8  0.20000 
1732.200   7.2        0.0  0.20000 
1732.300   7.2        0.0  0.20000 
1732.400   7.2        0.0  0.20000 
1732.500   7.2        0.0  0.20000 
1732.600   7.2        0.0  0.20000 
1732.700   7.2        0.0  0.20000 
1732.800   7.3        0.0  0.20000 
1732.900   7.2        0.0  0.20000 
1733.000   7.3        0.0  0.20000 
1733.100   7.3        0.0  0.10000 
1733.200   7.3        0.4  0.20000 
1733.300   7.3        0.4  0.20000 
1733.400   7.3        0.4  0.20000 
1733.500   7.2        0.4  0.20000 
1733.600   7.2        0.4  0.20000 
1733.700   7.2        0.0  0.20000 
1733.800   7.2        0.0  0.20000 
1733.900   7.2        0.0  0.20000 
1734.000   7.2        0.0  0.20000 
1734.100   7.3        0.0  0.20000 
1734.200   7.3        0.0  0.21000 
1734.300   7.4        0.0  0.22000 
1734.400   7.4        0.0  0.22000 
1734.500   7.4        0.0  0.22000 
1734.600   7.4        0.0  0.22000 
1734.700   7.4        0.0  0.11000 
1734.800   7.4        0.0  0.20000 
1734.900   7.4        0.0  0.20000 
1735.000   7.4        0.0  0.20000 
1735.100   7.4        0.0  0.20000 
1735.200   7.4        0.0  0.20000 
1735.300   7.4        0.0  0.20000 
1735.400   7.4        0.0  0.20000 
1735.500   7.4        0.0  0.20000 
1735.600   7.4        0.0  0.20000 
1735.700   7.4        0.0  0.20000 
1735.800   7.4        0.0  0.20000 
1735.900   7.4        0.0  0.20000 
1736.000   7.4        0.0  0.20000 
1736.100   7.4        0.0  0.20000 
1736.200   7.4        0.0  0.20000 
1736.300   7.4        0.0  0.21000 
1736.400   7.4        0.4  0.22000 
1736.500   7.4        0.8  0.22000 
1736.600   7.4        1.0  0.22000 
1736.700   7.4        1.0  0.22000 
1736.800   7.4        1.1  0.11000 
1736.900   7.4        1.3  0.20000 
1737.000   7.4        0.9  0.20000 
1737.100   7.4        1.4  0.20000 
1737.200   7.4        1.2  0.20000 
1737.300   7.4        1.1  0.20000 
1737.400   7.4        1.1  0.20000 
1737.500   7.5        0.6  0.20000 
1737.600   7.4        0.1  0.20000 
1737.700   7.4        0.2  0.20000 
1737.800   7.3        0.7  0.20000 
1737.900   7.3        0.7  0.20000 
1738.000   7.3        1.6  0.20000 
1738.100   7.3        1.6  0.20000 
1738.200   7.3        1.5  0.10000 
1738.300   7.3        1.0  0.20000 
1738.400   7.3        1.0  0.22000 
1738.500   7.3        0.0  0.22000 
1738.600   7.3        0.0  0.22000 
1738.700   7.3        0.0  0.22000 
1738.800   7.3        0.0  0.11000 
1738.900   7.3        0.0  0.21000 
1739.000   7.3        0.2  0.20000 
1739.100   7.3        0.2  0.20000 
1739.200   7.4        0.2  0.20000 
1739.300   7.4        0.4  0.20000 
1739.400   7.4        0.4  0.20000 
1739.500   7.4        0.2  0.20000 
1739.600   7.5        0.2  0.20000 
1739.700   7.4        0.2  0.20000 
1739.800   7.4        0.0  0.20000 
1739.900   7.4        0.0  0.20000 
1740.000   7.4        0.0  0.20000 
1740.100   7.4        0.0  0.20000 
1740.200   7.4        0.0  0.20000 
1740.300   7.4        0.0  0.20000 
1740.400   7.4        0.0  0.22000 
1740.500   7.4        0.0  0.22000 
1740.600   7.4        0.0  0.22000 
1740.700   7.5        0.0  0.22000 
1740.800   7.5        0.0  0.11000 
1740.900   7.4        0.0  0.21000 
1741.000   7.4        0.0  0.20000 
1741.100   7.3        0.0  0.20000 
1741.200   7.3        0.0  0.20000 
1741.300   7.3        0.0  0.20000 
1741.400   7.3        0.0  0.20000 
1741.500   7.3        0.1  0.20000 
1741.600   7.3        0.1  0.20000 
1741.700   7.5        0.1  0.20000 
1741.800   7.6        0.5  0.20000 
1741.900   7.6        0.5  0.20000 
1742.000   7.6        0.4  0.20000 
1742.100   7.6        1.0  0.20000 
1742.200   7.6        1.0  0.20000 
1742.300   7.6        0.6  0.20000 
1742.400   7.6        0.6  0.20000 
1742.500   7.6        0.6  0.20000 
1742.600   7.6        0.0  0.22000 
1742.700   7.6        0.0  0.22000 
1742.800   7.6        0.0  0.22000 
1742.900   7.6        0.0  0.22000 
1743.000   7.6        0.0  0.11000 
1743.100   7.5        0.0  0.21000 
1743.200   7.5        0.2  0.20000 
1743.300   7.5        0.2  0.20000 
1743.400   7.5        0.3  0.20000 
1743.500   7.5        0.3  0.20000 
1743.600   7.5        0.3  0.20000 
1743.700   7.5        0.1  0.20000 
1743.800   7.5        0.1  0.20000 
1743.900   7.5        0.0  0.20000 
1744.000   7.5        0.0  0.20000 
1744.100   7.4        0.0  0.20000 
1744.200   7.4        0.0  0.20000 
1744.300   7.3        0.0  0.20000 
1744.400   7.2        0.0  0.20000 
1744.500   7.2        0.0  0.20000 
1744.600   7.2        0.0  0.20000 
