~Version Information
 VERS.                2.0:  CWLS LOG ASCII STANDARD -VERSION 2.0
 WRAP.                 NO:  ONE LINE PER DEPTH STEP
~WELL INFORMATION BLOCK
#MNEM.UNIT       DATA		            DESCRIPTION OF MNEMONIC
#---------    -------------            ------------------------
 STRT.FT  41.500                         :START DEPTH
 STOP.FT  1871.500                       :STOP DEPTH
 STEP.FT  0.100                          :STEP    UP_HOLE  
 NULL.    0                              :NULL VALUE
 COMP.                            USGS   :COMPANY
 WELL.                      MCWD-DMW #1  :WELL
 FLD .                           Marina  :FIELD
 LOC .    None  None  None               :LOCATION
 CNTY.                         Monterey  :COUNTY
 STAT.             California            :STATE
 SRVC.    Western Reg                    :SERVICE COMPANY
 DATE.   05/27/00                        :LOG DATE
 UWI .                       	         :UNIQUE WELL ID
 LIC .                                   :LICENSE NUMBER
~Curve Information Block
#MNEM.UNIT      API CODE     Curve Description
#---------    -------------  ------------------------
 DEPT     .FT        00 001 00 00          :  1  DEPTH   
 GAM(NAT) .API-GR    00 310 00 00          :  2             GAM(NAT)
 COND     .MMHO/M    00 000 00 00          :  3                 COND
 RES      .OHM-M     00 000 00 00          :  4                  RES
 TEMP     .DEG F     00 660 00 00          :  5                 TEMP
 AP-COND  .MMHO/M    00 000 00 00          :  6              AP-COND
 TEMP     .CPS       00 660 00 00          :  7                 TEMP
 AP-COND  .CPS       00 000 00 00          :  8              AP-COND
 TENSION  .POUNDS    00 000 00 00          :  9              TENSION
 TIME     .MINUTES   00 000 00 00          : 10                 TIME
~Parameter Information Block
#MNEM.UNIT   Information     Description
#---------- ---------------  ------------------------
~Other Information
#MNEM.UNIT  Information      Description
#---------- ---------------  ------------------------
 FILE.      ORIGINAL           File Type
 FIID.      9511A              File Type Identifier
 VERS.      1.0                System Version
 SER .      1                  System Serial Number
 TRUK.      0.5                Truck Calibration Number
 TOOL.         770             Tool Serial Number
 TIME.      05:18:             Time
 LAT .          None           Latitude
 LON .          None           Longitude
 LMF .           LSD           Log Measured From
 DMF .           LSD           Driller Measured From
 PD  .          None           Permanent Data
 PDEV.          None           Elevation Permanent Data
 EKB .M         None           Elevation Kelly Bushing
 ELEV.DF        None           Elevation DF
 EGL .M         None           Elevation Ground Level
 DRDP.         1990'           Driller's Depth
 CASD.         0               Casing Diameter
 CASB.          None           Casing Bottom
 CASX.          None           Casing Type
 CAST.         0               Casing Thickness
 TNOC.          None           Time Circulation Stopped
 LOGU.       WRRD              Logging Unit
 RECB.           Everett       Recorded By
 OSR1.       Pimente           Other Services
 OSR2.       mud vis           Other Services
 OSR3.           =62           Other Services
 BS  .MM           6           Bit Size
 MST .                         Mean Surface Temperature
 TGRD.        0                Temperature Gradiant
 MAGN.             0           Magnetic Declination
 MDEN.      2.71               Density Matrix
 MATR.       Dolomite          Neutron Matrix
 DTMT.            54           Delta T Matrix
 DTFL.                         Delta T Fluid
 MUDS.               0         Mud Sample Source
 MRS .           0             Mud Resistivity
 MTP .           0             Mud Temperature
 MFRS.                         Resistivity Mud Filtrate
 MFTP.                         Temperature Mud Filtrate
 MCRS.         0               Resistivity Mud Cake
 MCTP.                         Temperature Mud Cake
 FTYP.             0           Fluid Type
 FD  .K/M3                     Fluid Density
 DFV .S                        Fluid Viscosity
 FPH .                         Fuild PH
 ELCO.        2500             Electron Cutoff
# -------------------------- 
~A DEPTH  GAM(NAT) COND     RES      TEMP  AP-COND  TEMP  AP-COND  TENSION  TIME    
  41.500      0.0      0.0      0.0   0.0      0.0   0.0      0.0      0.0  0.00000 
  41.600     37.1      0.0      0.0   0.0      0.0   0.0      0.0      0.0  0.00000 
  41.700     40.5      0.0      0.0   0.0      0.0   0.0      0.0      0.0  0.00000 
  41.800     30.4      0.0      0.0   0.0      0.0   0.0      0.0      0.0  0.00000 
  41.900     30.4      0.0      0.0   0.0      0.0   0.0      0.0      0.0  0.00000 
  42.000     30.4      0.0      0.0   0.0      0.0   0.0      0.0      0.0  0.00000 
  42.100     48.1      0.0      0.0   0.0      0.0   0.0      0.0      0.0  0.00000 
  42.200     12.7      0.0      0.0   0.0      0.0   0.0      0.0      0.0  0.00000 
  42.300     22.8      0.0      0.0   0.0      0.0   0.0      0.0      0.0  0.00000 
  42.400     25.3      0.0      0.0   0.0      0.0   0.0      0.0      0.0  0.00000 
  42.500     23.6      0.0      0.0   0.0      0.0   0.0      0.0      0.0  0.00000 
  42.600     20.3      0.0      0.0   0.0      0.0   0.0      0.0      0.0  0.00000 
  42.700     50.6      0.0      0.0   0.0      0.0   0.0      0.0      0.0  0.00000 
  42.800     37.1      0.0      0.0   0.0      0.0   0.0      0.0      0.0  0.00000 
  42.900     33.8      0.0      0.0   0.0      0.0   0.0      0.0      0.0  0.00000 
  43.000     10.1      0.0      0.0   0.0      0.0   0.0      0.0      0.0  0.00000 
  43.100     33.8      0.0      0.0   0.0      0.0   0.0      0.0      0.0  0.00000 
  43.200     25.3      0.0      0.0   0.0      0.0   0.0      0.0      0.0  0.00000 
  43.300     15.2      0.0      0.0   0.0      0.0   0.0      0.0      0.0  0.00000 
  43.400     30.4      0.0      0.0   0.0      0.0   0.0      0.0      0.0  0.00000 
  43.500     35.4      0.0      0.0   0.0      0.0   0.0      0.0      0.0  0.00000 
  43.600     30.4      0.0      0.0   0.0      0.0   0.0      0.0      0.0  0.00000 
  43.700      5.1      0.0      0.0   0.0      0.0   0.0      0.0      0.0  0.00000 
  43.800     30.4      0.0      0.0   0.0      0.0   0.0      0.0      0.0  0.00000 
  43.900     25.3      0.0      0.0   0.0      0.0   0.0      0.0      0.0  0.00000 
  44.000     30.4      0.0      0.0   0.0      0.0   0.0      0.0      0.0  0.00000 
  44.100     30.4      0.0      0.0   0.0      0.0   0.0      0.0      0.0  0.00000 
  44.200     25.3      0.0      0.0   0.0      0.0   0.0      0.0      0.0  0.00000 
  44.300     50.6      0.0      0.0   0.0      0.0   0.0      0.0      0.0  0.00000 
  44.400     25.3      0.0      0.0   0.0      0.0   0.0      0.0      0.0  0.00000 
  44.500      5.1      0.0      0.0   0.0      0.0   0.0      0.0      0.0  0.00000 
  44.600     20.3      0.0      0.0   0.0      0.0   0.0      0.0      0.0  0.00000 
  44.700     15.2      0.0      0.0   0.0      0.0   0.0      0.0      0.0  0.00000 
  44.800     10.1      0.0      0.0   0.0      0.0   0.0      0.0      0.0  0.00000 
  44.900     10.1      0.0      0.0   0.0      0.0   0.0      0.0      0.0  0.00000 
  45.000     15.2      0.0      0.0   0.0      0.0   0.0      0.0      0.0  0.00000 
  45.100     35.4      0.0      0.0   0.0      0.0   0.0      0.0      0.0  0.00000 
  45.200     35.4      0.0      0.0   0.0      0.0   0.0      0.0      0.0  0.00000 
  45.300     35.4      0.0      0.0   0.0      0.0   0.0      0.0      0.0  0.00000 
  45.400     25.3      0.0      0.0   0.0      0.0   0.0      0.0      0.0  0.00000 
  45.500     20.3      0.0      0.0   0.0      0.0   0.0      0.0      0.0  0.00000 
  45.600     37.1      0.0      0.0   0.0      0.0   0.0      0.0      0.0  0.00000 
  45.700     40.5      0.0      0.0   0.0      0.0   0.0      0.0      0.0  0.00000 
  45.800     15.2      0.0      0.0   0.0      0.0   0.0      0.0      0.0  0.33000 
  45.900     50.6      0.0      0.0   0.0      0.0   0.0      0.0      0.0  0.22000 
  46.000     30.4   4378.2      0.2  80.1   3648.3  28540.0 489080.0     2.6  0.22000 
  46.100     10.1   4395.3      0.2  79.9   3662.2  28530.0 490740.0     1.2  0.11000 
  46.200     15.2   4412.9      0.2  80.1   3676.6  28540.0 492445.0     2.3  0.30000 
  46.300     35.4   4427.4      0.2  80.1   3688.4  28540.0 493855.0     3.7  0.40000 
  46.400     20.3   4454.8      0.2  80.1   3710.6  28536.7 496500.0     3.7  0.40000 
  46.500     40.5   4455.0      0.2  80.1   3710.9  28540.0 496527.5     4.9  0.44000 
  46.600     25.3   4447.6      0.2  80.1   3704.8  28537.5 495805.0     3.9  0.44000 
  46.700     30.4   4438.2      0.2  80.1   3697.2  28537.5 494895.0     5.1  0.22000 
  46.800     20.3   4423.8      0.2  80.1   3685.5  28537.5 493505.0    12.1  0.30000 
  46.900     10.1   4411.0      0.2  80.1   3675.1  28536.7 492266.7    15.7  0.30000 
  47.000     25.3   4412.4      0.2  80.1   3676.1  28536.7 492393.3    17.7  0.30000 
  47.100     30.4   4408.6      0.2  80.1   3673.1  28540.0 492030.0    14.6  0.30000 
  47.200     30.4   4409.7      0.2  80.0   3674.0  28533.3 492136.7    16.4  0.20000 
  47.300     25.3   4411.1      0.2  80.1   3675.1  28540.0 492266.7    17.0  0.30000 
  47.400     20.3   4415.2      0.2  80.0   3678.4  28535.0 492665.0    13.6  0.20000 
  47.500     15.2   4414.0      0.2  80.1   3677.5  28540.0 492550.0    12.8  0.20000 
  47.600     20.3   4407.2      0.2  80.0   3671.9  28535.0 491890.0     6.5  0.30000 
  47.700     15.2   4411.9      0.2  80.1   3675.7  28540.0 492345.0     1.6  0.20000 
  47.800     20.3   4406.6      0.2  80.1   3671.5  28536.7 491840.0     1.1  0.20000 
  47.900     15.2   4411.0      0.2  80.1   3675.0  28540.0 492260.0     0.0  0.20000 
  48.000     25.3   4420.0      0.2  80.1   3682.4  28540.0 493135.0     0.0  0.20000 
  48.100     25.3   4429.7      0.2  80.0   3690.2  28535.0 494070.0     0.0  0.21000 
  48.200     30.4   4438.8      0.2  80.1   3697.6  28540.0 494950.0     0.0  0.22000 
  48.300     40.5   4449.2      0.2  79.9   3706.1  28530.0 495965.0     0.0  0.22000 
  48.400     20.3   4456.3      0.2  80.1   3711.9  28540.0 496650.0     0.0  0.22000 
  48.500     45.6   4462.7      0.2  80.1   3717.1  28540.0 497265.0     0.0  0.22000 
  48.600     55.7   4466.1      0.2  80.0   3719.8  28535.0 497595.0     0.0  0.11000 
  48.700     40.5   4464.3      0.2  80.1   3718.4  28540.0 497425.0     0.0  0.20000 
  48.800     20.3   4459.6      0.2  80.0   3714.6  28535.0 496970.0     0.0  0.20000 
  48.900     25.3   4464.4      0.2  80.0   3718.5  28535.0 497435.0     0.0  0.20000 
  49.000     15.2   4471.3      0.2  80.1   3724.1  28540.0 498105.0     0.0  0.20000 
  49.100     20.3   4481.6      0.2  80.0   3732.5  28535.0 499105.0     0.0  0.10000 
  49.200     65.8   4479.2      0.2  80.1   3730.6  28540.0 498870.0     0.0  0.20000 
  49.300     10.1   4472.1      0.2  80.1   3724.8  28540.0 498180.0     0.0  0.22000 
  49.400     25.3   4472.0      0.2  80.0   3724.7  28535.0 498175.0     0.0  0.22000 
  49.500     30.4   4473.7      0.2  80.1   3726.1  28540.0 498335.0     0.0  0.22000 
  49.600     25.3   4469.3      0.2  80.0   3722.5  28535.0 497910.0     0.0  0.22000 
  49.700     35.4   4466.8      0.2  80.1   3720.5  28540.0 497670.0     0.2  0.11000 
  49.800     30.4   4466.6      0.2  80.1   3720.3  28540.0 497650.0     0.7  0.21000 
  49.900     30.4   4467.0      0.2  79.9   3720.6  28530.0 497690.0     0.7  0.20000 
  50.000     10.1   4464.8      0.2  80.1   3718.8  28540.0 497473.3     1.2  0.20000 
  50.100     20.3   4460.6      0.2  80.0   3715.4  28535.0 497070.0     1.2  0.20000 
  50.200     25.3   4461.9      0.2  80.1   3716.5  28540.0 497195.0     2.4  0.20000 
  50.300     15.2   4466.7      0.2  80.1   3720.4  28540.0 497660.0     2.6  0.20000 
  50.400     15.2   4472.8      0.2  79.9   3725.3  28530.0 498250.0     2.1  0.20000 
  50.500     25.3   4475.2      0.2  80.1   3727.3  28540.0 498480.0     1.6  0.20000 
  50.600     20.3   4481.6      0.2  80.1   3732.5  28540.0 499100.0     1.6  0.20000 
  50.700     15.2   4487.2      0.2  80.0   3737.1  28535.0 499645.0     1.4  0.20000 
