~Version Information
 VERS.                2.0:  CWLS LOG ASCII STANDARD -VERSION 2.0
 WRAP.                 NO:  ONE LINE PER DEPTH STEP
~WELL INFORMATION BLOCK
#MNEM.UNIT       DATA		            DESCRIPTION OF MNEMONIC
#---------    -------------            ------------------------
 STRT.FT  41.500                         :START DEPTH
 STOP.FT  1871.500                       :STOP DEPTH
 STEP.FT  0.100                          :STEP    UP_HOLE  
 NULL.    0                              :NULL VALUE
 COMP.                            USGS   :COMPANY
 WELL.                      MCWD-DMW #1  :WELL
 FLD .                           Marina  :FIELD
 LOC .    None  None  None               :LOCATION
 CNTY.                         Monterey  :COUNTY
 STAT.             California            :STATE
 SRVC.    Western Reg                    :SERVICE COMPANY
 DATE.   05/27/00                        :LOG DATE
 UWI .                       	         :UNIQUE WELL ID
 LIC .                                   :LICENSE NUMBER
~Curve Information Block
#MNEM.UNIT      API CODE     Curve Description
#---------    -------------  ------------------------
 DEPT     .FT        00 001 00 00          :  1  DEPTH   
 GAM(NAT) .API-GR    00 310 00 00          :  2             GAM(NAT)
 COND     .MMHO/M    00 000 00 00          :  3                 COND
 RES      .OHM-M     00 000 00 00          :  4                  RES
 TEMP     .DEG F     00 660 00 00          :  5                 TEMP
 AP-COND  .MMHO/M    00 000 00 00          :  6              AP-COND
 TEMP     .CPS       00 660 00 00          :  7                 TEMP
 AP-COND  .CPS       00 000 00 00          :  8              AP-COND
 TENSION  .POUNDS    00 000 00 00          :  9              TENSION
 TIME     .MINUTES   00 000 00 00          : 10                 TIME
~Parameter Information Block
#MNEM.UNIT   Information     Description
#---------- ---------------  ------------------------
~Other Information
#MNEM.UNIT  Information      Description
#---------- ---------------  ------------------------
 FILE.      ORIGINAL           File Type
 FIID.      9511A              File Type Identifier
 VERS.      1.0                System Version
 SER .      1                  System Serial Number
 TRUK.      0.5                Truck Calibration Number
 TOOL.         770             Tool Serial Number
 TIME.      05:18:             Time
 LAT .          None           Latitude
 LON .          None           Longitude
 LMF .           LSD           Log Measured From
 DMF .           LSD           Driller Measured From
 PD  .          None           Permanent Data
 PDEV.          None           Elevation Permanent Data
 EKB .M         None           Elevation Kelly Bushing
 ELEV.DF        None           Elevation DF
 EGL .M         None           Elevation Ground Level
 DRDP.         1990'           Driller's Depth
 CASD.         0               Casing Diameter
 CASB.          None           Casing Bottom
 CASX.          None           Casing Type
 CAST.         0               Casing Thickness
 TNOC.          None           Time Circulation Stopped
 LOGU.       WRRD              Logging Unit
 RECB.           Everett       Recorded By
 OSR1.       Pimente           Other Services
 OSR2.       mud vis           Other Services
 OSR3.           =62           Other Services
 BS  .MM           6           Bit Size
 MST .                         Mean Surface Temperature
 TGRD.        0                Temperature Gradiant
 MAGN.             0           Magnetic Declination
 MDEN.      2.71               Density Matrix
 MATR.       Dolomite          Neutron Matrix
 DTMT.            54           Delta T Matrix
 DTFL.                         Delta T Fluid
 MUDS.               0         Mud Sample Source
 MRS .           0             Mud Resistivity
 MTP .           0             Mud Temperature
 MFRS.                         Resistivity Mud Filtrate
 MFTP.                         Temperature Mud Filtrate
 MCRS.         0               Resistivity Mud Cake
 MCTP.                         Temperature Mud Cake
 FTYP.             0           Fluid Type
 FD  .K/M3                     Fluid Density
 DFV .S                        Fluid Viscosity
 FPH .                         Fuild PH
 ELCO.        2500             Electron Cutoff
# -------------------------- 
~A DEPTH  GAM(NAT) COND     RES      TEMP  AP-COND  TEMP  AP-COND  TENSION  TIME    
# ...
1016.800    243.0    123.3      8.1  89.3    111.5  29015.0 68085.0      0.4  0.20000 
1016.900    232.9    123.0      8.1  89.3    111.3  29015.0 68060.0      0.7  0.20000 
1017.000    263.3    125.3      8.0  89.4    113.3  29020.0 68295.0      0.3  0.10000 
1017.100    217.7    126.3      7.9  89.3    114.2  29015.0 68405.0      0.3  0.20000 
1017.200    268.4    127.2      7.9  89.3    115.0  29010.0 68500.0      0.5  0.20000 
1017.300    192.4    128.8      7.8  89.3    116.4  29015.0 68670.0      0.5  0.20000 
1017.400    217.7    131.9      7.6  89.3    119.1  29015.0 68990.0      0.5  0.20000 
1017.500    238.0    132.5      7.5  89.3    119.7  29015.0 69060.0      0.2  0.10000 
1017.600    364.6    134.4      7.4  89.3    121.4  29015.0 69255.0      0.2  0.20000 
1017.700    207.6    137.1      7.3  89.1    123.7  29000.0 69540.0      0.0  0.20000 
1017.800    177.2    139.3      7.2  89.3    125.7  29015.0 69770.0      0.1  0.20000 
1017.900    238.0    140.2      7.1  89.4    126.5  29020.0 69865.0      0.1  0.20000 
1018.000    268.4    140.9      7.1  89.3    127.1  29015.0 69935.0      0.2  0.10000 
1018.100    202.5    144.4      6.9  89.3    130.2  29010.0 70305.0      0.2  0.20000 
1018.200    268.4    147.5      6.8  89.4    132.9  29020.0 70630.0      0.3  0.20000 
1018.300    222.8    151.6      6.6  89.3    136.5  29015.0 71055.0      1.1  0.20000 
1018.400    273.4    153.9      6.5  89.3    138.5  29015.0 71295.0      1.0  0.20000 
1018.500    278.5    157.6      6.3  89.4    141.8  29020.0 71690.0      1.5  0.10000 
1018.600    253.2    159.0      6.3  89.3    143.0  29015.0 71830.0      1.4  0.20000 
1018.700    243.0    162.1      6.2  89.4    145.8  29020.0 72160.0      1.7  0.20000 
1018.800    273.4    162.8      6.1  89.3    146.3  29015.0 72225.0      1.6  0.20000 
1018.900    243.0    166.9      6.0  89.3    150.0  29015.0 72660.0      0.8  0.20000 
1019.000    293.7    170.7      5.9  89.3    153.3  29015.0 73060.0      1.1  0.20000 
1019.100    303.8    171.9      5.8  89.3    154.3  29015.0 73175.0      0.6  0.10000 
1019.200    384.8    175.1      5.7  89.4    157.1  29020.0 73510.0      0.9  0.20000 
1019.300    268.4    178.0      5.6  89.3    159.7  29010.0 73820.0      0.7  0.20000 
1019.400    303.8    180.3      5.5  89.4    161.7  29020.0 74060.0      0.7  0.20000 
1019.500    263.3    183.3      5.5  89.3    164.3  29015.0 74365.0      0.7  0.20000 
1019.600    263.3    187.4      5.3  89.4    167.9  29020.0 74795.0      0.4  0.10000 
1019.700    263.3    190.1      5.3  89.3    170.3  29015.0 75075.0      0.4  0.20000 
1019.800    238.0    192.2      5.2  89.4    172.2  29020.0 75300.0      0.0  0.20000 
1019.900    253.2    194.7      5.1  89.3    174.3  29015.0 75560.0      0.0  0.20000 
1020.000    278.5    199.2      5.0  89.4    178.2  29020.0 76020.0      0.0  0.20000 
1020.100    288.6    203.0      4.9  89.3    181.5  29015.0 76415.0      0.0  0.21000 
1020.200    217.7    205.6      4.9  89.4    183.8  29020.0 76685.0      0.0  0.11000 
1020.300    334.2    207.4      4.8  89.3    185.4  29015.0 76875.0      0.0  0.22000 
1020.400    238.0    207.3      4.8  89.4    185.3  29020.0 76870.0      0.0  0.22000 
1020.500    273.4    212.9      4.7  89.4    190.2  29020.0 77450.0      0.0  0.22000 
1020.600    258.2    214.1      4.7  89.3    191.3  29010.0 77575.0      0.0  0.11000 
1020.700    232.9    217.1      4.6  89.4    193.9  29020.0 77885.0      0.0  0.11000 
1020.800    222.8    218.3      4.6  89.4    194.9  29020.0 78010.0      0.0  0.20000 
1020.900    232.9    219.0      4.6  89.3    195.6  29015.0 78085.0      0.0  0.20000 
1021.000    319.0    222.7      4.5  89.4    198.8  29020.0 78465.0      0.0  0.20000 
1021.100    253.2    224.2      4.5  89.3    200.0  29015.0 78620.0      0.0  0.20000 
1021.200    329.1    229.0      4.4  89.3    204.3  29015.0 79125.0      0.0  0.10000 
1021.300    263.3    234.2      4.3  89.4    208.8  29020.0 79655.0      0.0  0.20000 
1021.400    263.3    237.4      4.2  89.4    211.6  29020.0 79990.0      0.0  0.22000 
1021.500    319.0    237.9      4.2  89.3    212.0  29015.0 80045.0      0.0  0.22000 
1021.600    207.6    240.4      4.2  89.4    214.2  29020.0 80300.0      0.0  0.22000 
1021.700    212.7    243.4      4.1  89.4    216.8  29020.0 80610.0      0.0  0.22000 
1021.800    217.7    244.8      4.1  89.3    218.0  29015.0 80760.0      0.0  0.11000 
1021.900    253.2    244.6      4.1  89.4    217.9  29020.0 80740.0      0.0  0.11000 
1022.000    207.6    248.3      4.0  89.4    221.1  29020.0 81120.0      0.0  0.20000 
1022.100    217.7    248.1      4.0  89.3    220.8  29015.0 81095.0      0.0  0.20000 
1022.200    227.8    249.7      4.0  89.4    222.2  29020.0 81260.0      0.0  0.20000 
1022.300    238.0    250.4      4.0  89.4    222.9  29020.0 81335.0      0.0  0.10000 
1022.400    182.3    251.1      4.0  89.4    223.5  29020.0 81410.0      0.0  0.20000 
1022.500    268.4    249.1      4.0  89.3    221.7  29010.0 81200.0      0.0  0.20000 
1022.600    243.0    251.4      4.0  89.4    223.7  29020.0 81435.0      0.0  0.20000 
1022.700    268.4    249.2      4.0  89.4    221.8  29020.0 81210.0      0.0  0.20000 
1022.800    268.4    250.6      4.0  89.4    223.1  29020.0 81360.0      0.0  0.20000 
1022.900    238.0    249.4      4.0  89.4    222.0  29020.0 81230.0      0.0  0.10000 
1023.000    293.7    250.5      4.0  89.3    223.0  29015.0 81350.0      0.0  0.20000 
1023.100    187.3    251.2      4.0  89.4    223.6  29020.0 81420.0      0.0  0.20000 
1023.200    288.6    248.7      4.0  89.4    221.4  29020.0 81160.0      0.0  0.20000 
1023.300    283.5    249.9      4.0  89.4    222.4  29020.0 81285.0      0.8  0.20000 
1023.400    303.8    251.0      4.0  89.4    223.4  29020.0 81395.0      0.9  0.10000 
1023.500    273.4    250.8      4.0  89.3    223.2  29015.0 81375.0      0.9  0.20000 
1023.600    243.0    251.5      4.0  89.4    223.8  29020.0 81450.0      0.9  0.20000 
1023.700    217.7    252.1      4.0  89.4    224.3  29020.0 81510.0      0.9  0.20000 
1023.800    227.8    253.2      3.9  89.4    225.3  29020.0 81630.0      0.9  0.22000 
1023.900    298.7    253.7      3.9  89.4    225.8  29020.0 81680.0      0.0  0.11000 
1024.000    222.8    254.2      3.9  89.4    226.1  29020.0 81725.0      0.0  0.22000 
1024.100    243.0    251.1      4.0  89.4    223.5  29020.0 81410.0      0.0  0.22000 
1024.200    253.2    253.3      3.9  89.4    225.4  29020.0 81635.0      0.0  0.22000 
1024.300    258.2    252.0      4.0  89.4    224.3  29020.0 81500.0      0.0  0.11000 
1024.400    202.5    252.9      4.0  89.3    225.0  29010.0 81595.0      0.0  0.20000 
1024.500    172.2    253.6      3.9  89.3    225.7  29015.0 81670.0      0.0  0.10000 
1024.600    217.7    254.1      3.9  89.4    226.1  29020.0 81715.0      0.0  0.20000 
1024.700    192.4    254.3      3.9  89.4    226.3  29020.0 81740.0      0.0  0.20000 
1024.800    253.2    253.1      4.0  89.4    225.2  29020.0 81610.0      0.0  0.20000 
1024.900    202.5    256.0      3.9  89.4    227.7  29020.0 81910.0      0.0  0.20000 
1025.000    288.6    254.6      3.9  89.4    226.5  29020.0 81770.0      0.4  0.10000 
1025.100    212.7    253.3      3.9  89.4    225.4  29020.0 81640.0      0.4  0.20000 
1025.200    227.8    254.4      3.9  89.4    226.4  29020.0 81750.0      1.5  0.20000 
1025.300    207.6    255.9      3.9  89.4    227.6  29020.0 81900.0      1.5  0.20000 
1025.400    278.5    253.9      3.9  89.4    225.9  29020.0 81695.0      1.5  0.20000 
1025.500    217.7    255.6      3.9  89.4    227.4  29020.0 81875.0      2.3  0.10000 
1025.600    293.7    256.2      3.9  89.4    228.0  29020.0 81940.0      1.9  0.20000 
1025.700    222.8    254.5      3.9  89.4    226.4  29020.0 81760.0      1.9  0.20000 
1025.800    182.3    254.9      3.9  89.4    226.8  29020.0 81800.0      0.8  0.20000 
1025.900    273.4    254.3      3.9  89.4    226.2  29020.0 81735.0      0.8  0.20000 
