~Version Information
 VERS.                2.0:  CWLS LOG ASCII STANDARD -VERSION 2.0
 WRAP.                 NO:  ONE LINE PER DEPTH STEP
~WELL INFORMATION BLOCK
#MNEM.UNIT       DATA		            DESCRIPTION OF MNEMONIC
#---------    -------------            ------------------------
 STRT.FT  41.500                         :START DEPTH
 STOP.FT  1871.500                       :STOP DEPTH
 STEP.FT  0.100                          :STEP    UP_HOLE  
 NULL.    0                              :NULL VALUE
 COMP.                            USGS   :COMPANY
 WELL.                      MCWD-DMW #1  :WELL
 FLD .                           Marina  :FIELD
 LOC .    None  None  None               :LOCATION
 CNTY.                         Monterey  :COUNTY
 STAT.             California            :STATE
 SRVC.    Western Reg                    :SERVICE COMPANY
 DATE.   05/27/00                        :LOG DATE
 UWI .                       	         :UNIQUE WELL ID
 LIC .                                   :LICENSE NUMBER
~Curve Information Block
#MNEM.UNIT      API CODE     Curve Description
#---------    -------------  ------------------------
 DEPT     .FT        00 001 00 00          :  1  DEPTH   
 GAM(NAT) .API-GR    00 310 00 00          :  2             GAM(NAT)
 COND     .MMHO/M    00 000 00 00          :  3                 COND
 RES      .OHM-M     00 000 00 00          :  4                  RES
 TEMP     .DEG F     00 660 00 00          :  5                 TEMP
 AP-COND  .MMHO/M    00 000 00 00          :  6              AP-COND
 TEMP     .CPS       00 660 00 00          :  7                 TEMP
 AP-COND  .CPS       00 000 00 00          :  8              AP-COND
 TENSION  .POUNDS    00 000 00 00          :  9              TENSION
 TIME     .MINUTES   00 000 00 00          : 10                 TIME
~Parameter Information Block
#MNEM.UNIT   Information     Description
#---------- ---------------  ------------------------
~Other Information
#MNEM.UNIT  Information      Description
#---------- ---------------  ------------------------
 FILE.      ORIGINAL           File Type
 FIID.      9511A              File Type Identifier
 VERS.      1.0                System Version
 SER .      1                  System Serial Number
 TRUK.      0.5                Truck Calibration Number
 TOOL.         770             Tool Serial Number
 TIME.      05:18:             Time
 LAT .          None           Latitude
 LON .          None           Longitude
 LMF .           LSD           Log Measured From
 DMF .           LSD           Driller Measured From
 PD  .          None           Permanent Data
 PDEV.          None           Elevation Permanent Data
 EKB .M         None           Elevation Kelly Bushing
 ELEV.DF        None           Elevation DF
 EGL .M         None           Elevation Ground Level
 DRDP.         1990'           Driller's Depth
 CASD.         0               Casing Diameter
 CASB.          None           Casing Bottom
 CASX.          None           Casing Type
 CAST.         0               Casing Thickness
 TNOC.          None           Time Circulation Stopped
 LOGU.       WRRD              Logging Unit
 RECB.           Everett       Recorded By
 OSR1.       Pimente           Other Services
 OSR2.       mud vis           Other Services
 OSR3.           =62           Other Services
 BS  .MM           6           Bit Size
 MST .                         Mean Surface Temperature
 TGRD.        0                Temperature Gradiant
 MAGN.             0           Magnetic Declination
 MDEN.      2.71               Density Matrix
 MATR.       Dolomite          Neutron Matrix
 DTMT.            54           Delta T Matrix
 DTFL.                         Delta T Fluid
 MUDS.               0         Mud Sample Source
 MRS .           0             Mud Resistivity
 MTP .           0             Mud Temperature
 MFRS.                         Resistivity Mud Filtrate
 MFTP.                         Temperature Mud Filtrate
 MCRS.         0               Resistivity Mud Cake
 MCTP.                         Temperature Mud Cake
 FTYP.             0           Fluid Type
 FD  .K/M3                     Fluid Density
 DFV .S                        Fluid Viscosity
 FPH .                         Fuild PH
 ELCO.        2500             Electron Cutoff
# -------------------------- 
~A DEPTH  GAM(NAT) COND     RES      TEMP  AP-COND  TEMP  AP-COND  TENSION  TIME    
# ...
1375.600     45.6     75.2     13.3  93.1     68.8  29210.0 62960.0      0.0  0.21000 
1375.700     65.8     73.3     13.6  93.3     67.1  29220.0 62760.0      0.0  0.20000 
1375.800     40.5     74.0     13.5  93.2     67.7  29213.3 62836.7      0.0  0.20000 
1375.900     50.6     74.3     13.5  93.1     68.0  29210.0 62865.0      0.0  0.20000 
1376.000     45.6     73.3     13.6  93.2     67.1  29215.0 62765.0      0.0  0.20000 
1376.100     20.3     74.8     13.4  93.2     68.5  29215.0 62920.0      0.0  0.20000 
1376.200     40.5     75.6     13.2  93.1     69.2  29210.0 63005.0      0.1  0.10000 
1376.300     45.6     73.5     13.6  93.2     67.3  29215.0 62785.0      0.1  0.20000 
1376.400     30.4     75.5     13.3  93.3     69.0  29220.0 62990.0      0.1  0.20000 
1376.500     50.6     75.1     13.3  93.1     68.7  29210.0 62955.0      0.1  0.20000 
1376.600     55.7     73.8     13.6  93.2     67.5  29215.0 62810.0      0.1  0.20000 
1376.700     25.3     74.5     13.4  93.1     68.2  29210.0 62890.0      0.1  0.20000 
1376.800     20.3     75.3     13.3  93.2     68.9  29215.0 62975.0      0.0  0.20000 
1376.900     35.4     76.3     13.1  93.2     69.8  29215.0 63075.0      0.5  0.10000 
1377.000     40.5     75.8     13.2  93.1     69.4  29210.0 63030.0      0.5  0.20000 
1377.100     55.7     74.4     13.4  93.3     68.1  29220.0 62880.0      1.1  0.20000 
1377.200     30.4     74.5     13.4  93.2     68.2  29215.0 62885.0      1.1  0.20000 
1377.300     40.5     75.8     13.2  93.1     69.3  29210.0 63025.0      1.1  0.20000 
1377.400     50.6     75.4     13.3  93.1     69.0  29210.0 62990.0      1.1  0.22000 
1377.500     55.7     76.7     13.0  93.2     70.2  29215.0 63125.0      0.9  0.11000 
1377.600     91.1     77.7     12.9  93.2     71.0  29215.0 63225.0      0.8  0.22000 
1377.700     50.6     77.8     12.9  93.3     71.1  29220.0 63240.0      0.8  0.22000 
1377.800     25.3     77.5     12.9  93.2     70.8  29215.0 63205.0      0.8  0.22000 
1377.900     55.7     77.2     13.0  93.2     70.6  29215.0 63175.0      0.8  0.11000 
1378.000     25.3     78.5     12.7  93.2     71.7  29215.0 63310.0      0.9  0.20000 
1378.100     45.6     76.8     13.0  93.2     70.3  29215.0 63135.0      2.0  0.20000 
1378.200     45.6     77.5     12.9  93.2     70.9  29215.0 63210.0      1.5  0.10000 
1378.300     60.8     75.7     13.2  93.2     69.2  29215.0 63015.0      2.4  0.20000 
1378.400     60.8     76.9     13.0  93.1     70.4  29210.0 63150.0      2.4  0.20000 
1378.500     55.7     77.7     12.9  93.2     71.1  29215.0 63230.0      2.4  0.21000 
1378.600     70.9     78.9     12.7  93.2     72.1  29215.0 63360.0      2.0  0.22000 
1378.700     45.6     76.4     13.1  93.2     69.9  29215.0 63090.0      0.9  0.22000 
1378.800     45.6     77.5     12.9  93.3     70.9  29220.0 63205.0      0.9  0.22000 
1378.900     45.6     76.7     13.0  93.2     70.2  29215.0 63125.0      0.0  0.22000 
1379.000     20.3     77.5     12.9  93.2     70.8  29215.0 63205.0      0.0  0.00000 
1379.100     45.6     76.7     13.0  93.2     70.2  29215.0 63125.0      0.0  0.21000 
1379.200     30.4     78.0     12.8  93.3     71.3  29216.7 63260.0      0.0  0.20000 
1379.300     35.4     78.0     12.8  93.3     71.3  29216.7 63260.0      0.0  0.20000 
1379.400     55.7     78.9     12.7  93.1     72.1  29210.0 63360.0      0.1  0.20000 
1379.500     45.6     81.0     12.4  93.2     74.0  29215.0 63575.0      0.1  0.20000 
1379.600     55.7     80.5     12.4  93.3     73.6  29220.0 63530.0      0.8  0.20000 
1379.700     30.4     79.4     12.6  93.2     72.6  29215.0 63415.0      0.8  0.11000 
1379.800     15.2     81.8     12.2  93.2     74.8  29215.0 63670.0      0.8  0.22000 
1379.900     40.5     79.9     12.5  93.3     73.0  29220.0 63460.0      1.0  0.22000 
1380.000     35.4     80.6     12.4  93.2     73.7  29215.0 63540.0      1.0  0.22000 
1380.100     60.8     82.5     12.1  93.2     75.3  29215.0 63735.0      0.9  0.22000 
1380.200     40.5     82.0     12.2  93.3     74.9  29220.0 63685.0      0.9  0.11000 
1380.300     50.6     83.5     12.0  93.2     76.2  29215.0 63845.0      0.9  0.20000 
1380.400     40.5     85.1     11.8  93.2     77.7  29215.0 64015.0      0.9  0.10000 
1380.500     25.3     84.8     11.8  93.2     77.4  29215.0 63985.0      0.6  0.20000 
1380.600     60.8     88.2     11.3  93.3     80.4  29220.0 64340.0      0.1  0.20000 
1380.700     40.5     87.9     11.4  93.2     80.2  29215.0 64315.0      0.1  0.20000 
1380.800     50.6     90.4     11.1  93.2     82.4  29215.0 64575.0      0.2  0.20000 
1380.900     45.6     90.9     11.0  93.3     82.8  29220.0 64625.0      0.2  0.20000 
1381.000     20.3     91.6     10.9  93.1     83.4  29210.0 64700.0      0.2  0.20000 
1381.100     40.5     94.8     10.5  93.3     86.3  29220.0 65045.0      0.2  0.20000 
1381.200     25.3     95.6     10.5  93.2     87.0  29215.0 65130.0      0.1  0.10000 
1381.300     10.1     95.9     10.4  93.3     87.3  29220.0 65160.0      0.2  0.20000 
1381.400     10.1     98.4     10.2  93.1     89.4  29210.0 65420.0      0.2  0.20000 
1381.500     40.5     98.6     10.1  93.3     89.7  29220.0 65445.0      0.2  0.20000 
1381.600     30.4     99.8     10.0  93.2     90.7  29215.0 65570.0      0.2  0.20000 
1381.700     86.1    100.0     10.0  93.2     90.9  29215.0 65595.0      0.2  0.20000 
1381.800     55.7     99.9     10.0  93.3     90.9  29220.0 65585.0      0.2  0.10000 
1381.900     30.4    102.6      9.7  93.2     93.2  29215.0 65870.0      0.2  0.20000 
1382.000     60.8    101.1      9.9  93.3     91.9  29220.0 65710.0      0.2  0.20000 
1382.100     30.4    102.8      9.7  93.3     93.4  29220.0 65885.0      0.2  0.22000 
1382.200     25.3    103.2      9.7  93.1     93.8  29210.0 65935.0      0.2  0.22000 
1382.300     55.7    103.5      9.7  93.3     94.0  29220.0 65965.0      0.2  0.22000 
1382.400     45.6    103.8      9.6  93.3     94.3  29220.0 65990.0      0.0  0.22000 
1382.500     60.8    105.9      9.4  93.2     96.1  29215.0 66215.0      0.0  0.11000 
1382.600     60.8    106.4      9.4  93.3     96.6  29220.0 66270.0      0.0  0.11000 
1382.700     65.8    105.2      9.5  93.3     95.5  29220.0 66140.0      0.0  0.20000 
1382.800     70.9    106.8      9.4  93.3     97.0  29220.0 66315.0      0.0  0.20000 
1382.900     40.5    105.2      9.5  93.2     95.6  29215.0 66145.0      0.0  0.20000 
1383.000     35.4    106.3      9.4  93.3     96.5  29220.0 66260.0      0.0  0.20000 
1383.100     35.4    105.9      9.4  93.3     96.1  29220.0 66210.0      0.0  0.20000 
1383.200     20.3    104.9      9.5  93.3     95.3  29220.0 66110.0      0.0  0.20000 
1383.300     25.3    107.7      9.3  93.1     97.7  29210.0 66405.0      0.0  0.20000 
1383.400     50.6    106.3      9.4  93.3     96.5  29220.0 66260.0      0.1  0.10000 
1383.500     20.3    108.6      9.2  93.3     98.5  29220.0 66500.0      0.1  0.20000 
1383.600     35.4    106.7      9.4  93.3     96.9  29220.0 66300.0      0.1  0.20000 
1383.700     55.7    108.2      9.2  93.3     98.2  29220.0 66460.0      0.1  0.20000 
1383.800     25.3    108.2      9.2  93.3     98.2  29220.0 66455.0      0.4  0.20000 
1383.900     55.7    109.3      9.2  93.3     99.1  29220.0 66570.0      0.4  0.20000 
1384.000     45.6    107.7      9.3  93.2     97.7  29215.0 66405.0      1.5  0.20000 
1384.100     35.4    109.8      9.1  93.2     99.6  29215.0 66625.0      2.2  0.10000 
1384.200     25.3    109.7      9.1  93.3     99.5  29220.0 66615.0      2.2  0.20000 
1384.300     50.6    109.5      9.1  93.3     99.4  29220.0 66600.0      2.1  0.20000 
1384.400     25.3    110.5      9.0  93.3    100.2  29220.0 66700.0      2.1  0.20000 
1384.500     40.5    111.1      9.0  93.3    100.7  29220.0 66760.0      1.7  0.20000 
1384.600     40.5    110.1      9.1  93.3     99.9  29220.0 66660.0      1.7  0.20000 
1384.700     70.9    112.0      8.9  93.3    101.6  29220.0 66860.0      1.5  0.20000 
