~Version Information
 VERS.                2.0:  CWLS LOG ASCII STANDARD -VERSION 2.0
 WRAP.                 NO:  ONE LINE PER DEPTH STEP
~WELL INFORMATION BLOCK
#MNEM.UNIT       DATA		            DESCRIPTION OF MNEMONIC
#---------    -------------            ------------------------
 STRT.FT  1.400                          :START DEPTH
 STOP.FT  1872.000                       :STOP DEPTH
 STEP.FT  0.100                          :STEP    UP_HOLE  
 NULL.    0                              :NULL VALUE
 COMP.                            USGS   :COMPANY
 WELL.                      MCWD-DMW #1  :WELL
 FLD .                           Marina  :FIELD
 LOC .    None  None  None               :LOCATION
 CNTY.                         Monterey  :COUNTY
 STAT.             California            :STATE
 SRVC.    Western Reg                    :SERVICE COMPANY
 DATE.   05/27/00                        :LOG DATE
 UWI .                       	         :UNIQUE WELL ID
 LIC .                                   :LICENSE NUMBER
~Curve Information Block
#MNEM.UNIT      API CODE     Curve Description
#---------    -------------  ------------------------
 DEPT     .FT        00 001 00 00          :  1  DEPTH   
 TIME(N)  .USEC      00 000 00 00          :  2              TIME(N)
 TIME(F)  .USEC      00 000 00 00          :  3              TIME(F)
 DELTAT   .USEC/FT   00 522 00 00          :  4               DELTAT
 AMP(N)   .MV        00 000 00 00          :  5               AMP(N)
 AMP(F)   .MV        00 000 00 00          :  6               AMP(F)
 XTR PWR  .PERCENT   00 000 00 00          :  7              XTR PWR
 POR(SON) .PERCENT   00 890 00 00          :  8             POR(SON)
 BHC-DELT .USEC/FT   00 520 00 00          :  9             BHC-DELT
 TENSION  .POUNDS    00 000 00 00          : 10              TENSION
 TIME     .MINUTES   00 000 00 00          : 11                 TIME
~Parameter Information Block
#MNEM.UNIT   Information     Description
#---------- ---------------  ------------------------
~Other Information
#MNEM.UNIT  Information      Description
#---------- ---------------  ------------------------
 FILE.      ORIGINAL           File Type
 FIID.      9300A              File Type Identifier
 VERS.      1.0                System Version
 SER .      1                  System Serial Number
 TRUK.      0.5                Truck Calibration Number
 TOOL.         691             Tool Serial Number
 TIME.      07:18:             Time
 LAT .          None           Latitude
 LON .          None           Longitude
 LMF .           LSD           Log Measured From
 DMF .           LSD           Driller Measured From
 PD  .          None           Permanent Data
 PDEV.          None           Elevation Permanent Data
 EKB .M         None           Elevation Kelly Bushing
 ELEV.DF        None           Elevation DF
 EGL .M         None           Elevation Ground Level
 DRDP.         1990'           Driller's Depth
 CASD.         0               Casing Diameter
 CASB.          None           Casing Bottom
 CASX.          None           Casing Type
 CAST.         0               Casing Thickness
 TNOC.          None           Time Circulation Stopped
 LOGU.       WRRD              Logging Unit
 RECB.           Everett       Recorded By
 OSR1.       Pimente           Other Services
 OSR2.       mud vis           Other Services
 OSR3.           =62           Other Services
 BS  .MM           6           Bit Size
 MST .                         Mean Surface Temperature
 TGRD.        0                Temperature Gradiant
 MAGN.             0           Magnetic Declination
 MDEN.      2.71               Density Matrix
 MATR.       Dolomite          Neutron Matrix
 DTMT.            54           Delta T Matrix
 DTFL.                         Delta T Fluid
 MUDS.               0         Mud Sample Source
 MRS .           0             Mud Resistivity
 MTP .           0             Mud Temperature
 MFRS.                         Resistivity Mud Filtrate
 MFTP.                         Temperature Mud Filtrate
 MCRS.         0               Resistivity Mud Cake
 MCTP.                         Temperature Mud Cake
 FTYP.             0           Fluid Type
 FD  .K/M3                     Fluid Density
 DFV .S                        Fluid Viscosity
 FPH .                         Fuild PH
 ELCO.        2500             Electron Cutoff
# -------------------------- 
~A DEPTH  TIME(N) TIME(F) DELTAT AMP(N)   AMP(F)   XTR PWR POR(SON) BHC-DELT TENSION  TIME    
# ...
1488.900   546     691    144.5   2870.0   2433.0  15.7    39.7      146         1.3  0.20000 
1489.000   547     691    144.4   2759.0   2399.5  15.6    39.7      146         2.2  0.20000 
1489.100   547     692    144.6   2756.0   2304.5  15.8    39.7      146         1.7  0.20000 
1489.200   547     692    144.7   2710.0   2044.5  16.2    39.6      145         2.5  0.10000 
1489.300   548     693    145.0   2606.5   1949.0  16.4    39.5      145         4.0  0.20000 
1489.400   548     693    145.4   2486.0   1892.0  16.5    39.5      145         3.9  0.20000 
1489.500   548     693    145.3   2451.5   1989.0  16.4    39.5      145         4.3  0.20000 
1489.600   548     693    145.5   2462.0   2089.5  16.4    39.5      145         3.4  0.10000 
1489.700   548     693    145.2   2522.0   2106.0  16.6    39.4      144         4.0  0.20000 
1489.800   548     693    144.6   2500.5   2149.0  16.8    39.4      144         5.1  0.20000 
1489.900   548     693    144.8   2438.5   2131.0  17.2    39.4      144         3.6  0.20000 
1490.000   549     693    144.5   2398.0   2240.5  17.4    39.3      144         5.0  0.10000 
1490.100   549     693    144.5   2443.0   2372.0  17.3    39.3      144         4.6  0.20000 
1490.200   549     693    144.6   2492.5   2500.0  17.2    39.3      144         4.5  0.20000 
1490.300   549     693    144.8   2691.0   2576.0  17.1    39.3      144         4.4  0.20000 
1490.400   548     693    145.3   2911.0   2645.0  16.9    39.3      144         4.8  0.10000 
1490.500   547     693    145.5   3208.0   2593.0  16.7    39.3      144         6.0  0.20000 
1490.600   547     693    145.6   3192.5   2520.0  16.4    39.4      144         4.4  0.20000 
1490.700   547     693    145.5   2764.5   2468.5  16.0    39.3      144         6.4  0.20000 
1490.800   547     693    145.3   2538.0   2507.0  15.5    39.3      143         5.0  0.10000 
1490.900   548     693    145.0   2477.5   2461.5  15.5    39.2      143         5.3  0.20000 
1491.000   549     693    144.2   2531.5   2431.0  16.5    39.1      142         6.8  0.20000 
1491.100   549     693    143.9   2533.5   2443.5  18.4    39.0      142         5.7  0.20000 
1491.200   549     693    144.2   2424.5   2362.0  19.6    39.1      142         7.1  0.20000 
1491.300   549     693    144.0   2398.0   2376.0  19.5    39.1      142         4.9  0.10000 
1491.400   549     693    143.8   2431.0   2444.0  18.9    39.1      142         4.4  0.20000 
1491.500   549     692    143.1   2365.0   2555.5  18.1    39.1      142         5.0  0.20000 
1491.600   549     691    142.3   2376.5   2547.0  17.9    39.0      142         3.4  0.20000 
1491.700   549     692    142.5   2427.0   2291.0  17.8    39.1      142         3.5  0.10000 
1491.800   549     692    142.9   2410.0   2164.0  17.6    39.2      143         2.1  0.20000 
1491.900   549     693    143.5   2373.5   2200.5  17.5    39.3      144         1.1  0.20000 
1492.000   550     694    144.4   2372.0   2373.5  17.5    39.5      145         1.1  0.20000 
1492.100   550     694    144.8   2375.0   2445.5  17.5    39.6      145         0.6  0.20000 
1492.200   550     695    145.0   2381.0   2527.5  17.6    39.7      146         0.6  0.10000 
1492.300   550     694    144.9   2473.0   2572.0  17.9    39.7      146         0.4  0.20000 
1492.400   550     694    144.6   2525.0   2633.5  18.1    39.7      146         0.1  0.20000 
1492.500   550     695    144.1   2508.5   2664.0  18.0    39.6      146         0.2  0.20000 
1492.600   551     695    144.0   2396.0   2701.5  17.9    39.6      146         0.1  0.10000 
1492.700   551     695    144.0   2397.0   2737.0  17.5    39.6      145         0.3  0.20000 
1492.800   551     694    143.6   2519.7   2735.5  16.8    39.5      145         0.3  0.20000 
1492.900   550     694    143.6   2609.5   2674.0  16.6    39.6      145         0.5  0.20000 
1493.000   550     694    143.5   2786.0   2596.0  16.9    39.5      145         0.5  0.10000 
1493.100   550     693    143.6   2933.0   2494.0  16.8    39.5      145         0.5  0.20000 
1493.200   550     693    143.7   2921.5   2427.5  16.7    39.5      145         0.3  0.20000 
1493.300   550     694    144.0   2822.0   2422.0  16.7    39.5      145         0.3  0.20000 
1493.400   550     694    144.4   2862.0   2562.5  17.0    39.5      145         0.4  0.10000 
1493.500   550     694    144.7   2841.0   2564.0  17.3    39.5      145         0.2  0.20000 
1493.600   549     694    145.1   2830.5   2561.0  17.7    39.6      145         0.2  0.22000 
1493.700   549     694    145.4   2936.5   2579.0  18.3    39.6      145         0.2  0.22000 
1493.800   549     694    145.3   2908.0   2603.0  18.8    39.5      145         0.3  0.11000 
1493.900   548     693    145.1   2865.0   2515.0  18.9    39.5      145         0.9  0.22000 
1494.000   548     693    144.9   2838.0   2452.0  19.0    39.5      145         1.3  0.22000 
1494.100   548     693    144.6   2802.0   2422.0  18.9    39.5      145         1.3  0.11000 
1494.200   549     693    143.9   2735.0   2383.5  18.7    39.4      144         1.3  0.10000 
1494.300   549     693    143.7   2640.0   2257.0  18.8    39.4      144         1.2  0.20000 
1494.400   550     693    143.1   2548.0   2250.0  18.9    39.4      144         1.5  0.20000 
1494.500   550     693    143.1   2537.0   2202.0  18.9    39.3      144         0.9  0.20000 
1494.600   550     693    143.0   2480.5   2095.0  19.0    39.3      144         0.9  0.10000 
1494.700   550     693    143.1   2500.0   2123.5  19.1    39.3      144         0.4  0.20000 
1494.800   550     693    143.3   2481.0   2171.0  19.1    39.4      144         0.7  0.20000 
1494.900   550     694    143.5   2425.0   2150.0  18.9    39.4      144         0.7  0.20000 
1495.000   550     694    143.7   2340.0   2280.0  18.5    39.4      144         0.5  0.20000 
1495.100   550     694    144.4   2312.5   2286.0  18.3    39.5      145         0.5  0.10000 
1495.200   550     695    144.8   2345.0   2309.5  18.0    39.5      145         0.5  0.20000 
1495.300   550     696    145.8   2335.0   2329.0  17.9    39.6      146         0.1  0.20000 
1495.400   549     696    146.7   2396.5   2319.5  17.6    39.7      146         0.1  0.20000 
1495.500   549     696    147.2   2488.5   2400.0  17.4    39.8      146         0.4  0.10000 
1495.600   549     697    147.4   2517.0   2424.5  17.4    39.8      146         0.4  0.20000 
1495.700   550     697    147.3   2559.5   2463.0  17.8    39.8      146         0.4  0.20000 
1495.800   550     697    147.3   2616.0   2450.0  18.1    39.7      146         0.4  0.20000 
1495.900   550     697    147.1   2657.0   2524.5  18.0    39.7      146         0.5  0.10000 
1496.000   550     697    146.6   2638.0   2687.0  17.7    39.6      145         0.5  0.21000 
1496.100   550     697    146.5   2736.0   2879.5  17.4    39.6      145         0.4  0.22000 
1496.200   550     696    146.3   2796.0   2900.0  17.3    39.5      145         0.4  0.22000 
1496.300   550     695    145.7   2566.5   2714.5  17.1    39.5      145         0.4  0.22000 
1496.400   550     694    144.9   2582.0   2542.5  17.2    39.5      145         1.0  0.11000 
1496.500   550     695    145.0   2653.0   2404.5  17.3    39.4      144         1.0  0.11000 
1496.600   550     695    145.0   2627.5   2424.0  17.2    39.4      144         1.5  0.21000 
1496.700   550     695    145.3   2502.5   2387.5  17.6    39.5      144         1.2  0.20000 
1496.800   549     695    145.7   2493.5   2450.0  17.7    39.5      144         1.3  0.20000 
1496.900   549     695    146.3   2540.0   2436.0  17.4    39.5      145         1.3  0.10000 
1497.000   549     695    146.4   2531.5   2412.0  17.1    39.5      145         0.6  0.20000 
1497.100   549     696    146.5   2599.0   2355.5  17.2    39.5      145         0.6  0.20000 
1497.200   549     696    146.7   2715.0   2406.5  17.2    39.5      145         0.1  0.21000 
1497.300   549     696    147.0   2797.0   2308.5  16.9    39.6      145         0.1  0.11000 
