~Version Information
 VERS.                2.0:  CWLS LOG ASCII STANDARD -VERSION 2.0
 WRAP.                 NO:  ONE LINE PER DEPTH STEP
~WELL INFORMATION BLOCK
#MNEM.UNIT       DATA		            DESCRIPTION OF MNEMONIC
#---------    -------------            ------------------------
 STRT.FT  1.400                          :START DEPTH
 STOP.FT  1872.000                       :STOP DEPTH
 STEP.FT  0.100                          :STEP    UP_HOLE  
 NULL.    0                              :NULL VALUE
 COMP.                            USGS   :COMPANY
 WELL.                      MCWD-DMW #1  :WELL
 FLD .                           Marina  :FIELD
 LOC .    None  None  None               :LOCATION
 CNTY.                         Monterey  :COUNTY
 STAT.             California            :STATE
 SRVC.    Western Reg                    :SERVICE COMPANY
 DATE.   05/27/00                        :LOG DATE
 UWI .                       	         :UNIQUE WELL ID
 LIC .                                   :LICENSE NUMBER
~Curve Information Block
#MNEM.UNIT      API CODE     Curve Description
#---------    -------------  ------------------------
 DEPT     .FT        00 001 00 00          :  1  DEPTH   
 TIME(N)  .USEC      00 000 00 00          :  2              TIME(N)
 TIME(F)  .USEC      00 000 00 00          :  3              TIME(F)
 DELTAT   .USEC/FT   00 522 00 00          :  4               DELTAT
 AMP(N)   .MV        00 000 00 00          :  5               AMP(N)
 AMP(F)   .MV        00 000 00 00          :  6               AMP(F)
 XTR PWR  .PERCENT   00 000 00 00          :  7              XTR PWR
 POR(SON) .PERCENT   00 890 00 00          :  8             POR(SON)
 BHC-DELT .USEC/FT   00 520 00 00          :  9             BHC-DELT
 TENSION  .POUNDS    00 000 00 00          : 10              TENSION
 TIME     .MINUTES   00 000 00 00          : 11                 TIME
~Parameter Information Block
#MNEM.UNIT   Information     Description
#---------- ---------------  ------------------------
~Other Information
#MNEM.UNIT  Information      Description
#---------- ---------------  ------------------------
 FILE.      ORIGINAL           File Type
 FIID.      9300A              File Type Identifier
 VERS.      1.0                System Version
 SER .      1                  System Serial Number
 TRUK.      0.5                Truck Calibration Number
 TOOL.         691             Tool Serial Number
 TIME.      07:18:             Time
 LAT .          None           Latitude
 LON .          None           Longitude
 LMF .           LSD           Log Measured From
 DMF .           LSD           Driller Measured From
 PD  .          None           Permanent Data
 PDEV.          None           Elevation Permanent Data
 EKB .M         None           Elevation Kelly Bushing
 ELEV.DF        None           Elevation DF
 EGL .M         None           Elevation Ground Level
 DRDP.         1990'           Driller's Depth
 CASD.         0               Casing Diameter
 CASB.          None           Casing Bottom
 CASX.          None           Casing Type
 CAST.         0               Casing Thickness
 TNOC.          None           Time Circulation Stopped
 LOGU.       WRRD              Logging Unit
 RECB.           Everett       Recorded By
 OSR1.       Pimente           Other Services
 OSR2.       mud vis           Other Services
 OSR3.           =62           Other Services
 BS  .MM           6           Bit Size
 MST .                         Mean Surface Temperature
 TGRD.        0                Temperature Gradiant
 MAGN.             0           Magnetic Declination
 MDEN.      2.71               Density Matrix
 MATR.       Dolomite          Neutron Matrix
 DTMT.            54           Delta T Matrix
 DTFL.                         Delta T Fluid
 MUDS.               0         Mud Sample Source
 MRS .           0             Mud Resistivity
 MTP .           0             Mud Temperature
 MFRS.                         Resistivity Mud Filtrate
 MFTP.                         Temperature Mud Filtrate
 MCRS.         0               Resistivity Mud Cake
 MCTP.                         Temperature Mud Cake
 FTYP.             0           Fluid Type
 FD  .K/M3                     Fluid Density
 DFV .S                        Fluid Viscosity
 FPH .                         Fuild PH
 ELCO.        2500             Electron Cutoff
# -------------------------- 
~A DEPTH  TIME(N) TIME(F) DELTAT AMP(N)   AMP(F)   XTR PWR POR(SON) BHC-DELT TENSION  TIME    
   1.400   991       0      0.1      0.0      0.0   0.0     0.0        0         0.0  0.00000 
   1.500   991       0     -0.1      0.0      0.0   0.0     0.0       -0         0.0  0.00000 
   1.600   991       0      0.2      0.0      0.0   0.0     0.0        0         0.0  0.00000 
   1.700   991       0      0.4      0.0      0.0   0.0     0.0        0         0.0  0.00000 
   1.800   992       0     -0.3      0.0      0.0   0.0     0.0       -0         0.0  0.00000 
   1.900   991       0      0.1      0.0     78.5   0.0     0.0        0         0.0  0.00000 
   2.000   991       0      0.1      0.0     78.5   0.0     0.0        0         0.0  0.00000 
   2.100   991       0     -0.1      0.0     78.5   0.0     0.0       -0         0.0  0.00000 
   2.200   991       0      0.0      0.0     78.5   0.0     0.0        0         0.0  0.00000 
   2.300   991       0      0.1      0.0     78.5   0.0     0.0        0         0.0  0.00000 
   2.400   991     991     -0.2     16.2     78.5   0.0     0.0       -0         0.0  0.00000 
   2.500   991     991     -0.1     29.2     53.9   0.0     0.0       -0         0.0  0.00000 
   2.600   992     991     -0.6     18.6    170.2   0.0     0.0       -0         0.0  0.00000 
   2.700   992     991     -0.9     25.6    166.2   0.0     0.0       -0         0.0  0.00000 
   2.800   991     992      0.1     25.8    136.6   0.0     0.0        0         0.0  0.00000 
   2.900   992     991     -0.5     35.1    154.1   0.0     0.0       -0         0.0  0.00000 
   3.000   992     991     -0.8     15.8    268.5   0.0     0.0       -0         0.0  0.00000 
   3.100   992     991     -0.1     24.4    150.4   0.0     0.0       -0         0.0  0.00000 
   3.200   991     991     -0.2     94.1    145.9   0.0     0.0       -0         0.0  0.00000 
   3.300   992     991     -0.4    100.9    192.1   0.0     0.0       -0         0.0  0.00000 
   3.400   992     991     -0.3    102.6    266.9   0.0     0.0       -0         0.0  0.00000 
   3.500   992     992     -0.3     41.8    153.1   0.0     0.0       -0         0.0  0.00000 
   3.600   992     992      0.0     41.5     65.1   0.0     0.0        0         0.0  0.00000 
   3.700   992     992      0.2     61.6     38.7   0.0     0.0        0         0.0  0.00000 
   3.800   992     992     -0.1     65.9     69.8   0.0     0.0       -0         0.0  0.00000 
   3.900   992     992      0.2     76.4     35.5   0.0     0.0        0         0.0  0.00000 
   4.000   992     992      0.3     51.6    130.6   0.0     0.0        0         0.0  0.00000 
   4.100   992     992     -0.1    108.9    185.0   0.0     0.0       -0         0.0  0.00000 
   4.200   992     991     -0.1     84.9    291.8   0.0     0.0       -0         0.0  0.00000 
   4.300   992     992     -0.0     51.4    194.4   0.0     0.0       -0         0.0  0.00000 
   4.400   992     992     -0.2     17.6     54.2   0.0     0.0       -0         0.0  0.00000 
   4.500   992     992      0.0      6.4    117.9   0.0     0.0        0         0.0  0.00000 
   4.600   992     992     -0.2     19.8     70.8   0.0     0.0       -0         0.0  0.00000 
   4.700   992     992     -0.1     45.6     81.0   0.0     0.0       -0         0.0  0.00000 
   4.800   992     992     -0.3     91.7    129.7   0.0     0.0       -0         0.0  0.00000 
   4.900   992     992     -0.2    141.1    123.6   0.0     0.0       -0         0.0  0.00000 
   5.000   992     992      0.1     97.0    168.1   0.0     0.0        0         0.0  0.00000 
   5.100   992     992     -0.2    134.3    231.7   0.0     0.0       -0         0.0  0.00000 
   5.200   992     992     -0.4     20.1    109.4   0.0     0.0       -0         0.0  1.65000 
   5.300   992     992      0.1     96.9    109.1   0.0     0.0        0         0.0  1.87000 
   5.400   992     992      0.2     45.1    151.1  100.0   -30098.5    0         2.0  1.76000 
   5.500   992     992     -0.0     81.6    147.5  100.0   298928.3   -0         0.0  1.65000 
   5.600   992     992      0.2     68.9     58.1  100.0   -28457.9    0         4.9  1.65000 
   5.700   992     992      0.1     54.0     85.7  100.0   -54072.9    0         5.3  1.43000 
   5.800   992     992      0.0     46.4     65.6  100.0   -162061.4    0         2.0  1.54000 
   5.900   992     992     -0.1     44.0    107.3  100.0   63575.3    -0         4.9  1.43000 
   6.000   992     992     -0.3     46.0    125.7  100.0   24347.8    -0         4.6  1.43000 
   6.100   992     992     -0.1    108.0    118.6  100.0   54452.5    -0         4.3  1.54000 
   6.200   992     992      0.0     68.8     62.4  100.0   -200579.1    0         1.9  1.65000 
   6.300   992     992     -0.3     33.0     46.6  100.0   29175.3    -0         5.3  1.53000 
   6.400   992     992      0.1     98.0     75.5  100.0   -43482.6    0         0.7  1.65000 
   6.500   992     992      0.3     36.8     82.3  100.0   -22514.1    0         0.2  4.29000 
   6.600   992     992      0.0     36.3    115.3  100.0   -105024.4    0         0.0  4.95000 
   6.700   992     992     -0.3     67.8     79.0  100.0   30461.3    -0         1.5  0.88000 
   6.800   992     992      0.4     27.3    102.6  100.0   -17495.7    0         3.3  0.88000 
   6.900   992     884    -107.9    29.0     64.0  100.0   126.1     -54         0.0  0.88000 
   7.000   992     897    -94.8     52.5    133.5  100.0   134.8     -47         0.0  0.88000 
   7.100   992     883    -108.6    34.3    114.0  100.0   125.7     -54         0.0  0.88000 
   7.200   992     992     -0.2      8.0     32.4  100.0   31560.7    -0         0.0  0.99000 
   7.300   992     992     -0.5      8.5    162.4  100.0   14101.5    -0         0.0  0.77000 
   7.400   992     965    -26.2     78.3    129.5  100.0   323.1     -13         0.0  0.77000 
   7.500   992     983     -8.6     63.0    152.8  100.0   859.1      -4         0.0  0.77000 
   7.600   992     990     -1.2     29.0    237.0  100.0   6283.8     -1         0.8  0.70000 
   7.700   992     992      0.1     81.0     94.8  100.0   -43482.6    0         1.9  0.85000 
   7.800   992     992     -0.4     94.3    103.5  100.0   18065.8    -0         0.5  0.66000 
   7.900   992     992      0.4     33.5    146.5  100.0   -15489.0    0         2.0  0.77000 
   8.000   992     992     -0.2     63.3    101.3  100.0   44897.6    -0         5.2  0.77000 
   8.100   992     992     -0.2    123.3    105.7  100.0   39473.6    -0         7.7  0.66000 
   8.200   992     992      0.0     18.8     27.5  100.0   -145089.0    0        10.7  0.77000 
   8.300   992     992      0.8    109.0     77.5  100.0   -7833.7     0        11.4  0.77000 
   8.400   992     992     -0.1     90.2    162.8  100.0   67493.9    -0         4.9  0.77000 
   8.500   992     992     -0.5     88.7    142.7  100.0   14110.0    -0         1.2  0.77000 
   8.600   992     992      0.1     62.0    173.5  100.0   -72513.0    0         1.3  0.66000 
   8.700   992     992     -0.3     11.0    159.5  100.0   26636.7    -0         0.3  0.66000 
   8.800   992     992      0.3     70.0     33.3  100.0   -17522.3    0         1.8  0.77000 
   8.900   992     992      0.3     49.0     62.5  100.0   -22683.6    0         1.6  0.66000 
   9.000   992     992     -0.5    110.5     36.5  100.0   15150.3    -0         2.1  0.66000 
   9.100   992     992      0.3     48.7     23.0  100.0   -19312.1    0         5.0  0.77000 
   9.200   992     992     -0.1     82.0     67.8  100.0   169583.6   -0         3.2  0.77000 
   9.300   993     992     -0.9     11.0    107.0  100.0   7608.3     -0         2.1  0.66000 
   9.400   992     992      0.0      4.5    110.8  100.0   -167420.1    0         3.6  0.77000 
   9.500   993     992     -0.2     39.0     38.7  100.0   35792.7    -0         6.5  0.77000 
   9.600   992     992     -0.6     42.0    129.5  100.0   12159.0    -0         2.0  0.55000 
   9.700   991     992      1.0     64.5     97.3  100.0   -6501.9     1         0.4  0.33000 
   9.800   992     992     -0.4     31.5    175.0  100.0   19503.0    -0         0.1  0.44000 
