~Version Information
 VERS.                2.0:  CWLS LOG ASCII STANDARD -VERSION 2.0
 WRAP.                 NO:  ONE LINE PER DEPTH STEP
~WELL INFORMATION BLOCK
#MNEM.UNIT       DATA		            DESCRIPTION OF MNEMONIC
#---------    -------------            ------------------------
 STRT.FT  41.500                         :START DEPTH
 STOP.FT  1871.500                       :STOP DEPTH
 STEP.FT  0.100                          :STEP    UP_HOLE  
 NULL.    0                              :NULL VALUE
 COMP.                            USGS   :COMPANY
 WELL.                      MCWD-DMW #1  :WELL
 FLD .                           Marina  :FIELD
 LOC .    None  None  None               :LOCATION
 CNTY.                         Monterey  :COUNTY
 STAT.             California            :STATE
 SRVC.    Western Reg                    :SERVICE COMPANY
 DATE.   05/27/00                        :LOG DATE
 UWI .                       	         :UNIQUE WELL ID
 LIC .                                   :LICENSE NUMBER
~Curve Information Block
#MNEM.UNIT      API CODE     Curve Description
#---------    -------------  ------------------------
 DEPT     .FT        00 001 00 00          :  1  DEPTH   
 GAM(NAT) .API-GR    00 310 00 00          :  2             GAM(NAT)
 COND     .MMHO/M    00 000 00 00          :  3                 COND
 RES      .OHM-M     00 000 00 00          :  4                  RES
 TEMP     .DEG F     00 660 00 00          :  5                 TEMP
 AP-COND  .MMHO/M    00 000 00 00          :  6              AP-COND
 TEMP     .CPS       00 660 00 00          :  7                 TEMP
 AP-COND  .CPS       00 000 00 00          :  8              AP-COND
 TENSION  .POUNDS    00 000 00 00          :  9              TENSION
 TIME     .MINUTES   00 000 00 00          : 10                 TIME
~Parameter Information Block
#MNEM.UNIT   Information     Description
#---------- ---------------  ------------------------
~Other Information
#MNEM.UNIT  Information      Description
#---------- ---------------  ------------------------
 FILE.      ORIGINAL           File Type
 FIID.      9511A              File Type Identifier
 VERS.      1.0                System Version
 SER .      1                  System Serial Number
 TRUK.      0.5                Truck Calibration Number
 TOOL.         770             Tool Serial Number
 TIME.      05:18:             Time
 LAT .          None           Latitude
 LON .          None           Longitude
 LMF .           LSD           Log Measured From
 DMF .           LSD           Driller Measured From
 PD  .          None           Permanent Data
 PDEV.          None           Elevation Permanent Data
 EKB .M         None           Elevation Kelly Bushing
 ELEV.DF        None           Elevation DF
 EGL .M         None           Elevation Ground Level
 DRDP.         1990'           Driller's Depth
 CASD.         0               Casing Diameter
 CASB.          None           Casing Bottom
 CASX.          None           Casing Type
 CAST.         0               Casing Thickness
 TNOC.          None           Time Circulation Stopped
 LOGU.       WRRD              Logging Unit
 RECB.           Everett       Recorded By
 OSR1.       Pimente           Other Services
 OSR2.       mud vis           Other Services
 OSR3.           =62           Other Services
 BS  .MM           6           Bit Size
 MST .                         Mean Surface Temperature
 TGRD.        0                Temperature Gradiant
 MAGN.             0           Magnetic Declination
 MDEN.      2.71               Density Matrix
 MATR.       Dolomite          Neutron Matrix
 DTMT.            54           Delta T Matrix
 DTFL.                         Delta T Fluid
 MUDS.               0         Mud Sample Source
 MRS .           0             Mud Resistivity
 MTP .           0             Mud Temperature
 MFRS.                         Resistivity Mud Filtrate
 MFTP.                         Temperature Mud Filtrate
 MCRS.         0               Resistivity Mud Cake
 MCTP.                         Temperature Mud Cake
 FTYP.             0           Fluid Type
 FD  .K/M3                     Fluid Density
 DFV .S                        Fluid Viscosity
 FPH .                         Fuild PH
 ELCO.        2500             Electron Cutoff
# -------------------------- 
~A DEPTH  GAM(NAT) COND     RES      TEMP  AP-COND  TEMP  AP-COND  TENSION  TIME    
# ...
 888.000    131.6     47.2     21.2  88.3     43.7  28960.0 60020.0      2.2  0.20000 
 888.100     60.8     45.8     21.9  88.3     42.4  28960.0 59865.0      2.2  0.10000 
 888.200     86.1     43.9     22.8  88.3     40.6  28960.0 59660.0      1.9  0.20000 
 888.300     65.8     45.5     22.0  88.3     42.2  28960.0 59840.0      1.9  0.20000 
 888.400    121.5     43.1     23.2  88.3     39.9  28960.0 59575.0      1.9  0.22000 
 888.500     55.7     42.6     23.5  88.3     39.5  28960.0 59520.0      0.7  0.11000 
 888.600    101.3     43.6     22.9  88.3     40.4  28960.0 59630.0      0.7  0.22000 
 888.700    131.6     43.6     22.9  88.3     40.4  28960.0 59630.0      0.5  0.22000 
 888.800     65.8     43.3     23.1  88.3     40.2  28960.0 59605.0      0.4  0.11000 
 888.900    126.6     44.6     22.4  88.3     41.3  28960.0 59735.0      0.4  0.11000 
 889.000     91.1     43.8     22.8  88.3     40.6  28960.0 59650.0      0.0  0.21000 
 889.100    106.3     43.0     23.3  88.5     39.8  28970.0 59560.0      0.0  0.10000 
 889.200     96.2     43.6     22.9  88.3     40.4  28960.0 59636.7      0.0  0.20000 
 889.300     86.1     41.9     23.9  88.3     38.9  28960.0 59450.0      0.0  0.20000 
 889.400     60.8     45.2     22.1  88.3     41.8  28960.0 59800.0      0.0  0.10000 
 889.500     20.3     44.6     22.4  88.3     41.3  28960.0 59735.0      0.0  0.20000 
 889.600     96.2     45.4     22.0  88.5     42.0  28970.0 59820.0      0.0  0.20000 
 889.700    121.5     46.0     21.7  88.3     42.6  28960.0 59890.0      0.0  0.11000 
 889.800     45.6     47.0     21.3  88.3     43.5  28960.0 59995.0      0.0  0.22000 
 889.900     65.8     48.8     20.5  88.3     45.1  28960.0 60190.0      0.0  0.22000 
 890.000     91.1     50.3     19.9  88.3     46.4  28960.0 60350.0      0.0  0.11000 
 890.100     50.6     51.9     19.3  88.4     47.9  28965.0 60520.0      0.0  0.22000 
 890.200     75.9     54.6     18.3  88.3     50.3  28960.0 60810.0      0.0  0.11000 
 890.300     30.4     57.3     17.4  88.3     52.8  28960.0 61105.0      0.0  0.11000 
 890.400     45.6     59.0     16.9  88.3     54.3  28960.0 61290.0      0.0  0.20000 
 890.500     91.1     63.5     15.7  88.4     58.4  28965.0 61770.0      0.0  0.20000 
 890.600     50.6     68.1     14.7  88.3     62.4  28960.0 62255.0      0.0  0.20000 
 890.700     65.8     74.1     13.5  88.3     67.9  28960.0 62900.0      0.0  0.10000 
 890.800     55.7     79.8     12.5  88.4     73.0  28965.0 63505.0      0.0  0.20000 
 890.900     50.6     83.3     12.0  88.3     76.0  28960.0 63870.0      0.0  0.20000 
 891.000     91.1     90.5     11.1  88.3     82.4  28960.0 64635.0      0.0  0.10000 
 891.100     65.8     94.1     10.6  88.3     85.6  28960.0 65015.0      0.0  0.20000 
 891.200    101.3     99.9     10.0  88.3     90.8  28960.0 65630.0      0.0  0.20000 
 891.300     60.8    104.9      9.5  88.3     95.3  28960.0 66165.0      0.0  0.10000 
 891.400    121.5    113.4      8.8  88.4    102.8  28965.0 67055.0      0.0  0.20000 
 891.500     70.9    116.4      8.6  88.3    105.4  28960.0 67370.0      0.1  0.20000 
 891.600     65.8    124.6      8.0  88.3    112.7  28960.0 68235.0      0.1  0.20000 
 891.700    136.7    132.8      7.5  88.4    120.0  28965.0 69100.0      0.1  0.10000 
 891.800     60.8    137.3      7.3  88.3    124.0  28960.0 69575.0      0.1  0.20000 
 891.900     40.5    140.7      7.1  88.3    126.9  28960.0 69930.0      0.1  0.20000 
 892.000     75.9    145.9      6.9  88.3    131.5  28960.0 70475.0      0.1  0.10000 
 892.100    131.6    148.5      6.7  88.3    133.8  28960.0 70745.0      0.0  0.20000 
 892.200     91.1    152.5      6.6  88.5    137.3  28970.0 71160.0      0.0  0.20000 
 892.300     81.0    153.8      6.5  88.3    138.4  28960.0 71300.0      0.0  0.10000 
 892.400    141.8    157.8      6.3  88.4    142.0  28965.0 71720.0      0.0  0.20000 
 892.500     74.3    159.0      6.3  88.3    143.0  28960.0 71840.0      0.0  0.20000 
 892.600     74.3    158.9      6.3  88.3    142.9  28960.0 71830.0      0.0  0.10000 
 892.700    101.3    159.6      6.3  88.4    143.5  28965.0 71905.0      0.0  0.20000 
 892.800     60.8    159.4      6.3  88.3    143.4  28960.0 71890.0      0.0  0.20000 
 892.900    157.0    157.6      6.3  88.3    141.8  28960.0 71700.0      0.0  0.10000 
 893.000     91.1    156.3      6.4  88.3    140.6  28960.0 71560.0      0.0  0.20000 
 893.100    141.8    154.2      6.5  88.5    138.8  28970.0 71340.0      0.0  0.20000 
 893.200     86.1    151.2      6.6  88.3    136.1  28960.0 71025.0      0.0  0.10000 
 893.300    121.5    149.7      6.7  88.4    134.8  28965.0 70870.0      0.0  0.20000 
 893.400    131.6    147.0      6.8  88.3    132.5  28960.0 70590.0      0.0  0.20000 
 893.500     91.1    144.7      6.9  88.4    130.4  28965.0 70345.0      0.0  0.20000 
 893.600    111.4    141.9      7.0  88.3    128.0  28960.0 70055.0      0.0  0.10000 
 893.700     55.7    138.5      7.2  88.4    124.9  28965.0 69690.0      0.0  0.20000 
 893.800    121.5    136.2      7.3  88.3    122.9  28960.0 69450.0      0.0  0.20000 
 893.900     96.2    132.0      7.6  88.4    119.3  28965.0 69015.0      1.2  0.10000 
 894.000    111.4    128.6      7.8  88.3    116.3  28960.0 68660.0      1.5  0.20000 
 894.100    121.5    127.0      7.9  88.5    114.9  28970.0 68490.0      1.5  0.20000 
 894.200    111.4    125.0      8.0  88.3    113.0  28960.0 68275.0      2.9  0.10000 
 894.300    131.6    122.5      8.2  88.4    110.8  28965.0 68010.0      3.4  0.20000 
 894.400     81.0    118.6      8.4  88.3    107.4  28960.0 67600.0      3.4  0.20000 
 894.500    136.7    117.2      8.5  88.4    106.2  28965.0 67460.0      4.1  0.10000 
 894.600     96.2    114.9      8.7  88.4    104.1  28965.0 67215.0      4.3  0.20000 
 894.700    121.5    111.2      9.0  88.3    100.9  28960.0 66830.0      4.3  0.20000 
 894.800     75.9    111.3      9.0  88.4    100.9  28965.0 66830.0      4.2  0.10000 
 894.900     75.9    109.6      9.1  88.3     99.5  28960.0 66660.0      3.7  0.20000 
 895.000    151.9    107.0      9.3  88.5     97.1  28970.0 66380.0      3.7  0.20000 
 895.100     96.2    104.2      9.6  88.3     94.7  28960.0 66090.0      2.5  0.10000 
 895.200     50.6    103.2      9.7  88.4     93.8  28965.0 65980.0      2.0  0.20000 
 895.300    106.3    100.6      9.9  88.3     91.5  28960.0 65710.0      2.5  0.20000 
 895.400     81.0    100.2     10.0  88.4     91.1  28965.0 65665.0      3.3  0.10000 
 895.500     91.1     99.3     10.1  88.3     90.3  28960.0 65570.0      3.3  0.20000 
 895.600     91.1    100.7      9.9  88.3     91.6  28960.0 65720.0      5.5  0.20000 
 895.700     30.4     98.9     10.1  88.4     89.9  28965.0 65525.0      6.1  0.10000 
 895.800     75.9     98.0     10.2  88.4     89.1  28965.0 65430.0      6.1  0.20000 
 895.900     91.1     97.4     10.3  88.3     88.6  28960.0 65370.0      8.5  0.20000 
 896.000    131.6     97.9     10.2  88.3     89.0  28960.0 65420.0      7.3  0.10000 
 896.100    126.6     98.1     10.2  88.4     89.2  28965.0 65440.0      7.3  0.20000 
 896.200     75.9     98.6     10.1  88.3     89.6  28960.0 65490.0      7.3  0.22000 
 896.300     96.2     97.8     10.2  88.3     89.0  28960.0 65415.0      6.1  0.11000 
 896.400     81.0    101.3      9.9  88.4     92.1  28965.0 65780.0      6.1  0.22000 
 896.500    106.3    102.5      9.8  88.3     93.2  28960.0 65910.0      5.3  0.22000 
 896.600     91.1    106.7      9.4  88.4     96.8  28965.0 66345.0      4.4  0.22000 
 896.700     81.0    109.5      9.1  88.4     99.3  28965.0 66640.0      4.4  0.00000 
 896.800     75.9    113.1      8.8  88.4    102.5  28965.0 67025.0      3.1  0.21000 
 896.900    121.5    118.8      8.4  88.3    107.5  28963.3 67620.0      3.0  0.20000 
 897.000     50.6    118.8      8.4  88.3    107.5  28963.3 67620.0      3.0  0.10000 
 897.100    111.4    126.4      7.9  88.4    114.3  28965.0 68425.0      2.6  0.20000 
