~Version Information
 VERS.                2.0:  CWLS LOG ASCII STANDARD -VERSION 2.0
 WRAP.                 NO:  ONE LINE PER DEPTH STEP
~WELL INFORMATION BLOCK
#MNEM.UNIT       DATA		            DESCRIPTION OF MNEMONIC
#---------    -------------            ------------------------
 STRT.FT  5.300                          :START DEPTH
 STOP.FT  1874.500                       :STOP DEPTH
 STEP.FT  0.100                          :STEP    UP_HOLE  
 NULL.    0                              :NULL VALUE
 COMP.                            USGS   :COMPANY
 WELL.                      MCWD-DMW #1  :WELL
 FLD .                           Marina  :FIELD
 LOC .    None  None  None               :LOCATION
 CNTY.                         Monterey  :COUNTY
 STAT.             California            :STATE
 SRVC.    Western Reg                    :SERVICE COMPANY
 DATE.   05/27/00                        :LOG DATE
 UWI .                       	         :UNIQUE WELL ID
 LIC .                                   :LICENSE NUMBER
~Curve Information Block
#MNEM.UNIT      API CODE     Curve Description
#---------    -------------  ------------------------
 DEPT     .FT        00 001 00 00          :  1  DEPTH   
 CALIPER  .INCH      00 280 00 00          :  2              CALIPER
 TENSION  .POUNDS    00 000 00 00          :  3              TENSION
 TIME     .MINUTES   00 000 00 00          :  4                 TIME
~Parameter Information Block
#MNEM.UNIT   Information     Description
#---------- ---------------  ------------------------
~Other Information
#MNEM.UNIT  Information      Description
#---------- ---------------  ------------------------
 FILE.      ORIGINAL           File Type
 FIID.      9065A              File Type Identifier
 VERS.      1.0                System Version
 SER .      1                  System Serial Number
 TRUK.      0.5                Truck Calibration Number
 TOOL.         573             Tool Serial Number
 TIME.      03:05:             Time
 LAT .          None           Latitude
 LON .          None           Longitude
 LMF .           LSD           Log Measured From
 DMF .           LSD           Driller Measured From
 PD  .          None           Permanent Data
 PDEV.          None           Elevation Permanent Data
 EKB .M         None           Elevation Kelly Bushing
 ELEV.DF        None           Elevation DF
 EGL .M         None           Elevation Ground Level
 DRDP.         1990'           Driller's Depth
 CASD.         0               Casing Diameter
 CASB.          None           Casing Bottom
 CASX.          None           Casing Type
 CAST.         0               Casing Thickness
 TNOC.          None           Time Circulation Stopped
 LOGU.       WRRD              Logging Unit
 RECB.           Everett       Recorded By
 OSR1.       Pimente           Other Services
 OSR2.       mud vis           Other Services
 OSR3.           =62           Other Services
 BS  .MM           6           Bit Size
 MST .                         Mean Surface Temperature
 TGRD.        0                Temperature Gradiant
 MAGN.             0           Magnetic Declination
 MDEN.      2.71               Density Matrix
 MATR.       Dolomite          Neutron Matrix
 DTMT.            54           Delta T Matrix
 DTFL.                         Delta T Fluid
 MUDS.               0         Mud Sample Source
 MRS .           0             Mud Resistivity
 MTP .           0             Mud Temperature
 MFRS.                         Resistivity Mud Filtrate
 MFTP.                         Temperature Mud Filtrate
 MCRS.         0               Resistivity Mud Cake
 MCTP.                         Temperature Mud Cake
 FTYP.             0           Fluid Type
 FD  .K/M3                     Fluid Density
 DFV .S                        Fluid Viscosity
 FPH .                         Fuild PH
 ELCO.        2500             Electron Cutoff
# -------------------------- 
~A DEPTH  CALIPER TENSION  TIME    
# ...
 250.600   9.7        0.4  0.20000 
 250.700   9.7        0.4  0.20000 
 250.800   9.7        1.0  0.20000 
 250.900   9.7        1.0  0.20000 
 251.000   9.7        1.0  0.20000 
 251.100   9.7        0.6  0.20000 
 251.200   9.7        0.6  0.20000 
 251.300   9.7        0.0  0.10000 
 251.400   9.7        0.0  0.20000 
 251.500   9.7        0.0  0.20000 
 251.600   9.7        0.0  0.20000 
 251.700   9.7        0.0  0.22000 
 251.800   9.7        0.0  0.22000 
 251.900   9.7        0.0  0.22000 
 252.000   9.7        0.0  0.22000 
 252.100   9.7        0.0  0.11000 
 252.200   9.7        0.0  0.21000 
 252.300   9.7        0.2  0.20000 
 252.400   9.7        0.2  0.20000 
 252.500   9.7        0.2  0.20000 
 252.600   9.7        0.2  0.20000 
 252.700   9.7        0.6  0.20000 
 252.800   9.7        0.4  0.20000 
 252.900   9.7        0.4  0.20000 
 253.000   9.7        0.4  0.20000 
 253.100   9.7        0.4  0.10000 
 253.200   9.7        0.0  0.20000 
 253.300   9.7        1.7  0.21000 
 253.400   9.7        1.7  0.22000 
 253.500   9.7        4.5  0.22000 
 253.600   9.7        4.5  0.22000 
 253.700   9.7        6.0  0.22000 
 253.800   9.7        5.9  0.21000 
 253.900   9.7        5.9  0.10000 
 254.000   9.7        4.4  0.20000 
 254.100   9.7        4.4  0.20000 
 254.200   9.7        2.9  0.20000 
 254.300   9.7        3.4  0.20000 
 254.400   9.7        2.0  0.20000 
 254.500   9.7        0.7  0.20000 
 254.600   9.7        0.7  0.20000 
 254.700   9.7        0.7  0.20000 
 254.800   9.7        0.5  0.20000 
 254.900   9.7        0.3  0.20000 
 255.000   9.7        1.1  0.20000 
 255.100   9.7        1.1  0.20000 
 255.200   9.7        1.2  0.10000 
 255.300   9.7        0.9  0.20000 
 255.400   9.7        1.1  0.20000 
 255.500   9.7        0.3  0.20000 
 255.600   9.7        0.7  0.20000 
 255.700   9.7        0.7  0.20000 
 255.800   9.7        0.6  0.20000 
 255.900   9.7        0.4  0.20000 
 256.000   9.7        0.4  0.20000 
 256.100   9.7        0.3  0.20000 
 256.200   9.7        0.3  0.20000 
 256.300   9.7        0.3  0.20000 
 256.400   9.7        0.3  0.10000 
 256.500   9.7        0.3  0.20000 
 256.600   9.7        0.0  0.20000 
 256.700   9.7        0.0  0.20000 
 256.800   9.7        0.0  0.20000 
 256.900   9.7        0.0  0.20000 
 257.000   9.7        0.0  0.20000 
 257.100   9.7        0.0  0.20000 
 257.200   9.7        0.0  0.20000 
 257.300   9.7        0.0  0.20000 
 257.400   9.7        0.0  0.20000 
 257.500   9.7        0.0  0.20000 
 257.600   9.7        0.0  0.20000 
 257.700   9.7        0.8  0.10000 
 257.800   9.7        0.8  0.20000 
 257.900   9.7        0.8  0.20000 
 258.000   9.7        0.9  0.20000 
 258.100   9.7        0.9  0.20000 
 258.200   9.7        1.1  0.20000 
 258.300   9.7        3.1  0.20000 
 258.400   9.7        3.1  0.20000 
 258.500   9.7        4.1  0.20000 
 258.600   9.7        5.4  0.20000 
 258.700   9.7        8.5  0.20000 
 258.800   9.7        5.7  0.20000 
 258.900   9.7       11.0  0.10000 
 259.000   9.7       11.5  0.20000 
 259.100   9.7       12.8  0.20000 
 259.200   9.7       12.8  0.20000 
 259.300   9.7       11.7  0.20000 
 259.400   9.7        6.4  0.20000 
 259.500   9.7        6.9  0.20000 
 259.600   9.7        6.2  0.20000 
 259.700   9.7        4.8  0.20000 
 259.800   9.7        2.6  0.20000 
 259.900   9.7        3.3  0.20000 
 260.000   9.7        1.9  0.20000 
 260.100   9.7        1.9  0.20000 
 260.200   9.7        0.7  0.20000 
 260.300   9.7        0.7  0.20000 
 260.400   9.7        0.0  0.20000 
 260.500   9.7        0.4  0.20000 
 260.600   9.7        0.9  0.20000 
 260.700   9.7        0.9  0.20000 
 260.800   9.7        1.0  0.20000 
 260.900   9.7        1.2  0.20000 
 261.000   9.7        1.6  0.20000 
 261.100   9.7        1.1  0.10000 
 261.200   9.7        1.3  0.20000 
 261.300   9.7        1.2  0.20000 
 261.400   9.7        1.0  0.20000 
 261.500   9.7        1.0  0.20000 
 261.600   9.7        1.3  0.20000 
 261.700   9.7        1.1  0.20000 
 261.800   9.7        2.0  0.20000 
 261.900   9.7        2.2  0.20000 
 262.000   9.7        4.3  0.20000 
 262.100   9.7        3.2  0.20000 
 262.200   9.7        5.2  0.20000 
 262.300   9.7        4.7  0.20000 
 262.400   9.7        4.5  0.21000 
 262.500   9.7        2.4  0.22000 
 262.600   9.7        2.4  0.11000 
 262.700   9.7        0.4  0.22000 
 262.800   9.7        0.0  0.22000 
 262.900   9.7        0.0  0.11000 
 263.000   9.7        0.0  0.21000 
 263.100   9.7        0.0  0.20000 
 263.200   9.7        0.0  0.20000 
 263.300   9.7        0.0  0.20000 
 263.400   9.7        0.0  0.20000 
 263.500   9.7        0.0  0.20000 
 263.600   9.7        0.0  0.22000 
 263.700   9.7        0.0  0.22000 
 263.800   9.7        0.0  0.11000 
 263.900   9.7        0.2  0.22000 
 264.000   9.7        0.2  0.22000 
 264.100   9.7        0.9  0.11000 
 264.200   9.7        0.9  0.20000 
 264.300   9.7        4.3  0.20000 
 264.400   9.7        4.9  0.20000 
 264.500   9.7        4.7  0.20000 
 264.600   9.7        6.4  0.20000 
 264.700   9.7        7.5  0.21000 
 264.800   9.7        4.1  0.22000 
 264.900   9.7        4.5  0.22000 
 265.000   9.7        4.5  0.22000 
 265.100   9.7        3.6  0.22000 
 265.200   9.7        3.4  0.11000 
 265.300   9.7        3.4  0.20000 
 265.400   9.7        2.7  0.20000 
 265.500   9.7        4.4  0.20000 
 265.600   9.7        3.6  0.20000 
 265.700   9.7        6.4  0.20000 
 265.800   9.7        7.6  0.21000 
 265.900   9.7        7.4  0.22000 
 266.000   9.7        5.7  0.22000 
 266.100   9.7        5.7  0.22000 
 266.200   9.7        2.9  0.22000 
 266.300   9.7        0.1  0.11000 
 266.400   9.7        0.0  0.20000 
 266.500   9.7        0.0  0.20000 
 266.600   9.7        1.3  0.20000 
 266.700   9.7        1.3  0.20000 
 266.800   9.7        4.7  0.20000 
 266.900   9.7        5.8  0.10000 
 267.000   9.6        6.9  0.22000 
 267.100   9.6        5.6  0.22000 
 267.200   9.6        5.7  0.22000 
 267.300   9.6        2.5  0.22000 
 267.400   9.6        2.4  0.11000 
 267.500   9.6        1.4  0.21000 
 267.600   9.6        0.3  0.20000 
 267.700   9.6        0.3  0.20000 
 267.800   9.7        0.2  0.20000 
 267.900   9.7        0.1  0.20000 
 268.000   9.7        0.2  0.20000 
 268.100   9.7        0.2  0.22000 
 268.200   9.7        1.0  0.22000 
 268.300   9.7        3.7  0.22000 
 268.400   9.7        4.1  0.22000 
 268.500   9.7        5.5  0.11000 
 268.600   9.7        5.5  0.21000 
 268.700   9.7        5.6  0.20000 
 268.800   9.7        5.6  0.20000 
 268.900   9.7        2.9  0.20000 
 269.000   9.7        2.4  0.20000 
 269.100   9.7        0.9  0.21000 
 269.200   9.7        0.0  0.22000 
 269.300   9.7        0.0  0.22000 
 269.400   9.7        0.0  0.22000 
 269.500   9.7        0.0  0.22000 
 269.600   9.7        0.0  0.11000 
 269.700   9.7        0.1  0.20000 
 269.800   9.7        2.0  0.20000 
 269.900   9.7        2.0  0.20000 
 270.000   9.7        2.7  0.20000 
 270.100   9.7        2.7  0.10000 
 270.200   9.7        2.7  0.30000 
 270.300   9.7        2.6  0.20000 
 270.400   9.7        0.7  0.10000 
 270.500   9.7        0.1  0.20000 
 270.600   9.7        2.9  0.20000 
 270.700   9.7        3.5  0.20000 
 270.800   9.7        3.5  0.20000 
 270.900   9.7        4.4  0.20000 
 271.000   9.7        6.4  0.20000 
 271.100   9.7        3.6  0.20000 
 271.200   9.7        3.7  0.20000 
 271.300   9.7        3.7  0.20000 
 271.400   9.7        4.2  0.20000 
 271.500   9.7        2.1  0.20000 
 271.600   9.7        2.9  0.20000 
 271.700   9.7        2.2  0.22000 
 271.800   9.7        2.6  0.22000 
 271.900   9.7        1.5  0.22000 
 272.000   9.7        1.7  0.22000 
 272.100   9.7        1.2  0.11000 
 272.200   9.7        1.2  0.21000 
 272.300   9.7        0.8  0.20000 
 272.400   9.7        0.8  0.20000 
 272.500   9.7        0.6  0.20000 
 272.600   9.7        1.1  0.20000 
 272.700   9.7        0.8  0.20000 
 272.800   9.7        0.8  0.10000 
