~Version Information
 VERS.                2.0:  CWLS LOG ASCII STANDARD -VERSION 2.0
 WRAP.                 NO:  ONE LINE PER DEPTH STEP
~WELL INFORMATION BLOCK
#MNEM.UNIT       DATA		            DESCRIPTION OF MNEMONIC
#---------    -------------            ------------------------
 STRT.FT  1.400                          :START DEPTH
 STOP.FT  1872.000                       :STOP DEPTH
 STEP.FT  0.100                          :STEP    UP_HOLE  
 NULL.    0                              :NULL VALUE
 COMP.                            USGS   :COMPANY
 WELL.                      MCWD-DMW #1  :WELL
 FLD .                           Marina  :FIELD
 LOC .    None  None  None               :LOCATION
 CNTY.                         Monterey  :COUNTY
 STAT.             California            :STATE
 SRVC.    Western Reg                    :SERVICE COMPANY
 DATE.   05/27/00                        :LOG DATE
 UWI .                       	         :UNIQUE WELL ID
 LIC .                                   :LICENSE NUMBER
~Curve Information Block
#MNEM.UNIT      API CODE     Curve Description
#---------    -------------  ------------------------
 DEPT     .FT        00 001 00 00          :  1  DEPTH   
 TIME(N)  .USEC      00 000 00 00          :  2              TIME(N)
 TIME(F)  .USEC      00 000 00 00          :  3              TIME(F)
 DELTAT   .USEC/FT   00 522 00 00          :  4               DELTAT
 AMP(N)   .MV        00 000 00 00          :  5               AMP(N)
 AMP(F)   .MV        00 000 00 00          :  6               AMP(F)
 XTR PWR  .PERCENT   00 000 00 00          :  7              XTR PWR
 POR(SON) .PERCENT   00 890 00 00          :  8             POR(SON)
 BHC-DELT .USEC/FT   00 520 00 00          :  9             BHC-DELT
 TENSION  .POUNDS    00 000 00 00          : 10              TENSION
 TIME     .MINUTES   00 000 00 00          : 11                 TIME
~Parameter Information Block
#MNEM.UNIT   Information     Description
#---------- ---------------  ------------------------
~Other Information
#MNEM.UNIT  Information      Description
#---------- ---------------  ------------------------
 FILE.      ORIGINAL           File Type
 FIID.      9300A              File Type Identifier
 VERS.      1.0                System Version
 SER .      1                  System Serial Number
 TRUK.      0.5                Truck Calibration Number
 TOOL.         691             Tool Serial Number
 TIME.      07:18:             Time
 LAT .          None           Latitude
 LON .          None           Longitude
 LMF .           LSD           Log Measured From
 DMF .           LSD           Driller Measured From
 PD  .          None           Permanent Data
 PDEV.          None           Elevation Permanent Data
 EKB .M         None           Elevation Kelly Bushing
 ELEV.DF        None           Elevation DF
 EGL .M         None           Elevation Ground Level
 DRDP.         1990'           Driller's Depth
 CASD.         0               Casing Diameter
 CASB.          None           Casing Bottom
 CASX.          None           Casing Type
 CAST.         0               Casing Thickness
 TNOC.          None           Time Circulation Stopped
 LOGU.       WRRD              Logging Unit
 RECB.           Everett       Recorded By
 OSR1.       Pimente           Other Services
 OSR2.       mud vis           Other Services
 OSR3.           =62           Other Services
 BS  .MM           6           Bit Size
 MST .                         Mean Surface Temperature
 TGRD.        0                Temperature Gradiant
 MAGN.             0           Magnetic Declination
 MDEN.      2.71               Density Matrix
 MATR.       Dolomite          Neutron Matrix
 DTMT.            54           Delta T Matrix
 DTFL.                         Delta T Fluid
 MUDS.               0         Mud Sample Source
 MRS .           0             Mud Resistivity
 MTP .           0             Mud Temperature
 MFRS.                         Resistivity Mud Filtrate
 MFTP.                         Temperature Mud Filtrate
 MCRS.         0               Resistivity Mud Cake
 MCTP.                         Temperature Mud Cake
 FTYP.             0           Fluid Type
 FD  .K/M3                     Fluid Density
 DFV .S                        Fluid Viscosity
 FPH .                         Fuild PH
 ELCO.        2500             Electron Cutoff
# -------------------------- 
~A DEPTH  TIME(N) TIME(F) DELTAT AMP(N)   AMP(F)   XTR PWR POR(SON) BHC-DELT TENSION  TIME    
# ...
 494.400   592     766    174.0   3993.5   2622.5  70.0    41.9      161         0.0  0.20000 
 494.500   587     766    178.4   3977.0   1680.5  73.8    42.2      163         0.1  0.20000 
 494.600   588     767    179.4   3944.0   1673.0  77.0    42.3      165         0.1  0.20000 
 494.700   588     770    182.1   3759.0   1897.0  79.6    42.6      167         0.2  0.20000 
 494.800   593     772    179.9   4158.5   2036.5  82.9    42.5      166         0.2  0.10000 
 494.900   599     774    175.4   4253.0   2472.0  84.6    42.3      164         0.4  0.20000 
 495.000   603     775    172.2   4369.0   2834.0  87.3    42.1      163         0.4  0.22000 
 495.100   601     765    163.6   3108.5   2363.0  89.3    41.7      160         0.4  0.22000 
 495.200   600     760    159.3   2428.0   2297.0  91.0    41.6      159         0.3  0.22000 
 495.300   600     753    152.8   2288.0   1929.5  93.8    41.3      157         0.3  0.22000 
 495.400   599     758    159.7   1428.5   2483.5  97.2    41.9      162         0.3  0.11000 
 495.500   598     754    155.6   1246.5   2432.5  99.5    41.8      160         0.1  0.11000 
 495.600   599     750    150.6   1294.5   2189.0  99.6    41.6      159         0.0  0.20000 
 495.700   599     761    161.4   1485.5   3190.5  99.9    42.3      165         0.0  0.20000 
 495.800   599     766    167.0   1789.5   4042.5  99.9    42.7      167         0.0  0.20000 
 495.900   599     767    167.9   1760.0   3956.5  100.0   42.8      168         0.0  0.20000 
 496.000   600     779    179.4   1653.5   4848.0  100.0   43.4      174         0.0  0.20000 
 496.100   601     779    177.6   1253.0   4328.0  100.0   43.3      173         0.0  0.20000 
 496.200   600     777    176.9    971.5   3449.0  100.0   43.3      173         0.0  0.20000 
 496.300   600     776    176.8    937.5   2978.0  100.0   43.3      173         0.0  0.10000 
 496.400   600     765    165.5    815.5   1925.5  100.0   42.7      168         0.0  0.20000 
 496.500   600     769    168.8    810.0   1497.0  100.0   42.9      169         0.3  0.20000 
 496.600   600     772    172.1    633.5   1443.0  100.0   43.1      171         0.3  0.20000 
 496.700   600     773    172.4    663.0   1632.5  99.3    43.2      172         0.3  0.20000 
 496.800   601     772    171.2    936.0   1985.0  97.6    43.1      171         0.3  0.20000 
 496.900   601     772    171.3    755.5   2229.0  95.9    43.2      172         0.3  0.20000 
 497.000   600     772    172.1   1000.0   2392.5  94.1    43.3      172         0.3  0.20000 
 497.100   599     773    173.9   1185.0   2459.0  92.2    43.6      175         0.0  0.10000 
 497.200   598     775    176.3   1212.5   2480.0  90.3    43.7      176         0.0  0.20000 
 497.300   598     776    177.6   1292.0   2486.5  88.3    44.0      179         0.0  0.20000 
 497.400   599     777    178.1   1187.0   2490.0  86.2    43.7      176         0.0  0.20000 
 497.500   600     776    176.3   1012.0   2481.0  84.6    43.5      175         0.0  0.20000 
 497.600   600     776    176.3   1125.0   2517.0  83.0    43.5      174         0.0  0.20000 
 497.700   600     776    175.6   1296.0   2318.0  80.7    43.4      174         0.0  0.20000 
 497.800   600     776    175.2   1449.0   2229.0  78.4    43.3      173         0.0  0.20000 
 497.900   601     775    174.4   1599.0   2045.5  76.0    43.2      172         0.0  0.10000 
 498.000   602     775    173.4   1643.5   1909.0  72.8    43.1      171         0.0  0.20000 
 498.100   602     775    172.1   1695.5   1716.0  70.9    42.4      165         0.0  0.20000 
 498.200   603     774    170.8   1756.0   1586.0  68.8    42.4      165         0.0  0.20000 
 498.300   603     773    169.6   1740.5   1582.5  66.8    42.0      162         0.0  0.20000 
 498.400   604     773    169.1   1607.5   1632.5  64.1    42.7      168         0.0  0.20000 
 498.500   604     772    168.6   1499.0   1598.0  61.2    42.7      167         0.0  0.22000 
 498.600   604     772    168.4   1420.0   1504.5  58.3    42.4      165         0.0  0.22000 
 498.700   604     772    167.6   1378.5   1494.0  55.3    43.0      170         0.0  0.22000 
 498.800   605     772    167.2   1411.5   1531.5  52.2    43.0      170         0.0  0.11000 
 498.900   605     772    167.5   1523.0   1570.5  48.9    42.8      168         0.0  0.22000 
 499.000   604     772    167.4   1682.5   1550.0  45.6    43.2      172         0.0  0.11000 
 499.100   605     772    166.9   1783.5   1497.0  43.0    43.3      172         0.0  0.20000 
 499.200   606     772    166.7   1772.5   1345.5  40.5    43.2      172         0.0  0.20000 
 499.300   607     774    166.6   1907.0   1389.5  38.7    43.1      171         0.0  0.20000 
 499.400   608     775    167.2   2039.0   1548.0  38.9    42.6      167         0.7  0.20000 
 499.500   608     776    167.6   1972.5   1787.0  40.2    42.9      169         0.7  0.20000 
 499.600   609     777    167.7   2184.5   2048.0  41.6    43.0      170         0.9  0.20000 
 499.700   609     777    168.0   3246.0   2633.0  41.8    43.1      171         0.9  0.10000 
 499.800   606     777    170.3   4284.0   3552.5  40.7    43.2      172         0.9  0.20000 
 499.900   606     776    169.5   4284.0   3912.0  38.7    43.1      171         0.3  0.20000 
 500.000   605     776    170.8   4575.5   4036.0  35.8    43.2      172         0.3  0.20000 
 500.100   604     776    171.6   4127.5   3557.0  32.2    43.2      172         0.3  0.20000 
 500.200   604     776    172.0   3372.0   2880.0  29.2    43.3      173         0.1  0.20000 
 500.300   604     777    172.9   2863.5   2386.5  29.9    43.5      174         0.1  0.20000 
 500.400   604     777    173.4   2489.0   1937.0  29.9    43.6      175         0.0  0.20000 
 500.500   604     777    173.8   2273.5   1621.0  33.0    43.6      175         0.0  0.20000 
 500.600   604     778    174.1   2124.0   1403.0  36.1    43.6      175         0.0  0.20000 
 500.700   604     777    173.5   2131.5   1382.0  38.8    43.5      175         0.0  0.20000 
 500.800   604     774    169.4   2456.0   1740.3  40.2    43.2      172         0.0  0.11000 
 500.900   604     774    169.8   2602.5   1740.3  40.5    43.2      172         0.0  0.22000 
 501.000   604     772    167.4   2487.5   2007.5  40.1    43.1      171         0.0  0.22000 
 501.100   605     771    165.3   2555.0   2244.0  39.5    43.0      170         0.0  0.22000 
 501.200   607     769    162.6   2834.0   2431.5  38.5    42.9      169         0.0  0.22000 
 501.300   608     768    159.6   3171.0   2437.5  37.0    42.7      167         0.0  0.11000 
 501.400   609     768    158.2   3569.5   2422.0  35.8    42.5      166         0.0  0.20000 
 501.500   608     767    159.3   3773.0   2466.0  34.0    42.5      166         0.0  0.10000 
 501.600   608     767    159.5   3907.0   2392.0  31.5    42.5      166         0.0  0.20000 
 501.700   608     767    159.6   4112.5   2263.5  28.9    42.5      166         0.0  0.20000 
 501.800   608     768    160.1   4564.5   2042.0  27.1    42.5      166         0.0  0.20000 
 501.900   608     769    160.8   4795.0   1755.5  26.5    42.5      166         0.0  0.20000 
 502.000   608     770    161.7   4681.5   1581.0  27.1    42.5      166         0.0  0.20000 
 502.100   608     772    164.1   3867.0   1383.0  28.0    42.6      167         0.0  0.20000 
 502.200   607     774    167.7   2922.5   1326.0  29.5    42.8      169         0.0  0.20000 
 502.300   606     777    171.6   2391.5   1465.0  32.2    43.1      171         0.0  0.20000 
 502.400   605     778    173.3   2518.0   1629.5  35.5    43.3      172         0.4  0.10000 
 502.500   604     778    174.1   2412.0   1716.0  38.9    43.3      173         0.4  0.20000 
 502.600   603     779    175.6   2257.5   1805.0  42.1    43.5      174         0.4  0.20000 
 502.700   603     779    176.8   2419.0   1954.5  43.4    43.5      175         0.6  0.20000 
 502.800   603     780    177.0   2916.0   2247.5  42.4    43.5      175         0.6  0.20000 
